Feather LoRa RX Test!

LoRa radio init OK!

Set Freq to: 915.00

||||||||||||-50,6969,$GNGGA,000314.094,,,,,0,0,,,M,,M,,*5D

||||||||||||-50,6969,$ACCEL,0.13,-0.48,10.22,$ALT,283.975D

||||||||||||-50,6969,$GNRMC,000314.094,V,,,,,0.00,0.00,060180,,,N*57

||||||||||||-49,6969,$ACCEL,0.13,-0.48,10.22,$ALT,283.996018

||||||||||||-49,6969,$GNGGA,000315.094,,,,,0,0,,,M,,M,,*5C8

||||||||||||-50,6969,$ACCEL,0.14,-0.49,10.22,$ALT,284.025C8

||||||||||||-50,6969,$GNRMC,000315.094,V,,,,,0.00,0.00,060180,,,N*56

||||||||||||-50,6969,$ACCEL,0.14,-0.49,10.22,$ALT,283.9960180,,,N*56

||||||||||||-50,6969,$GNGGA,000316.094,,,,,0,0,,,M,,M,,*5F8

||||||||||||-51,6969,$ACCEL,0.14,-0.47,10.23,$ALT,283.995F8

||||||||||||-51,6969,$GNRMC,000316.094,V,,,,,0.00,0.00,060180,,,N*55

||||||||||||-52,6969,$ACCEL,0.14,-0.47,10.23,$ALT,283.996018

||||||||||||-52,6969,$GNGGA,000317.094,,,,,0,0,,,M,,M,,*5E8

||||||||||||-51,6969,$ACCEL,0.14,-0.48,10.24,$ALT,284.005E8

||||||||||||-49,6969,$GNRMC,000317.094,V,,,,,0.00,0.00,060180,,,N*54

||||||||||||-52,6969,$ACCEL,0.14,-0.48,10.24,$ALT,284.0060180,,,N*54

||||||||||||-52,6969,$GNGGA,000318.094,,,,,0,0,,,M,,M,,*5180,,,N*54

||||||||||||-54,6969,$ACCEL,0.14,-0.48,10.23,$ALT,284.005180,,,N*54

||||||||||||-53,6969,$GNRMC,000318.094,V,,,,,0.00,0.00,060180,,,N*5B

||||||||||||-53,6969,$ACCEL,0.14,-0.48,10.23,$ALT,284.0060180,,,N*5B

||||||||||||-52,6969,$GNGGA,000319.094,,,,,0,0,,,M,,M,,*50

||||||||||||-53,6969,$ACCEL,0.14,-0.48,10.23,$ALT,283.9850

||||||||||||-52,6969,$GNRMC,000319.094,V,,,,,0.00,0.00,060180,,,N*5A

||||||||||||-53,6969,$ACCEL,0.14,-0.49,10.23,$ALT,284.0060180,,,N*5A

||||||||||||-52,6969,$GNGGA,000320.094,,,,,0,0,,,M,,M,,*5A8

||||||||||||-53,6969,$ACCEL,0.14,-0.49,10.23,$ALT,284.005A8

||||||||||||-52,6969,$GNRMC,000320.094,V,,,,,0.00,0.00,060180,,,N*50

||||||||||||-52,6969,$ACCEL,0.13,-0.48,10.22,$ALT,284.0160180,,,N*50

||||||||||||-51,6969,$GNGGA,000321.094,,,,,0,0,,,M,,M,,*5B8

||||||||||||-52,6969,$ACCEL,0.13,-0.48,10.22,$ALT,284.005B8

||||||||||||-51,6969,$GNRMC,000321.094,V,,,,,0.00,0.00,060180,,,N*51

||||||||||||-50,6969,$ACCEL,0.14,-0.50,10.23,$ALT,284.016018

||||||||||||-48,6969,$GNGGA,000322.094,,,,,0,0,,,M,,M,,*588

||||||||||||-47,6969,$ACCEL,0.14,-0.50,10.23,$ALT,283.98588

||||||||||||-49,6969,$GNRMC,000322.094,V,,,,,0.00,0.00,060180,,,N*52

||||||||||||-45,6969,$ACCEL,0.14,-0.50,10.23,$ALT,284.0060180,,,N*52

||||||||||||-44,6969,$GNGGA,000323.094,,,,,0,0,,,M,,M,,*5980,,,N*52

||||||||||||-45,6969,$ACCEL,0.14,-0.50,10.23,$ALT,284.00598

||||||||||||-45,6969,$GNRMC,000323.094,V,,,,,0.00,0.00,060180,,,N*53

||||||||||||-45,6969,$ACCEL,0.14,-0.50,10.23,$ALT,284.0060180,,,N*53

||||||||||||-45,6969,$GNGGA,000324.094,,,,,0,0,,,M,,M,,*5E80,,,N*53

||||||||||||-38,6969,$ACCEL,0.28,-0.91,10.58,$ALT,284.165E80,,,N*53

||||||||||||-37,6969,$GNRMC,000324.094,V,,,,,0.00,0.00,060180,,,N*54

||||||||||||-40,6969,$ACCEL,0.28,-0.91,10.58,$ALT,284.2160180,,,N*54

||||||||||||-42,6969,$GNGGA,000325.094,,,,,0,0,,,M,,M,,*5F

||||||||||||-42,6969,$ACCEL,1.48,-0.06,9.69,$ALT,284.34 

||||||||||||-42,6969,$GNRMC,000325.094,V,,,,,0.00,0.00,060180,,,N*55

||||||||||||-42,6969,$ACCEL,1.48,-0.06,9.69,$ALT,284.30060180,,,N*55

||||||||||||-41,6969,$GNGGA,000326.094,,,,,0,0,,,M,,M,,*5C

||||||||||||-40,6969,$ACCEL,2.33,-0.90,9.81,$ALT,284.25*5C

||||||||||||-41,6969,$GNRMC,000326.094,V,,,,,0.00,0.00,060180,,,N*56

||||||||||||-41,6969,$ACCEL,2.33,-0.90,9.81,$ALT,284.2806018

||||||||||||-41,6969,$GNGGA,000327.094,,,,,0,0,,,M,,M,,*5D8

||||||||||||-42,6969,$ACCEL,1.27,-0.02,10.08,$ALT,284.27

||||||||||||-42,6969,$GNRMC,000327.094,V,,,,,0.00,0.00,060180,,,N*57

||||||||||||-42,6969,$ACCEL,1.27,-0.02,10.08,$ALT,284.24

||||||||||||-41,6969,$GNGGA,000328.094,,,,,0,0,,,M,,M,,*52

||||||||||||-43,6969,$ACCEL,1.56,0.57,9.87,$ALT,284.20,*52

||||||||||||-42,6969,$GNRMC,000328.094,V,,,,,0.00,0.00,060180,,,N*58

||||||||||||-43,6969,$ACCEL,1.56,0.57,9.87,$ALT,284.13,06018

||||||||||||-42,6969,$GNGGA,000329.094,,,,,0,0,,,M,,M,,*538

||||||||||||-42,6969,$ACCEL,1.56,0.57,9.87,$ALT,284.03,*538

||||||||||||-41,6969,$GNRMC,000329.094,V,,,,,0.00,0.00,060180,,,N*59

||||||||||||-40,6969,$ACCEL,1.18,1.52,10.27,$ALT,284.08060180,,,N*59

||||||||||||-40,6969,$GNGGA,000330.094,,,,,0,0,,,M,,M,,*5B

||||||||||||-40,6969,$ACCEL,1.18,1.52,10.27,$ALT,284.13*5B

||||||||||||-40,6969,$GNRMC,000330.094,V,,,,,0.00,0.00,060180,,,N*51

||||||||||||-41,6969,$ACCEL,0.37,0.02,10.18,$ALT,284.15060180,,,N*51

||||||||||||-39,6969,$GNGGA,000331.094,,,,,0,0,,,M,,M,,*5A80,,,N*51

||||||||||||-54,6969,$ACCEL,0.37,0.02,10.18,$ALT,284.17*5A80,,,N*51

||||||||||||-50,6969,$GNRMC,000331.094,V,,,,,0.00,0.00,060180,,,N*50

||||||||||||-49,6969,$ACCEL,0.64,-0.09,10.86,$ALT,284.266018

||||||||||||-48,6969,$GNGGA,000332.094,,,,,0,0,,,M,,M,,*598

||||||||||||-45,6969,$ACCEL,0.64,-0.09,10.86,$ALT,284.24598

||||||||||||-53,6969,$GNRMC,000332.094,V,,,,,0.00,0.00,060180,,,N*53

||||||||||||-49,6969,$ACCEL,0.32,-1.50,10.30,$ALT,284.3260180,,,N*53

||||||||||||-55,6969,$GNGGA,000333.094,,,,,0,0,,,M,,M,,*588

||||||||||||-49,6969,$ACCEL,0.32,-1.50,10.30,$ALT,284.29588

||||||||||||-65,6969,$GNRMC,000333.094,V,,,,,0.00,0.00,060180,,,N*52

||||||||||||-50,6969,$ACCEL,0.34,-0.65,10.88,$ALT,284.306018

||||||||||||-47,6969,$GNGGA,000334.094,,,,,0,0,,,M,,M,,*5F8

||||||||||||-61,6969,$ACCEL,0.34,-0.65,10.88,$ALT,284.295F8

||||||||||||-53,6969,$GNRMC,000334.094,V,,,,,0.00,0.00,060180,,,N*55

||||||||||||-55,6969,$ACCEL,0.06,-0.58,11.12,$ALT,284.26

||||||||||||-80,6969,$GNGGA,000335.094,,,,,0,0,,,M,,M,,*5E

||||||||||||-55,6969,$ACCEL,0.06,-0.58,11.12,$ALT,284.255E

||||||||||||-55,6969,$GNRMC,000335.094,V,,,,,0.00,0.00,060180,,,N*54

||||||||||||-56,6969,$ACCEL,0.53,0.63,11.17,$ALT,284.24060180,,,N*54

||||||||||||-56,6969,$GNGGA,000336.094,,,,,0,0,,,M,,M,,*5D80,,,N*54

||||||||||||-59,6969,$ACCEL,0.53,0.63,11.17,$ALT,284.22*5D80,,,N*54

||||||||||||-63,6969,$GNRMC,000336.094,V,,,,,0.00,0.00,060180,,,N*57

||||||||||||-60,6969,$ACCEL,0.53,0.63,11.17,$ALT,284.32060180,,,N*57

||||||||||||-72,6969,$GNGGA,000337.094,,,,,0,0,,,M,,M,,*5C80,,,N*57

||||||||||||-74,6969,$ACCEL,0.51,1.05,10.98,$ALT,284.28 

||||||||||||-70,6969,$GNRMC,000337.094,V,,,,,0.00,0.00,060180,,,N*56

||||||||||||-58,6969,$ACCEL,0.51,1.05,10.98,$ALT,284.3106018

||||||||||||-56,6969,$GNGGA,000338.094,,,,,0,0,,,M,,M,,*538

||||||||||||-58,6969,$ACCEL,-0.50,-0.07,11.03,$ALT,284.3038

||||||||||||-73,6969,$GNRMC,000338.094,V,,,,,0.00,0.00,060180,,,N*59

||||||||||||-67,6969,$ACCEL,-0.50,-0.07,11.03,$ALT,284.270180,,,N*59

||||||||||||-58,6969,$GNGGA,000339.094,,,,,0,0,,,M,,M,,*5280,,,N*59

||||||||||||-64,6969,$ACCEL,0.02,0.57,11.17,$ALT,284.27*528

||||||||||||-66,6969,$GNRMC,000339.094,V,,,,,0.00,0.00,060180,,,N*58

||||||||||||-58,6969,$ACCEL,0.02,0.57,11.17,$ALT,284.32 

||||||||||||-60,6969,$GNGGA,000340.094,,,,,0,0,,,M,,M,,*5C

||||||||||||-56,6969,$ACCEL,1.22,2.29,9.21,$ALT,284.30,*5C

||||||||||||-58,6969,$GNRMC,000340.094,V,,,,,0.00,0.00,060180,,,N*56

||||||||||||-67,6969,$ACCEL,1.22,2.29,9.21,$ALT,284.38,06018

||||||||||||-69,6969,$GNGGA,000341.094,,,,,0,0,,,M,,M,,*5D8

||||||||||||-68,6969,$ACCEL,-0.37,-0.08,10.06,$ALT,284.38D8

||||||||||||-70,6969,$GNRMC,000341.094,V,,,,,0.00,0.00,060180,,,N*57

||||||||||||-70,6969,$ACCEL,-0.37,-0.08,10.06,$ALT,284.40

||||||||||||-65,6969,$GNGGA,000342.094,,,,,0,0,,,M,,M,,*5E

||||||||||||-64,6969,$ACCEL,-1.69,-0.97,10.22,$ALT,284.40E

||||||||||||-64,6969,$GNRMC,000342.094,V,,,,,0.00,0.00,060180,,,N*54

||||||||||||-64,6969,$ACCEL,-1.69,-0.97,10.22,$ALT,284.49

||||||||||||-63,6969,$GNGGA,000343.094,,,,,0,0,,,M,,M,,*5F

||||||||||||-66,6969,$ACCEL,-0.67,1.56,9.91,$ALT,284.41*5F

||||||||||||-66,6969,$GNRMC,000343.094,V,,,,,0.00,0.00,060180,,,N*55

||||||||||||-64,6969,$ACCEL,-0.67,1.56,9.91,$ALT,284.41060180,,,N*55

||||||||||||-65,6969,$GNGGA,000344.094,,,,,0,0,,,M,,M,,*5880,,,N*55

||||||||||||-70,6969,$ACCEL,-1.22,0.79,10.12,$ALT,284.36588

||||||||||||-67,6969,$GNRMC,000344.094,V,,,,,0.00,0.00,060180,,,N*52

||||||||||||-63,6969,$ACCEL,-1.22,0.79,10.12,$ALT,284.3460180,,,N*52

||||||||||||-60,6969,$GNGGA,000345.094,,,,,0,0,,,M,,M,,*5980,,,N*52

||||||||||||-66,6969,$ACCEL,-0.89,-2.35,9.71,$ALT,284.395980,,,N*52

||||||||||||-65,6969,$GNRMC,000345.094,V,,,,,0.00,0.00,060180,,,N*53

||||||||||||-69,6969,$ACCEL,-0.89,-2.35,9.71,$ALT,284.286018

||||||||||||-71,6969,$GNGGA,000346.094,,,,,0,0,,,M,,M,,*5A

||||||||||||-77,6969,$ACCEL,-0.89,-2.35,9.71,$ALT,284.235A

||||||||||||-73,6969,$GNRMC,000346.094,V,,,,,0.00,0.00,060180,,,N*50

||||||||||||-77,6969,$ACCEL,-0.28,-0.73,10.20,$ALT,284.180180,,,N*50

||||||||||||-82,6969,$GNGGA,000347.094,,,,,0,0,,,M,,M,,*5B8

||||||||||||-77,6969,$ACCEL,-0.28,-0.73,10.20,$ALT,284.17B8

||||||||||||-76,6969,$GNRMC,000347.094,V,,,,,0.00,0.00,060180,,,N*51

||||||||||||-84,6969,$ACCEL,-0.25,0.26,10.04,$ALT,284.1460180,,,N*51

||||||||||||-81,6969,$GNGGA,000348.094,,,,,0,0,,,M,,M,,*5480,,,N*51

||||||||||||-80,6969,$ACCEL,-0.25,0.26,10.04,$ALT,284.215480,,,N*51

||||||||||||-85,6969,$GNRMC,000348.094,V,,,,,0.00,0.00,060180,,,N*5E

||||||||||||-83,6969,$ACCEL,-0.79,0.08,9.73,$ALT,284.22060180,,,N*5E

||||||||||||-85,6969,$GNGGA,000349.094,,,,,0,0,,,M,,M,,*5580,,,N*5E

||||||||||||-90,6969,$ACCEL,-0.79,0.08,9.73,$ALT,284.10*558

||||||||||||-88,6969,$GNRMC,000349.094,V,,,,,0.00,0.00,060180,,,N*5F

||||||||||||-96,6969,$ACCEL,-0.88,0.90,9.65,$ALT,284.09060180,,,N*5F

||||||||||||-88,6969,$GNGGA,000350.094,,,,,0,0,,,M,,M,,*5D8

||||||||||||-91,6969,$ACCEL,-0.88,0.90,9.65,$ALT,284.07*5D8

||||||||||||-97,6969,$GNRMC,000350.094,V,,,,,0.00,0.00,060180,,,N*57

||||||||||||-84,6969,$ACCEL,0.04,0.41,9.88,$ALT,284.12,060180,,,N*57

||||||||||||-82,6969,$GNGGA,000351.094,,,,,0,0,,,M,,M,,*5C8

||||||||||||-91,6969,$ACCEL,0.04,0.41,9.88,$ALT,284.09,*5C8

||||||||||||-93,6969,$GNRMC,000351.094,V,,,,,0.00,0.00,060180,,,N*56

||||||||||||-87,6969,$ACCEL,0.14,0.44,9.54,$ALT,284.13,060180,,,N*56

||||||||||||-108,6969,$GNGGA,000352.094,,,,,0,0,,,M,,M,,*5F80,,,N*56

||||||||||||-92,6969,$ACCEL,0.14,0.44,9.54,$ALT,284.11,*5F80,,,N*56

||||||||||||-107,6969,$GNRMC,000352.094,V,,,,,0.00,0.00,060180,,,N*55

||||||||||||-85,6969,$ACCEL,1.54,-0.16,9.30,$ALT,284.18060180,,,N*55

||||||||||||-86,6969,$GNGGA,000353.094,,,,,0,0,,,M,,M,,*5E80,,,N*55

||||||||||||-84,6969,$ACCEL,1.54,-0.16,9.30,$ALT,284.16*5E80,,,N*55

||||||||||||-84,6969,$GNRMC,000353.094,V,,,,,0.00,0.00,060180,,,N*54

||||||||||||-84,6969,$ACCEL,1.54,-0.16,9.30,$ALT,284.17 

||||||||||||-83,6969,$GNGGA,000354.094,,,,,0,0,,,M,,M,,*59

||||||||||||-87,6969,$ACCEL,-0.76,0.57,9.97,$ALT,284.19*59

||||||||||||-87,6969,$GNRMC,000354.094,V,,,,,0.00,0.00,060180,,,N*53

||||||||||||-88,6969,$ACCEL,-0.76,0.57,9.97,$ALT,284.17060180,,,N*53

||||||||||||-86,6969,$GNGGA,000355.094,,,,,0,0,,,M,,M,,*588

||||||||||||-86,6969,$ACCEL,-0.76,0.94,9.97,$ALT,284.16*588

||||||||||||-84,6969,$GNRMC,000355.094,V,,,,,0.00,0.00,060180,,,N*52

||||||||||||-85,6969,$ACCEL,-0.76,0.94,9.97,$ALT,284.05060180,,,N*52

||||||||||||-85,6969,$GNGGA,000356.094,,,,,0,0,,,M,,M,,*5B80,,,N*52

||||||||||||-87,6969,$ACCEL,-0.56,0.29,9.72,$ALT,283.90*5B80,,,N*52

||||||||||||-88,6969,$GNRMC,000356.094,V,,,,,0.00,0.00,060180,,,N*51

||||||||||||-85,6969,$ACCEL,-0.56,0.29,9.72,$ALT,283.76060180,,,N*51

||||||||||||-86,6969,$GNGGA,000357.094,,,,,0,0,,,M,,M,,*5A80,,,N*51

||||||||||||-91,6969,$ACCEL,0.43,0.40,10.71,$ALT,283.66*5A80,,,N*51

||||||||||||-91,6969,$GNRMC,000357.094,V,,,,,0.00,0.00,060180,,,N*50

||||||||||||-89,6969,$ACCEL,0.43,0.40,10.71,$ALT,283.65060180,,,N*50

||||||||||||-88,6969,$GNGGA,000358.095,,,,,0,0,,,M,,M,,*5480,,,N*50

||||||||||||-83,6969,$ACCEL,0.54,-0.60,10.04,$ALT,283.665480,,,N*50

||||||||||||-83,6969,$GNRMC,000358.095,V,,,,,0.00,0.00,060180,,,N*5E

||||||||||||-83,6969,$ACCEL,0.54,-0.60,10.04,$ALT,283.6660180,,,N*5E

||||||||||||-81,6969,$GNGGA,000359.095,,,,,0,0,,,M,,M,,*55

||||||||||||-81,6969,$ACCEL,0.34,-0.55,10.19,$ALT,283.6855

||||||||||||-81,6969,$GNRMC,000359.095,V,,,,,0.00,0.00,060180,,,N*5F

||||||||||||-82,6969,$ACCEL,0.34,-0.55,10.19,$ALT,283.68

||||||||||||-81,6969,$GNGGA,000400.095,,,,,0,0,,,M,,M,,*5E

||||||||||||-80,6969,$ACCEL,0.33,-0.55,10.19,$ALT,283.685E

||||||||||||-81,6969,$GNRMC,000400.095,V,,,,,0.00,0.00,060180,,,N*54

||||||||||||-81,6969,$ACCEL,0.33,-0.55,10.19,$ALT,283.7160180,,,N*54

||||||||||||-80,6969,$GNGGA,000401.095,,,,,0,0,,,M,,M,,*5F

||||||||||||-82,6969,$ACCEL,0.34,-0.55,10.19,$ALT,283.675F

||||||||||||-81,6969,$GNRMC,000401.095,V,,,,,0.00,0.00,060180,,,N*55

||||||||||||-82,6969,$ACCEL,0.34,-0.55,10.19,$ALT,283.696018

||||||||||||-81,6969,$GNGGA,000402.095,,,,,0,0,,,M,,M,,*5C8

||||||||||||-83,6969,$ACCEL,0.34,-0.55,10.20,$ALT,283.685C8

||||||||||||-82,6969,$GNRMC,000402.095,V,,,,,0.00,0.00,060180,,,N*56

||||||||||||-92,6969,$ACCEL,0.34,-0.55,10.20,$ALT,283.69

||||||||||||-98,6969,$GNGGA,000402.826,,,,,0,0,,,M,,M,,*5C

||||||||||||-97,6969,$ACCEL,0.34,-0.55,10.20,$ALT,283.705C

||||||||||||-95,6969,$GNRMC,000402.826,V,,,,,0.00,0.00,060180,,,N*56

||||||||||||-90,6969,$ACCEL,0.33,-0.55,10.20,$ALT,283.706018

||||||||||||-82,6969,$GNGGA,000403.045,,,,,0,0,,,M,,M,,*508

||||||||||||-89,6969,$ACCEL,0.33,-0.55,10.20,$ALT,283.71508

||||||||||||-85,6969,$GNRMC,000403.045,V,,,,,0.00,0.00,060180,,,N*5A

||||||||||||-84,6969,$ACCEL,0.33,-0.55,10.19,$ALT,283.7160180,,,N*5A

||||||||||||-85,6969,$GNGGA,063701.307,,,,,0,0,,,M,,M,,*5180,,,N*5A

||||||||||||-89,6969,$ACCEL,0.33,-0.55,10.19,$ALT,283.695180,,,N*5A

||||||||||||-96,6969,$GNRMC,063701.307,V,,,,,0.00,0.00,120180,,,N*5E

||||||||||||-97,6969,$ACCEL,0.34,-0.55,10.19,$ALT,283.70

||||||||||||-93,6969,$GNGGA,063702.307,,,,,0,0,,,M,,M,,*52

||||||||||||-100,6969,$ACCEL,0.34,-0.55,10.19,$ALT,283.7052

||||||||||||-84,6969,$GNRMC,063702.307,V,,,,,0.00,0.00,120180,,,N*5D

||||||||||||-79,6969,$ACCEL,0.34,-0.55,10.19,$ALT,283.712018

||||||||||||-80,6969,$GNGGA,063703.307,,,,,0,0,,,M,,M,,*538

||||||||||||-90,6969,$ACCEL,0.33,-0.55,10.20,$ALT,283.71538

||||||||||||-88,6969,$GNRMC,063703.307,V,,,,,0.00,0.00,120180,,,N*5C

||||||||||||-84,6969,$ACCEL,0.33,-0.55,10.20,$ALT,283.6920180,,,N*5C

||||||||||||-82,6969,$GNGGA,063704.307,,,,,0,0,,,M,,M,,*5480,,,N*5C

||||||||||||-83,6969,$ACCEL,0.34,-0.54,10.20,$ALT,283.705480,,,N*5C

||||||||||||-82,6969,$GNRMC,063704.307,V,,,,,0.00,0.00,120180,,,N*5B

||||||||||||-83,6969,$ACCEL,0.34,-0.54,10.20,$ALT,283.6920180,,,N*5B

||||||||||||-82,6969,$GNGGA,063705.307,,,,,0,0,,,M,,M,,*5580,,,N*5B

||||||||||||-82,6969,$ACCEL,0.33,-0.55,10.19,$ALT,283.71

||||||||||||-82,6969,$GNRMC,063705.307,V,,,,,0.00,0.00,120180,,,N*5A

||||||||||||-82,6969,$ACCEL,0.33,-0.55,10.19,$ALT,283.7120180,,,N*5A

||||||||||||-83,6969,$GNGGA,063706.089,,,,,0,0,,,M,,M,,*5380,,,N*5A

||||||||||||-82,6969,$ACCEL,0.34,-0.54,10.20,$ALT,283.745380,,,N*5A

||||||||||||-84,6969,$GNRMC,063706.089,V,,,,,0.00,0.00,120180,,,N*5C

||||||||||||-83,6969,$ACCEL,0.34,-0.54,10.20,$ALT,283.7520180,,,N*5C

||||||||||||-81,6969,$GNGGA,063706.310,,,,,0,0,,,M,,M,,*5080,,,N*5C

||||||||||||-84,6969,$ACCEL,0.34,-0.54,10.20,$ALT,283.755080,,,N*5C

||||||||||||-83,6969,$GNRMC,063706.310,V,,,,,0.00,0.00,120180,,,N*5F

||||||||||||-82,6969,$ACCEL,0.33,-0.54,10.19,$ALT,283.7520180,,,N*5F

||||||||||||-82,6969,$GNGGA,063707.310,,,,,0,0,,,M,,M,,*5180,,,N*5F

||||||||||||-84,6969,$ACCEL,0.33,-0.54,10.19,$ALT,283.73518

||||||||||||-84,6969,$GNRMC,063707.310,V,,,,,0.00,0.00,120180,,,N*5E

||||||||||||-84,6969,$ACCEL,0.33,-0.55,10.20,$ALT,283.742018

||||||||||||-83,6969,$GNGGA,063708.310,,,,,0,0,,,M,,M,,*5E8

||||||||||||-83,6969,$ACCEL,0.33,-0.55,10.20,$ALT,283.735E8

||||||||||||-82,6969,$GNRMC,063708.310,V,,,,,0.00,0.00,120180,,,N*51

||||||||||||-83,6969,$ACCEL,0.32,-0.55,10.20,$ALT,283.752018

||||||||||||-82,6969,$GNGGA,063709.310,,,,,0,0,,,M,,M,,*5F8

||||||||||||-84,6969,$ACCEL,0.32,-0.55,10.20,$ALT,283.725F8

||||||||||||-83,6969,$GNRMC,063709.310,V,,,,,0.00,0.00,120180,,,N*50

||||||||||||-83,6969,$ACCEL,0.32,-0.55,10.20,$ALT,283.722018

||||||||||||-83,6969,$GNGGA,063710.310,,,,,0,0,,,M,,M,,*578

||||||||||||-83,6969,$ACCEL,0.32,-0.56,10.19,$ALT,283.74578

||||||||||||-83,6969,$GNRMC,063710.310,V,,,,,0.00,0.00,120180,,,N*58

||||||||||||-83,6969,$ACCEL,0.32,-0.56,10.19,$ALT,283.742018

||||||||||||-82,6969,$GNGGA,063711.310,,,,,0,0,,,M,,M,,*568

||||||||||||-83,6969,$ACCEL,0.32,-0.55,10.18,$ALT,283.75568

||||||||||||-84,6969,$GNRMC,063711.310,V,,,,,0.00,0.00,120180,,,N*59

||||||||||||-84,6969,$ACCEL,0.32,-0.55,10.18,$ALT,283.7520180,,,N*59

||||||||||||-83,6969,$GNGGA,063712.094,,,,,0,0,,,M,,M,,*5A80,,,N*59

||||||||||||-83,6969,$ACCEL,0.33,-0.55,10.19,$ALT,283.755A80,,,N*59

||||||||||||-83,6969,$GNRMC,063712.094,V,,,,,0.00,0.00,120180,,,N*55

||||||||||||-84,6969,$ACCEL,0.33,-0.55,10.19,$ALT,283.7620180,,,N*55

||||||||||||-83,6969,$GNGGA,063712.314,,,,,0,0,,,M,,M,,*5180,,,N*55

||||||||||||-83,6969,$ACCEL,0.33,-0.54,10.19,$ALT,283.77

||||||||||||-83,6969,$GNRMC,063712.314,V,,,,,0.00,0.00,120180,,,N*5E

||||||||||||-83,6969,$ACCEL,0.33,-0.54,10.19,$ALT,283.7420180,,,N*5E

||||||||||||-82,6969,$GNGGA,063713.314,,,,,0,0,,,M,,M,,*5080,,,N*5E

||||||||||||-83,6969,$ACCEL,0.33,-0.54,10.19,$ALT,283.74

||||||||||||-83,6969,$GNRMC,063713.314,V,,,,,0.00,0.00,120180,,,N*5F

||||||||||||-83,6969,$ACCEL,0.33,-0.53,10.18,$ALT,283.7920180,,,N*5F

||||||||||||-82,6969,$GNGGA,063714.314,,,,,0,0,,,M,,M,,*5780,,,N*5F

||||||||||||-83,6969,$ACCEL,0.33,-0.53,10.18,$ALT,283.775780,,,N*5F

||||||||||||-83,6969,$GNRMC,063714.314,V,,,,,0.00,0.00,120180,,,N*58

||||||||||||-83,6969,$ACCEL,0.33,-0.53,10.19,$ALT,283.7720180,,,N*58

||||||||||||-82,6969,$GNGGA,063715.314,,,,,0,0,,,M,,M,,*5680,,,N*58

||||||||||||-84,6969,$ACCEL,0.33,-0.53,10.19,$ALT,283.77568

||||||||||||-83,6969,$GNRMC,063715.314,V,,,,,0.00,0.00,120180,,,N*59

||||||||||||-83,6969,$ACCEL,0.34,-0.54,10.20,$ALT,283.7720180,,,N*59

||||||||||||-82,6969,$GNGGA,063716.314,,,,,0,0,,,M,,M,,*5580,,,N*59

||||||||||||-84,6969,$ACCEL,0.34,-0.54,10.20,$ALT,283.76

||||||||||||-83,6969,$GNRMC,063716.314,V,,,,,0.00,0.00,120180,,,N*5A

||||||||||||-83,6969,$ACCEL,0.34,-0.54,10.20,$ALT,283.7620180,,,N*5A

||||||||||||-82,6969,$GNGGA,063717.314,,,,,0,0,,,M,,M,,*548

||||||||||||-84,6969,$ACCEL,0.33,-0.55,10.18,$ALT,283.76548

||||||||||||-83,6969,$GNRMC,063717.314,V,,,,,0.00,0.00,120180,,,N*5B

||||||||||||-84,6969,$ACCEL,0.33,-0.55,10.18,$ALT,283.752018

||||||||||||-83,6969,$GNGGA,063718.087,,,,,0,0,,,M,,M,,*528

||||||||||||-84,6969,$ACCEL,0.32,-0.54,10.18,$ALT,283.76528

||||||||||||-84,6969,$GNRMC,063718.087,V,,,,,0.00,0.00,120180,,,N*5D

||||||||||||-83,6969,$ACCEL,0.32,-0.54,10.18,$ALT,283.7120180,,,N*5D

||||||||||||-83,6969,$GNGGA,063718.307,,,,,0,0,,,M,,M,,*5980,,,N*5D

||||||||||||-84,6969,$ACCEL,0.33,-0.55,10.18,$ALT,283.755980,,,N*5D

||||||||||||-83,6969,$GNRMC,063718.307,V,,,,,0.00,0.000,5980,,,N*5D

||||||||||||-84,6969,$ACCEL,0.33,-0.55,10.18,$ALT,283.765980,,,N*5D

||||||||||||-83,6969,$GNGGA,063719.307,,,,,0,0,,,M,,M,,*5880,,,N*5D

||||||||||||-83,6969,$ACCEL,0.33,-0.55,10.18,$ALT,283.755880,,,N*5D

||||||||||||-83,6969,$GNRMC,063719.307,V,,,,,0.00,0.00,120180,,,N*57

||||||||||||-84,6969,$ACCEL,0.34,-0.55,10.17,$ALT,283.76

||||||||||||-82,6969,$GNGGA,063720.307,,,,,0,0,,,M,,M,,*52

||||||||||||-83,6969,$ACCEL,0.34,-0.55,10.17,$ALT,283.7452

||||||||||||-83,6969,$GNRMC,063720.307,V,,,,,0.00,0.00,120180,,,N*5D

||||||||||||-84,6969,$ACCEL,0.34,-0.55,10.17,$ALT,283.7520180,,,N*5D

||||||||||||-82,6969,$GNGGA,063721.307,,,,,0,0,,,M,,M,,*5380,,,N*5D

||||||||||||-84,6969,$ACCEL,0.34,-0.55,10.17,$ALT,283.75

||||||||||||-83,6969,$GNRMC,063721.307,V,,,,,0.00,0.00,120180,,,N*5C

||||||||||||-83,6969,$ACCEL,0.33,-0.55,10.18,$ALT,283.7720180,,,N*5C

||||||||||||-82,6969,$GNGGA,063722.307,,,,,0,0,,,M,,M,,*5080,,,N*5C

||||||||||||-83,6969,$ACCEL,0.33,-0.55,10.18,$ALT,283.775080,,,N*5C

||||||||||||-84,6969,$GNRMC,063722.307,V,,,,,0.00,0.00,120180,,,N*5$GNGGA,063723.307,,,,,0,0,,,M,,M,,*51

||||||||||||-83,6969,$ACCEL,0.33,-0.54,10.17,$ALT,283.78

||||||||||||-83,6969,$GNRMC,063723.307,V,,,,,0.00,0.00,120180,,,N*5E

||||||||||||-84,6969,$ACCEL,0.33,-0.54,10.17,$ALT,283.7620180,,,N*5E

||||||||||||-82,6969,$GNGGA,063724.091,,,,,0,0,,,M,,M,,*5A80,,,N*5E

||||||||||||-83,6969,$ACCEL,0.33,-0.54,10.18,$ALT,283.775A80,,,N*5E

||||||||||||-83,6969,$GNRMC,063724.091,V,,,,,0.00,0.00,120322,,,N*5F

||||||||||||-83,6969,$ACCEL,0.33,-0.54,10.18,$ALT,283.77

||||||||||||-83,6969,$GNRMC,063725.310,V,,,,,0.00,0.00,120322,,,N*54

||||||||||||-84,6969,$ACCEL,0.32,-0.55,10.19,$ALT,283.7620322,,,N*54

||||||||||||-82,6969,$GNGGA,063726.310,,,,,0,0,,,M,,M,,*5222,,,N*54

||||||||||||-84,6969,$ACCEL,0.33,-0.54,10.20,$ALT,283.775222,,,N*54

||||||||||||-83,6969,$GNRMC,063726.310,V,,,,,0.00,0.00,120322,,,N*57

||||||||||||-84,6969,$ACCEL,0.33,-0.54,10.20,$ALT,283.7820322,,,N*57

||||||||||||-82,6969,$GNGGA,063727.310,,,,,0,0,,,M,,M,,*5322,,,N*57

||||||||||||-83,6969,$ACCEL,0.32,-0.55,10.20,$ALT,283.77

||||||||||||-83,6969,$GNRMC,063727.310,V,,,,,0.00,0.00,120322,,,N*56

||||||||||||-84,6969,$ACCEL,0.32,-0.55,10.20,$ALT,283.7920322,,,N*56

||||||||||||-83,6969,$GNGGA,063728.310,,,,,0,0,,,M,,M,,*5C22,,,N*56

||||||||||||-83,6969,$ACCEL,0.32,-0.55,10.20,$ALT,283.795C22,,,N*56

||||||||||||-83,6969,$GNRMC,063728.310,V,,,,,0.00,0.00,120322,,,N*59

||||||||||||-84,6969,$ACCEL,0.34,-0.55,10.18,$ALT,283.7820322,,,N*59

||||||||||||-83,6969,$GNGGA,063729.310,,,,,0,0,,,M,,M,,*5D2

||||||||||||-82,6969,$ACCEL,0.34,-0.55,10.18,$ALT,283.785D2

||||||||||||-81,6969,$GNRMC,063729.310,V,,,,,0.00,0.00,120322,,,N*58

||||||||||||-82,6969,$ACCEL,0.33,-0.54,10.18,$ALT,283.78

||||||||||||-82,6969,$GNGGA,063730.086,3406.3466,N,11742.7620,W,1,05,2.44,403.7,M,-32.9,M,,*49

||||||||||||-83,6969,$ACCEL,0.32,-0.54,10.18,$ALT,283.77.762

||||||||||||-83,6969,$GNRMC,063730.086,A,3406.3466,N,11742.W,226$GNGGA,063731.086,3406.3469,N,11742.7621,W,1,06,2.08,401.0,M,-32.9,M,,*48

||||||||||||-83,6969,$ACCEL,0.32,-0.55,10.17,$ALT,283.7642.W,226$GNGGA,063731.086,3406.3469,N,11742.7621,W,1,06,2.08,401.0,M,-32.9,M,,*48

||||||||||||-83,6969,$GN,1,3,.,3,25$GNGGA,063733.000,3406.3472,N,11742.7622,W,1,05,2.63,401.1,M,-32.9,M,,*42

||||||||||||-84,6969,$ACCEL,0.33,-0.54,10.17,$ALT,283.756.3472,N,11742.7622,W,1,05,2.63,401.1,M,-32.9,M,,*42

||||||||||||-83,6969,$GNRMC,063733.000,A,3406.3472,N,11742.7622,W,0.37,356.72,120322,,,A*62

||||||||||||-83,6969,$ACCEL,0.32,-0.54,10.17,$ALT,283.8042.7622,W,0.37,356.72,120322,,,A*62

||||||||||||-82,6969,$GNRMC,063734.000,A,3406.3471,N,11742.7624,W,0.25,356.72,120322,,6$GNGGA,063735.000,3406.3468,N,11742.7625,W,1,05,2.62 

||||||||||||-83,6969,$ACCEL,0.33,-0.55,10.18,$ALT,283.77

||||||||||||-84,6969,$GNRMC,063735.000,A,3406,2,272*$GNGGA,063736.000,3406.3465,N,11742.7626,W,1,05,2.63,399.9,M,-32.9,M,,*4B

||||||||||||-84,6969,$ACCEL,0.32,-0.54,10.19,$ALT,283.76

||||||||||||-82,6969,$GNRMC,063736.000,A,3406.34$GNGGA,063737.000,3406.3464,N,11742.7626,W,1,05,2.63,399.6,M,-32.9,M,,*44

||||||||||||-83,6969,$ACCEL,0.32,-0.54,10.19,$ALT,283.7663737.000,3406.3464,N,11742.7626,W,1,05,2.63,399.6,M,-32.9,M,,*44

||||||||||||-83,6969,$GNR,7A3,.,3,22$GNGGA,063738.000,3406.3465,N,11742.7628,W,1,05,2.62,399.8,M,-32.9,M,,*4B32.9,M,,*44

||||||||||||-83,6969,$ACCEL,0.32,-0.55,10.16,$ALT,283.7806.3465,N,11742.7628,W,1,05,2.62,399.8,M,-32.9,M,,*4B32.9,M,,*44

||||||||||||-82,6969,$GNRMC,063738.000,A,3406.3465,N,11742.7628,W,0.25,3$GNGGA,063739.000,3406.3464,N,11742.7629,W,1,05,2.63,399.8,M,-32.9, 

||||||||||||-83,6969,$ACCEL,0.33,-0.55,10.18,$ALT,283.7642.7628,W,0.25,3$GNGGA,063739.000,3406.3464,N,11742.7629,W,1,05,2.63,399.8,M,-32.9, 

||||||||||||-83,6969,$GNRMC,063739.000,A,3406.3464,N$GNGGA,063740.000,3406.3483,N,11742.7641,W,1,06,2.62,407.0,M,-32.9,M,,*48

||||||||||||-84,6969,$ACCEL,0.31,-0.56,10.16,$ALT,283.75GA,063740.000,3406.3483,N,11742.7641,W,1,06,2.62,407.0,M,-32.9,M,,*48

||||||||||||-83,6969,$GNRMC,063740.000,A,3406.34$GNGGA,063741.000,3406.3485,N,11742.7641,W,1,06,2.61,407.1,M,-32.9,M,,*4D*48

||||||||||||-83,6969,$ACCEL,0.33,-0.54,10.19,$ALT,283.78

||||||||||||-83,6969,$GNRMC,063741.000,A,340816062,83.78

||||||||||||-83,6969,$ACCEL,0.33,-0.54,10.19,$ALT,283.77

||||||||||||-83,6969,$GNGGA,063742.000,3406.3485,N,11742.7640,W,1,06,2.61,406.8,M,-32.9,M,,*47

||||||||||||-83,6969,$GNRMC,063742.000,A,3406.3485,N,117$GNGGA,063743.000,3406.3487,N,11742.7640,W,1,06,2.62,406.9,M,-32.9,M,,*46

||||||||||||-83,6969,$ACCEL,0.33,-0.55,10.18,$ALT,283.79$GNGGA,063743.000,3406.3487,N,11742.7640,W,1,06,2.62,406.9,M,-32.9,M,,*46

||||||||||||-83,6969,$GNRMC,063743.000,A,3406.3487,N$GNGGA,063744.000,3406.3491,N,11742.7639,W,1,06,2.62,407.2,M,-32.9,M,,*42*46

||||||||||||-83,6969,$ACCEL,0.34,-0.53,10.18,$ALT,283.79GA,063744.000,3406.3491,N,11742.7639,W,1,06,2.62,407.2,M,-32.9,M,,*42*46

||||||||||||-83,6969,$GNRMC,063744.000,A,3406.349,2,072*$GNGGA,063745.000,3406.3492,N,11742.7637,W,1,06,2.62,407.4,M,-32.9,M,,*48

||||||||||||-83,6969,$ACCEL,0.33,-0.55,10.18,$ALT,283.82$GNGGA,063745.000,3406.3492,N,11742.7637,W,1,06,2.62,407.4,M,-32.9,M,,*48

||||||||||||-83,6969,$GNRMC,063745.000,A,340$GNGGA,063746.000,3406.3498,N,11742.7636,W,1,07,2.06,407.6,M,-32.9,M,,*4132.9,M,,*48

||||||||||||-83,6969,$ACCEL,0.33,-0.55,10.18,$ALT,283.816.000,3406.3498,N,11742.7636,W,1,07,2.06,407.6,M,-32.9,M,,*4132.9,M,,*48

||||||||||||-82,6969,$GNRMC,063746.000,A,3406.3498,N,117$GNGGA,063747.000,3406.3502,N,11742.7634,W,1,07,2.06,407.8,M,-32.9,M,,*4E

||||||||||||-83,6969,$ACCEL,0.32,-0.55,10.18,$ALT,283.80$GNGGA,063747.000,3406.3502,N,11742.7634,W,1,07,2.06,407.8,M,-32.9,M,,*4E

||||||||||||-83,6969,$GNRMC,063747.000,A,3406.3502,N$GNGGA,063748.000,3406.3504,N,11742.7633,W,1,07,2.06,407.8,M,-32.9,M,,*40

||||||||||||-83,6969,$ACCEL,0.33,-0.54,10.17,$ALT,283.80GA,0

||||||||||||-82,6969,$GNRMC,063748.000,A,3406.3504,N,117$GNGGA,063749.000,3406.3507,N,11742.7633,W,1,07,2.06,407.8,M,-32.9,M,,*42

||||||||||||-82,6969,$ACCEL,0.33,-0.55,10.16,$ALT,283.83$GNGGA,063749.000,3406.3507,N,11742.7633,W,1,07,2.06,407.8,M,-32.9,M,,*42

||||||||||||-82,6969,$GNRMC,063749.000,A,340*$GNGGA,063750.000,3406.3513,N,11742.7632,W,1,07,2.06,407.9,M,-32.9,M,,*4F2.9,M,,*42

||||||||||||-82,6969,$ACCEL,0.33,-0.55,10.15,$ALT,283.7950.000,3406.3513,N,11742.7632,W,1,07,2.06,407.9,M,-32.9,M,,*4F2.9,M,,*42

||||||||||||-82,6969,$GNRMC,063750.000,A,3406.3513,N,11$GNGGA,063751.000,3406.3518,N,11742.7631,W,1,07,2.06,407.9,M,-32.9,M,,*46

||||||||||||-82,6969,$ACCEL,0.33,-0.54,10.16,$ALT,283.81GNGGA,063751.000,3406.3518,N,11742.7631,W,1,07,2.06,407.9,M,-32.9,M,,*46

||||||||||||-83,6969,$GNRMC,063751.000,A,3406.3518,N2*$GNGGA,063752.000,3406.3521,N,11742.7630,W,1,07,2.06,407.9,M,-32.9,M,,*4E

||||||||||||-83,6969,$ACCEL,0.33,-0.55,10.18,$ALT,283.81NGGA,063752.000,3406.3521,N,11742.7630,W,1,07,2.06,407.9,M,-32.9,M,,*4E

||||||||||||-83,6969,$GNRMC,063752.000,A,3406.3521,N,1$GNGGA,063753.000,3406.3523,N,11742.7630,W,1,07,2.06,407.9,M,-32.9,M,,*4D

||||||||||||-83,6969,$ACCEL,0.33,-0.55,10.18,$ALT,283.82NGGA,063753.000,3406.3523,N,11742.7630,W,1,07,2.06,407.9,M,-32.9,M,,*4D

||||||||||||-82,6969,$GNRMC,063753.000,A,3406.35,4,973*$GNGGA,063754.000,3406.3527,N,11742.7630,W,1,07,2.06,407.7,M,-32.9,M,,*40

||||||||||||-83,6969,$ACCEL,0.33,-0.55,10.18,$ALT,283.79GNGGA,063754.000,3406.3527,N,11742.7630,W,1,07,2.06,407.7,M,-32.9,M,,*40

||||||||||||-82,6969,$GNRMC,063754.000,A,3406.3516052,$GNGGA,063755.000,3406.3528,N,11742.7630,W,1,07,2.06,407.4,M,-32.9,M,,*4D

||||||||||||-83,6969,$ACCEL,0.32,-0.55,10.18,$ALT,283.82

||||||||||||-83,6969,$GNRMC,063755.000,A,3406.3516051,$GNGGA,063756.000,3406.3528,N,11742.7630,W,1,07,2.06,407.1,M,-32.9,M,,*4B

||||||||||||-84,6969,$ACCEL,0.34,-0.54,10.20,$ALT,283.80GNGGA,063756.000,3406.3528,N,11742.7630,W,1,07,2.06,407.1,M,-32.9,M,,*4B

||||||||||||-83,6969,$GNRMC,063756.000,A,3406.35873..0,0GNGGA,063756.000,3406.3528,N,11742.7630,W,1,07,2.06,407.1,M,-32.9,M,,*4B

||||||||||||-84,6969,$ACCEL,0.33,-0.54,10.19,$ALT,283.80GNGGA,063756.000,3406.3528,N,11742.7630,W,1,07,2.06,407.1,M,-32.9,M,,*4B

||||||||||||-83,6969,$GNGGA,063757.000,3406.3524,N,11742.7631,W,1,07,2.06,406.6,M,-32.9,M,,*41,W,1,07,2.06,407.1,M,-32.9,M,,*4B

||||||||||||-83,6969,$ACCEL,0.34,-0.56,10.20,$ALT,283.77.7631,W,1,07,2.06,406.6,M,-32.9,M,,*41,W,1,07,2.06,407.1,M,-32.9,M,,*4B

||||||||||||-83,6969,$GNRMC,063757.000,A,3406.3,.W3,22$GNGGA,063758.000,3406.3518,N,11742.7631,W,1,07,2.06,406.0,M,-32.9,M,,*47

||||||||||||-84,6969,$ACCEL,0.34,-0.56,10.20,$ALT,283.79NGGA,063758.000,3406.3518,N,11742.7631,W,1,07,2.06,406.0,M,-32.9,M,,*47

||||||||||||-83,6969,$GNRMC,063758.000,A,3406.3116.62,79NGGA,063758.000,3406.3518,N,11742.7631,W,1,07,2.06,406.0,M,-32.9,M,,*47

||||||||||||-84,6969,$ACCEL,0.34,-0.54,10.20,$ALT,283.78NGGA,063758.000,3406.3518,N,11742.7631,W,1,07,2.06,406.0,M,-32.9,M,,*47

||||||||||||-83,6969,$GNGGA,063759.000,3406.3512,N,11742.7632,W,1,07,2.06,405.2,M,-32.9,M,,*4EW,1,07,2.06,406.0,M,-32.9,M,,*47

||||||||||||-84,6969,$ACCEL,0.34,-0.53,10.19,$ALT,283.79.7632,W,1,07,2.06,405.2,M,-32.9,M,,*4EW,1,07,2.06,406.0,M,-32.9,M,,*47

||||||||||||-83,6969,$GNRMC,063759.000,A,3406.3,.W,,26$GNGGA,063800.000,3406.3507,N,11742.7633,W,1,07,2.06,404.6,M,-32.9,M,,*4D

||||||||||||-83,6969,$ACCEL,0.33,-0.54,10.19,$ALT,283.78NGGA

||||||||||||-84,6969,$GNRMC,063800.000,A,3406$GNGGA,063801.000,3406.3503,N,11742.7633,W,1,07,2.06,404.0,M,-32.9,M,,*4E

||||||||||||-83,6969,$ACCEL,0.33,-0.54,10.19,$ALT,283.79

||||||||||||-82,6969,$GNRMC,063801.000,A,3406.3503,N,1$GNGGA,063802.000,3406.3501,N,11742.7633,W,1,07,2.06,403.5,M,-32.9,M,,*4D,

||||||||||||-83,6969,$ACCEL,0.34,-0.54,10.20,$ALT,283.80NGGA,063802.000,3406.3501,N,11742.7633,W,1,07,2.06,403.5,M,-32.9,M,,*4D,

||||||||||||-81,6969,$GNRMC,063802.000,A,3406.3501,N,17$GNGGA,063803.000,3406.3501,N,11742.7634,W,1,07,2.06,403.2,M,-32.9,M,,*4C

||||||||||||-83,6969,$ACCEL,0.34,-0.53,10.19,$ALT,283.75GNGGA,063803.000,3406.3501,N,11742.7634,W,1,07,2.06,403.2,M,-32.9,M,,*4C

||||||||||||-82,6969,$GNRMC,063803.000,A,3406.3501,N,1$GNGGA,063804.000,3406.3501,N,11742.7635,W,1,07,2.06,402.9,M,-32.9,M,,*40,

||||||||||||-82,6969,$ACCEL,0.34,-0.54,10.20,$ALT,283.78NGGA,063804.000,3406.3501,N,11742.7635,W,1,07,2.06,402.9,M,-32.9,M,,*40,

||||||||||||-82,6969,$GNRMC,063804.000,A,3406$GNGGA,063805.000,3406.3502,N,11742.7636,W,1,07,2.06,402.8,M,-32.9,M,,*40

||||||||||||-82,6969,$ACCEL,0.33,-0.54,10.19,$ALT,283.7705.000,3406.3502,N,11742.7636,W,1,07,2.06,402.8,M,-32.9,M,,*40

||||||||||||-82,6969,$GNRMC,063805.000,A,3406.3502,N,1$GNGGA,063806.000,3406.3502,N,11742.7636,W,1,07,2.06,402.7,M,-32.9,M,,*4C

||||||||||||-82,6969,$ACCEL,0.34,-0.54,10.19,$ALT,283.78NGGA,063806.000,3406.3502,N,11742.7636,W,1,07,2.06,402.7,M,-32.9,M,,*4C

||||||||||||-82,6969,$GNRMC,063806.000,A,3406.3502,N,11$GNGGA,063807.000,3406.3501,N,11742.7637,W,1,07,2.06,402.5,M,-32.9,M,,*4D

||||||||||||-83,6969,$ACCEL,0.34,-0.55,10.19,$ALT,283.79GNGGA,063807.000,3406.3501,N,11742.7637,W,1,07,2.06,402.5,M,-32.9,M,,*4D

||||||||||||-82,6969,$GNRMC,063807.000,A,3406.3501,N,1$GNGGA,063808.000,3406.3500,N,11742.7638,W,1,07,2.06,402.2,M,-32.9,M,,*4B,

||||||||||||-82,6969,$ACCEL,0.33,-0.53,10.19,$ALT,283.78NGGA,063808.000,3406.3500,N,11742.7638,W,1,07,2.06,402.2,M,-32.9,M,,*4B,

||||||||||||-82,6969,$GNRMC,063808.000,A,3406$GNGGA,063809.000,3406.3498,N,11742.7638,W,1,07,2.06,402.0,M,-32.9,M,,*489,M,,*4B,

||||||||||||-82,6969,$ACCEL,0.34,-0.54,10.20,$ALT,283.7909.0

||||||||||||-81,6969,$GNRMC,063809.000,A,3406.3498,N,1$GNGGA,063810.000,3406.3495,N,11742.7639,W,1,07,2.06,401.7,M,-32.9,M,,*48

||||||||||||-82,6969,$ACCEL,0.34,-0.54,10.20,$ALT,283.77NGGA

||||||||||||-81,6969,$GNRMC,063810.000,A,3406.3495,N,11$GNGGA,063811.000,3406.3494,N,11742.7639,W,1,07,2.06,401.4,M,-32.9,M,,*4B

||||||||||||-82,6969,$ACCEL,0.33,-0.54,10.17,$ALT,283.75GNGG

||||||||||||-82,6969,$GNRMC,063811.000,A,3406.3494,N,1$GNGGA,063812.000,3406.3492,N,11742.7640,W,1,07,2.06,401.1,M,-32.9,M,,*45

||||||||||||-82,6969,$ACCEL,0.33,-0.55,10.18,$ALT,283.75NGGA

||||||||||||-82,6969,$GNRMC,063812.000,A,3406W3,26$GNGGA,063813.000,3406.3491,N,11742.7641,W,1,07,2.06,400.8,M,-32.9,M,,*4E@B

||||||||||||-82,6969,$ACCEL,0.34,-0.55,10.20,$ALT,283.74,063813.000,3406.3491,N,11742.7641,W,1,07,2.06,400.8,M,-32.9,M,,*4E@B

||||||||||||-81,6969,$GNRMC,063813.000,A,3406.349W,226$GNGGA,063814.000,3406.3490,N,11742.7641,W,1,07,2.06,400.6,M,-32.9,M,,*46

||||||||||||-82,6969,$ACCEL,0.34,-0.54,10.19,$ALT,283.74NGGA,063814.000,3406.3490,N,11742.7641,W,1,07,2.06,400.6,M,-32.9,M,,*46

||||||||||||-81,6969,$GNRMC,063814.000,A,3406.349062,$GNGGA,063815.000,3406.3489,N,11742.7641,W,1,07,2.06,400.4,M,-32.9,M,,*4D

||||||||||||-82,6969,$ACCEL,0.34,-0.54,10.20,$ALT,283.74

||||||||||||-82,6969,$GNRMC,063815.000,A,3406.3489,226$GNGGA,063816.000,3406.3488,N,11742.7642,W,1,07,2.06,400.3,M,-32.9,M,,*4B,

||||||||||||-83,6969,$ACCEL,0.34,-0.55,10.20,$ALT,283.76NGGA

||||||||||||-82,6969,$GNRMC,063816.000,A,3406.34,42073A$GNGGA,063817.000,3406.3488,N,11742.7642,W,1,07,2.06,400.1,M,-32.9,M,,*48

||||||||||||-82,6969,$ACCEL,0.33,-0.53,10.19,$ALT,283.75GNGGA,063817.000,3406.3488,N,11742.7642,W,1,07,2.06,400.1,M,-32.9,M,,*48

||||||||||||-81,6969,$GNRMC,063817.000,A,3406.34,.,3,,5$GNGGA,063818.000,3406.3486,N,11742.7643,W,1,07,2.06,400.0,M,-32.9,M,,*49

||||||||||||-81,6969,$ACCEL,0.33,-0.53,10.19,$ALT,283.77GNGGA,063818.000,3406.3486,N,11742.7643,W,1,07,2.06,400.0,M,-32.9,M,,*49

||||||||||||-82,6969,$GNRMC,063818.000,A,3406.34,7,31,5$GNGGA,063819.000,3406.3485,N,11742.7643,W,1,07,2.06,399.9,M,-32.9,M,,*45

||||||||||||-82,6969,$ACCEL,0.33,-0.53,10.19,$ALT,283.75GNGG

||||||||||||-82,6969,$GNRMC,063819.000,A,3406.3874.60,75GNGG

||||||||||||-82,6969,$ACCEL,0.35,-0.54,10.19,$ALT,283.77GNGG

||||||||||||-82,6969,$ACCEL,0.33,-0.55,10.19,$ALT,283.75

||||||||||||-82,6969,$GNRMC,063820.000,A,3406.3,.W3,26$GNGGA,063821.000,3406.3484,N,11742.7645,W,1,07,2.06,399.8,M,-32.9,M,,*48,

||||||||||||-82,6969,$ACCEL,0.35,-0.54,10.19,$ALT,283.76NGGA,063821.000,3406.3484,N,11742.7645,W,1,07,2.06,399.8,M,-32.9,M,,*48,

||||||||||||-82,6969,$GNRMC,063821.000,A,3406.3816.62,76NGGA,063821.000,3406.3484,N,11742.7645,W,1,07,2.06,399.8,M,-32.9,M,,*48,

||||||||||||-82,6969,$ACCEL,0.35,-0.54,10.19,$ALT,283.73NGGA,063821.000,3406.3484,N,11742.7645,W,1,07,2.06,399.8,M,-32.9,M,,*48,

||||||||||||-81,6969,$GNRMC,063822.000,A,3406.34816.62, 

||||||||||||-81,6969,$ACCEL,0.34,-0.54,10.21,$ALT,283.74

||||||||||||-82,6969,$GNRMC,063823.000,A,34$GNGGA,063824.000,3406.3480,N,11742.7647,W,1,07,2.06,399.2,M,-32.9,M,,*41

||||||||||||-82,6969,$ACCEL,0.34,-0.54,10.20,$ALT,283.73.000

||||||||||||-82,6969,$GNRMC,063824.000,A,3406.3480,N,1$GNGGA,063825.000,3406.3480,N,11742.7648,W,1,07,2.06,398.9,M,-32.9,M,,*45

||||||||||||-83,6969,$ACCEL,0.33,-0.54,10.20,$ALT,283.77NGGA,063825.000,3406.3480,N,11742.7648,W,1,07,2.06,398.9,M,-32.9,M,,*45

||||||||||||-82,6969,$GNRMC,063825.000,A,3406.3480,N,11$GNGGA,063826.000,3406.3479,N,11742.7649,W,1,07,2.06,398.6,M,-32.9,M,,*4E

||||||||||||-84,6969,$ACCEL,0.33,-0.54,10.20,$ALT,283.79

||||||||||||-82,6969,$GNRMC,06304716.62,0.20,$ALT,283.79

||||||||||||-82,6969,$ACCEL,0.33,-0.56,10.19,$ALT,283.77

||||||||||||-83,6969,$GNRMC,063827.000,A,3406.3479,N,14977$GNGGA,063828.000,3406.3479,N,11742.7649,W,1,07,2.06,398.3,M,-32.9,M,,*45

||||||||||||-83,6969,$ACCEL,0.34,-0.54,10.21,$ALT,283.7577$GNGGA,063828.000,3406.3479,N,11742.7649,W,1,07,2.06,398.3,M,-32.9,M,,*45

||||||||||||-83,6969,$GNRMC,063828.000,A,3406.3479,N,7$GNGGA,063829.000,3406.3478,N,11742.7650,W,1,07,2.06,398.1,M,-32.9,M,,*4F*45

||||||||||||-84,6969,$ACCEL,0.35,-0.53,10.21,$ALT,283.76NGGA,063829.000,3406.3478,N,11742.7650,W,1,07,2.06,398.1,M,-32.9,M,,*4F*45

||||||||||||-83,6969,$GNRMC,063829.000,A,3406.3478,N,12$GNGGA,063830.000,3406.3477,N,11742.7651,W,1,07,2.06,397.9,M,-32.9,M,,*4E45

||||||||||||-83,6969,$ACCEL,0.35,-0.53,10.21,$ALT,283.77GNGGA,063830.000,3406.3477,N,11742.7651,W,1,07,2.06,397.9,M,-32.9,M,,*4E45

||||||||||||-83,6969,$GNR604715.60,.53,10.21,$ALT,283.77GNGGA,063830.000,3406.3477,N,11742.7651,W,1,07,2.06,397.9,M,-32.9,M,,*4E45

||||||||||||-82,6969,$ACCEL,0.34,-0.54,10.21,$ALT,283.76GNGG

||||||||||||-82,6969,$ACCEL,0.34,-0.54,10.18,$ALT,283.75

||||||||||||-83,6969,$GNRMC,063831.000,A,3406.3476,N,114,873*$GNGGA,063832.000,3406.3471,N,11742.7650,W,1,07,2.06,397.3,M,-32.9,M,,*41

||||||||||||-82,6969,$ACCEL,0.35,-0.53,10.19,$ALT,283.77,873

||||||||||||-83,6969,$GNRMC,063832.000,A,3406.3471,N,117$GNGGA,063833.000,3406.3475,N,11742.7650,W,1,07,2.06,397.6,M,-32.9,M,,*41

||||||||||||-83,6969,$ACCEL,0.34,-0.54,10.20,$ALT,283.76$GNGGA,063833.000,3406.3475,N,11742.7650,W,1,07,2.06,397.6,M,-32.9,M,,*41

||||||||||||-83,6969,$GNRMC,063833.000,A,3406.3475,N,11$GNGGA,063834.000,3406.3472,N,11742.7650,W,1,07,2.06,397.5,M,-32.9,M,,*42

||||||||||||-82,6969,$ACCEL,0.34,-0.55,10.19,$ALT,283.76GNGGA,063834.000,3406.3472,N,11742.7650,W,1,07,2.06,397.5,M,-32.9,M,,*42

||||||||||||-81,6969,$GNRMC304775.60$GNGGA,063835.000,3406.3473,N,11742.7650,W,1,07,2.06,397.5,M,-32.9,M,,*42

||||||||||||-83,6969,$ACCEL,0.35,-0.55,10.18,$ALT,283.7706.3

||||||||||||-85,6969,$GNRMC,063835.000,A,3406.3473,N,11742,77$GNGGA,063836.000,3406.3472,N,11742.7650,W,1,07,2.06,397.5,M,-32.9,M,,*40

||||||||||||-79,6969,$ACCEL,0.34,-0.55,10.18,$ALT,283.7942,77$GNGGA,063836.000,3406.3472,N,11742.7650,W,1,07,2.06,397.5,M,-32.9,M,,*40

||||||||||||-79,6969,$GNRMC,063836.000,A,3406.3,40273A$GNGGA,063837.000,3406.3472,N,11742.7650,W,1,07,2.06,397.5,M,-32.9,M,,*41M,,*40

||||||||||||-82,6969,$GNRMC,063838.00$GNGGA,063839.000,3406.3472,N,11742.7650,W,1,07,2.06,397.5,M,-32.9,M,,*4F

||||||||||||-93,6969,$ACCEL,0.34,-0.54,10.19,$ALT,283.82406.3472,N,11742.7650,W,1,07,2.06,397.5,M,-32.9,M,,*4F

||||||||||||-89,6969,$GNRMC,063839.000,A,3406.3472,N,11742.76$GNGGA,063840.000,3406.3472,N,11742.7650,W,1,08,1.26,397.5,M,-32.9,M,,*4F

||||||||||||-81,6969,$ACCEL,0.34,-0.54,10.18,$ALT,283.8242.76$GNGGA,063840.000,3406.3472,N,11742.7650,W,1,08,1.26,397.5,M,-32.9,M,,*4F

||||||||||||-80,6969,$GNRMC,063840.000,A,3406.3472,N,1$GNGGA,063841.000,3406.3472,N,11742.7650,W,1,08,1.26,397.5,M,-32.9,M,,*4EM,,*4F

||||||||||||-82,6969,$ACCEL,0.35,-0.53,10.19,$ALT,283.77NGGA,063841.000,3406.3472,N,11742.7650,W,1,08,1.26,397.5,M,-32.9,M,,*4EM,,*4F

||||||||||||-89,6969,$GNRMC,063841.000,A,3406.3472,N,117$GNGGA,063842.000,3406.3472,N,11742.7649,W,1,08,1.26,397.5,M,-32.9,M,,*45,*4F

||||||||||||-83,6969,$ACCEL,0.35,-0.53,10.19,$ALT,283.72$GNGGA,063842.000,3406.3472,N,11742.7649,W,1,08,1.26,397.5,M,-32.9,M,,*45,*4F

||||||||||||-83,6969,$GNRMC,063842.00$GNGGA,063843.000,3406.3472,N,11742.7649,W,1,08,1.26,397.5,M,-32.9,M,,*447.5,M,-32.9,M,,*45,*4F

||||||||||||-82,6969,$GNRMC,063843.000,A,3406.3472,N,11742.76$GNGGA,063844.000,3406.3471,N,11742.7649,W,1,08,1.26,397.4,M,-32.9,M,,*41 

||||||||||||-82,6969,$ACCEL,0.33,-0.55,10.18,$ALT,283.8042.76$GNGGA,063844.000,3406.3471,N,11742.7649,W,1,08,1.26,397.4,M,-32.9,M,,*41 

||||||||||||-81,6969,$GNRMC,063844.000,A,3406.3471,N,1$GNGGA,063845.000,3406.3471,N,11742.7650,W,1,08,1.26,397.5,M,-32.9,M,,*49M,,*41 

||||||||||||-82,6969,$ACCEL,0.34,-0.54,10.20,$ALT,283.81NGGA

||||||||||||-82,6969,$GNRMC,063845.000,A,3406.3471,N,117$GNGGA,063846.000,3406.3472,N,11742.7650,W,1,08,1.26,397.5,M,-32.9,M,,*49

||||||||||||-82,6969,$ACCEL,0.33,-0.54,10.21,$ALT,283.80$GNGGA,063846.000,3406.3472,N,11742.7650,W,1,08,1.26,397.5,M,-32.9,M,,*49

||||||||||||-83,6969,$GNRMC,063846.00,7$GNGGA,063847.000,3406.3472,N,11742.7650,W,1,08,1.26,397.4,M,-32.9,M,,*495,M,-32.9,M,,*49

||||||||||||-82,6969,$ACCEL,0.35,-0.54,10.18,$ALT,283.80,3406.3472,N,11742.7650,W,1,08,1.26,397.4,M,-32.9,M,,*495,M,-32.9,M,,*49

||||||||||||-83,6969,$GNRMC,063847.000,A,3406.3472,N,11742.$GNGGA,063848.000,3406.3471,N,11742.7650,W,1,08,1.26,397.4,M,-32.9,M,,*45

||||||||||||-84,6969,$ACCEL,0.34,-0.53,10.19,$ALT,283.83

||||||||||||-82,6969,$GNRMC,063848.000,A,3406.3471,N,1$GNGGA,063849.000,3406.3471,N,11742.7650,W,1,08,1.26,397.4,M,-32.9,M,,*44,

||||||||||||-83,6969,$ACCEL,0.34,-0.53,10.19,$ALT,283.82NGGA

||||||||||||-82,6969,$GNRMC,063849.000,A,3406.3471,N,117$GNGGA,063850.000,3406.3470,N,11742.7649,W,1,08,1.27,397.4,M,-32.9,M,,*44

||||||||||||-82,6969,$ACCEL,0.35,-0.53,10.16,$ALT,283.80$GNGGA,063850.000,3406.3470,N,11742.7649,W,1,08,1.27,397.4,M,-32.9,M,,*44

||||||||||||-82,6969,$GNRMC,063850.000,A,00741.0,$GNGGA,063851.000,3406.3471,N,11742.7649,W,1,08,1.26,397.4,M,-32.9,M,,*45M,,*44

||||||||||||-82,6969,$ACCEL,0.35,-0.54,10.18,$ALT,283.83063851.000,3406.3471,N,11742.7649,W,1,08,1.26,397.4,M,-32.9,M,,*45M,,*44

||||||||||||-81,6969,$GNRMC,063851.000,A,3406.3479973A$GNGGA,063852.000,3406.3471,N,11742.7649,W,1,08,1.27,397.4,M,-32.9,M,,*474

||||||||||||-82,6969,$ACCEL,0.34,-0.53,10.17,$ALT,283.83NGGA,063852.000,3406.3471,N,11742.7649,W,1,08,1.27,397.4,M,-32.9,M,,*474

||||||||||||-82,6969,$GNRMC,063852.000,A,3406.3471N.W,226$GNGGA,063853.000,3406.3471,N,11742.7649,W,1,08,1.27,397.4,M,-32.9,M,,*46

||||||||||||-82,6969,$ACCEL,0.33,-0.55,10.17,$ALT,283.836$GNGGA,063853.000,3406.3471,N,11742.7649,W,1,08,1.27,397.4,M,-32.9,M,,*46

||||||||||||-82,6969,$GNRMC,063853.000,A,3406.3451,$GNGGA,063854.000,3406.3470,N,11742.7648,W,1,08,1.26,397.4,M,-32.9,M,,*40,*46

||||||||||||-81,6969,$ACCEL,0.34,-0.55,10.18,$ALT,283.81GA,0

||||||||||||-82,6969,$GNRMC,063854.000,A,3406.34,.W,,26$GNGGA,063855.000,3406.3468,N,11742.7648,W,1,08,1.27,397.4,M,-32.9,M,,*49

||||||||||||-83,6969,$ACCEL,0.34,-0.55,10.16,$ALT,283.86

||||||||||||-83,6969,$GNRMC,063855.000,A,3406.3616.62,86

||||||||||||-83,6969,$ACCEL,0.34,-0.55,10.16,$ALT,283.83

||||||||||||-82,6969,$GNRMC,063856.000,A,3406.8743.0,$GNGGA,063857.000,3406.3468,N,11742.7647,W,1,08,1.27,397.3,M,-32.9,M,,*43

||||||||||||-82,6969,$ACCEL,0.34,-0.54,10.18,$ALT,283.83GGA,

||||||||||||-82,6969,$GNRMC,063857.000,A,3406.3616.62,

||||||||||||-83,6969,$ACCEL,0.35,-0.54,10.18,$ALT,283.83

||||||||||||-83,6969,$GNGGA,063858.000,3406.3468,N,11742.7646,W,1,08,1.27,397.3,M,-32.9,M,,*4D

||||||||||||-83,6969,$ACCEL,0.33,-0.55,10.17,$ALT,283.85.764

||||||||||||-82,6969,$GNRMC,063858.000,A,3406.3616062,$GNGGA,063859.000,3406.3468,N,11742.7646,W,1,08,1.27,397.3,M,-32.9,M,,*4C

||||||||||||-83,6969,$ACCEL,0.34,-0.54,10.19,$ALT,283.83GNGGA,063859.000,3406.3468,N,11742.7646,W,1,08,1.27,397.3,M,-32.9,M,,*4C

||||||||||||-84,6969,$GNRMC,063859.000,A,3406$GNGGA,063900.000,3406.3469,N,11742.7645,W,1,08,1.27,397.3,M,-32.9,M,,*43.9,M,,*4C

||||||||||||-83,6969,$ACCEL,0.35,-0.54,10.19,$ALT,283.8400.000,3406.3469,N,11742.7645,W,1,08,1.27,397.3,M,-32.9,M,,*43.9,M,,*4C

||||||||||||-82,6969,$GNRMC,063900.000,A,3406.3469,N,$GNGGA,063901.000,3406.3469,N,11742.7644,W,1,08,1.27,397.3,M,-32.9,M,,*43

||||||||||||-83,6969,$ACCEL,0.34,-0.54,10.18,$ALT,283.81GGA,063901.000,3406.3469,N,11742.7644,W,1,08,1.27,397.3,M,-32.9,M,,*43

||||||||||||-83,6969,$GNRMC,063901.000,A,3406.3469,N,11$GNGGA,063902.000,3406.3468,N,11742.7643,W,1,08,1.27,397.3,M,-32.9,M,,*46

||||||||||||-84,6969,$ACCEL,0.33,-0.54,10.20,$ALT,283.80GNGG

||||||||||||-82,6969,$GNRMC,063902.000,A,3406.3468,N,11$GNGGA,063903.000,3406.3468,N,11742.7643,W,1,08,1.27,397.3,M,-32.9,M,,*47

||||||||||||-83,6969,$ACCEL,0.35,-0.54,10.18,$ALT,283.79GNGGA,063903.000,3406.3468,N,11742.7643,W,1,08,1.27,397.3,M,-32.9,M,,*47

||||||||||||-84,6969,$GNRMC,063903.000,A,3406$GNGGA,063904.000,3406.3469,N,11742.7642,W,1,08,1.27,397.3,M,-32.9,M,,*40

||||||||||||-82,6969,$ACCEL,0.34,-0.54,10.19,$ALT,283.7804.0

||||||||||||-84,6969,$GNRMC,063904.000,A,3406.3469,N,$GNGGA,063905.000,3406.3469,N,11742.7641,W,1,08,1.27,397.3,M,-32.9,M,,*42

||||||||||||-84,6969,$ACCEL,0.34,-0.54,10.20,$ALT,283.82GGA,

||||||||||||-83,6969,$GNRMC,063905.000,A,3406.3469,N,11$GNGGA,063906.000,3406.3468,N,11742.7640,W,1,08,1.27,397.3,M,-32.9,M,,*41

||||||||||||-84,6969,$ACCEL,0.34,-0.54,10.17,$ALT,283.80GNGG

||||||||||||-83,6969,$GNRMC,063906.000,A,3406.3468,N,11$GNGGA,063907.000,3406.3469,N,11742.7639,W,1,08,1.27,397.3,M,-32.9,M,,*4F

||||||||||||-83,6969,$ACCEL,0.34,-0.55,10.18,$ALT,283.82

||||||||||||-83,6969,$GNRMC,063907.000,A,3406$GNGGA,063908.000,3406.3470,N,11742.7638,W,1,08,1.27,397.2,M,-32.9,M,,*48

||||||||||||-84,6969,$ACCEL,0.34,-0.53,10.19,$ALT,283.8608.000,3406.3470,N,11742.7638,W,1,08,1.27,397.2,M,-32.9,M,,*48

||||||||||||-83,6969,$GNRMC,063908.000,A,3406.3470,N,$GNGGA,063909.000,3406.3472,N,11742.7637,W,1,08,1.27,397.2,M,-32.9,M,,*44

||||||||||||-83,6969,$ACCEL,0.36,-0.54,10.20,$ALT,283.84GGA,

||||||||||||-82,6969,$GNRMC,063909.000,A,3406.3472,N,11$GNGGA,063910.000,3406.3474,N,11742.7636,W,1,08,1.27,397.2,M,-32.9,M,,*4B

||||||||||||-83,6969,$ACCEL,0.34,-0.54,10.19,$ALT,283.83GNGGA,063910.000,3406.3474,N,11742.7636,W,1,08,1.27,397.2,M,-32.9,M,,*4B

||||||||||||-82,6969,$GNRMC,063910.000,A,3406.3474,N,11$GNGGA,063911.000,3406.3475,N,11742.7634,W,1,08,1.27,397.2,M,-32.9,M,,*49

||||||||||||-84,6969,$ACCEL,0.35,-0.54,10.19,$ALT,283.84GNGGA,063911.000,3406.3475,N,11742.7634,W,1,08,1.27,397.2,M,-32.9,M,,*49

||||||||||||-84,6969,$GNRMC,063911.000,A,34063A$GNGGA,063912.000,3406.3476,N,11742.7633,W,1,08,1.27,397.2,M,-32.9,M,,*4E

||||||||||||-84,6969,$ACCEL,0.33,-0.55,10.19,$ALT,283.833912

||||||||||||-83,6969,$GNRMC,063912.000,A,3406.3476,22*$GNGGA,063913.000,3406.3477,N,11742.7632,W,1,08,1.27,397.2,M,-32.9,M,,*4F

||||||||||||-84,6969,$ACCEL,0.34,-0.55,10.19,$ALT,283.81

||||||||||||-83,6969,$GNRMC,063913.000,A,3406.3477,N73A$GNGGA,063914.000,3406.3477,N,11742.7631,W,1,08,1.27,397.2,M,-32.9,M,,*4B

||||||||||||-83,6969,$ACCEL,0.34,-0.55,10.19,$ALT,283.79GNGGA,063914.000,3406.3477,N,11742.7631,W,1,08,1.27,397.2,M,-32.9,M,,*4B

||||||||||||-82,6969,$GNRMC,063914.000,A,3406.3477,N,26$GNGGA,063915.000,3406.3478,N,11742.7630,W,1,08,1.27,397.2,M,-32.9,M,,*44

||||||||||||-83,6969,$ACCEL,0.34,-0.55,10.19,$ALT,283.81GNGGA,063915.000,3406.3478,N,11742.7630,W,1,08,1.27,397.2,M,-32.9,M,,*44

||||||||||||-82,6969,$GNRMC,063915.000,A,3406.34713.60,1GNGGA,063915.000,3406.3478,N,11742.7630,W,1,08,1.27,397.2,M,-32.9,M,,*44

||||||||||||-83,6969,$ACCEL,0.35,-0.55,10.19,$ALT,283.82GNGG

||||||||||||-83,6969,$ACCEL,0.34,-0.54,10.21,$ALT,283.83.763

||||||||||||-83,6969,$GNRMC,063916.000,A,3406.3,.W,,26$GNGGA,063917.000,3406.3481,N,11742.7629,W,1,08,1.27,397.2,M,-32.9,M,,*48

||||||||||||-83,6969,$ACCEL,0.34,-0.53,10.18,$ALT,283.81

||||||||||||-82,6969,$GNRMC,063917.000,A,3406.3417051,$GNGGA,063918.000,3406.3483,N,11742.7628,W,1,08,1.27,397.2,M,-32.9,M,,*44

||||||||||||-81,6969,$ACCEL,0.34,-0.53,10.18,$ALT,283.82GNGGA,063918.000,3406.3483,N,11742.7628,W,1,08,1.27,397.2,M,-32.9,M,,*44

||||||||||||-83,6969,$GNRMC,063918.000,A,3406.3372..0,82GNGG

||||||||||||-83,6969,$ACCEL,0.34,-0.55,10.19,$ALT,283.83GNGG

||||||||||||-84,6969,$ACCEL,0.34,-0.54,10.18,$ALT,283.84.762

||||||||||||-81,6969,$GNRMC,063919.000,A,340$GNGGA,063920.000,3406.3481,N,11742.7629,W,1,07,2.05,397.2,M,-32.9,M,,*40

||||||||||||-83,6969,$ACCEL,0.35,-0.53,10.18,$ALT,283.830.00

||||||||||||-83,6969,$GNRMC,063920.000,A,3406.3481,N,1$GNGGA,063921.000,3406.3481,N,11742.7629,W,1,07,2.05,397.2,M,-32.9,M,,*41

||||||||||||-82,6969,$ACCEL,0.35,-0.54,10.19,$ALT,283.80NGGA,063921.000,3406.3481,N,11742.7629,W,1,07,2.05,397.2,M,-32.9,M,,*41

||||||||||||-82,6969,$GNRMC,063921.000,A,3406.3481,N,11$GNGGA,063922.000,3406.3481,N,11742.7629,W,1,08,1.27,397.2,M,-32.9,M,,*4E

||||||||||||-83,6969,$ACCEL,0.34,-0.54,10.20,$ALT,283.84GNGG

||||||||||||-83,6969,$GNRMC,063922.000,A,3406.3481,N,11$GNGGA,063923.000,3406.3480,N,11742.7629,W,1,08,1.27,397.2,M,-32.9,M,,*4E

||||||||||||-83,6969,$ACCEL,0.34,-0.55,10.20,$ALT,283.82GNGGA,063923.000,3406.3480,N,11742.7629,W,1,08,1.27,397.2,M,-32.9,M,,*4E

||||||||||||-82,6969,$GNRMC,063923.000,A,340$GNGGA,063924.000,3406.3480,N,11742.7629,W,1,08,1.27,397.2,M,-32.9,M,,*492.9,M,,*4E

||||||||||||-83,6969,$ACCEL,0.34,-0.54,10.19,$ALT,283.824.000,3406.3480,N,11742.7629,W,1,08,1.27,397.2,M,-32.9,M,,*492.9,M,,*4E

||||||||||||-82,6969,$GNRMC,063924.000,A,3406.3480,N,1$GNGGA,063925.000,3406.3480,N,11742.7629,W,1,08,1.27,397.2,M,-32.9,M,,*48,

||||||||||||-83,6969,$ACCEL,0.34,-0.53,10.20,$ALT,283.85NGGA,063925.000,3406.3480,N,11742.7629,W,1,08,1.27,397.2,M,-32.9,M,,*48,

||||||||||||-82,6969,$GNRMC,063925.000,A,3406.3480,N,11$GNGGA,063926.000,3406.3479,N,11742.7628,W,1,08,1.27,397.2,M,-32.9,M,,*4C

||||||||||||-81,6969,$ACCEL,0.34,-0.54,10.20,$ALT,283.84GNGGA,063926.000,3406.3479,N,11742.7628,W,1,08,1.27,397.2,M,-32.9,M,,*4C

||||||||||||-81,6969,$GNRMC,063926.000,A,3406.3479,N,11$GNGGA,063927.000,3406.3480,N,11742.7628,W,1,08,1.27,397.2,M,-32.9,M,,*4B

||||||||||||-83,6969,$ACCEL,0.34,-0.54,10.19,$ALT,283.83GNGGA,063927.000,3406.3480,N,11742.7628,W,1,08,1.27,397.2,M,-32.9,M,,*4B

||||||||||||-82,6969,$GNRMC,063927.000,A,340$GNGGA,063928.000,3406.3479,N,11742.7628,W,1,08,1.27,397.1,M,-32.9,M,,*412.9,M,,*4B

||||||||||||-84,6969,$ACCEL,0.34,-0.54,10.18,$ALT,283.838.000,3406.3479,N,11742.7628,W,1,08,1.27,397.1,M,-32.9,M,,*412.9,M,,*4B

||||||||||||-83,6969,$GNRMC,063928.000,A,3406.3479,N,1$GNGGA,063929.000,3406.3479,N,11742.7628,W,1,08,1.27,397.1,M,-32.9,M,,*40,

||||||||||||-83,6969,$ACCEL,0.34,-0.54,10.20,$ALT,283.83NGGA,063929.000,3406.3479,N,11742.7628,W,1,08,1.27,397.1,M,-32.9,M,,*40,

||||||||||||-83,6969,$GNRMC,063929.000,A,3406.3479,N,11$GNGGA,063930.000,3406.3479,N,11742.7628,W,1,08,1.27,397.1,M,-32.9,M,,*48

||||||||||||-82,6969,$ACCEL,0.35,-0.55,10.20,$ALT,283.84GNGG

||||||||||||-82,6969,$GNRMC,063930.000,A,3406.3479,N,11$GNGGA,063931.000,3406.3479,N,11742.7628,W,1,10,1.04,397.1,M,-32.9,M,,*41

||||||||||||-82,6969,$ACCEL,0.35,-0.54,10.19,$ALT,283.84

||||||||||||-82,6969,$GNRMC,063931.000,A,3406.34N.W,226$GNGGA,063932.000,3406.3480,N,11742.7628,W,1,10,1.03,397.1,M,-32.9,M,,*43

||||||||||||-82,6969,$ACCEL,0.35,-0.54,10.19,$ALT,283.83GNGG

||||||||||||-82,6969,$GNRMC,063932.000,A,340816.62,

||||||||||||-83,6969,$ACCEL,0.35,-0.55,10.20,$ALT,283.84

||||||||||||-83,6969,$GNGGA,063933.000,3406.3480,N,11742.7627,W,1,10,1.03,397.1,M,-32.9,M,,*4D

||||||||||||-82,6969,$ACCEL,0.35,-0.55,10.20,$ALT,283.85.7627,W,1,10,1.03,397.1,M,-32.9,M,,*4D

||||||||||||-82,6969,$GNRMC,063933.000,A,3406.348016062,.762

||||||||||||-82,6969,$ACCEL,0.34,-0.54,10.20,$ALT,283.84.762

||||||||||||-81,6969,$GNGGA,063934.000,3406.3480,N,11742.7627,W,1,10,1.04,397.1,M,-32.9,M,,*4D

||||||||||||-81,6969,$ACCEL,0.34,-0.55,10.21,$ALT,283.85.7627,W,1,10,1.04,397.1,M,-32.9,M,,*4D

||||||||||||-82,6969,$GNRMC,063934.000,A,34060771.0A$GNGGA,063935.000,3406.3480,N,11742.7627,W,1,10,1.04,397.2,M,-32.9,M,,*4F

||||||||||||-83,6969,$ACCEL,0.35,-0.54,10.21,$ALT,283.81GA,0

||||||||||||-82,6969,$GNRMC,063935.000,A,3406.3,2,472*$GNGGA,063936.000,3406.3480,N,11742.7627,W,1,10,1.03,397.1,M,-32.9,M,,*48

||||||||||||-81,6969,$ACCEL,0.35,-0.54,10.21,$ALT,283.83NGGA

||||||||||||-81,6969,$GNRMC,063936.000,A,3406$GNGGA,063937.000,3406.3480,N,11742.7627,W,1,10,1.04,397.1,M,-32.9,M,,*4E

||||||||||||-80,6969,$ACCEL,0.35,-0.55,10.22,$ALT,283.8637.000,3406.3480,N,11742.7627,W,1,10,1.04,397.1,M,-32.9,M,,*4E

||||||||||||-81,6969,$GNRMC,063937.000,A,3406.3480,N,12,0$GNGGA,063938.000,3406.3481,N,11742.7627,W,1,10,1.04,397.1,M,-32.9,M,,*40

||||||||||||-81,6969,$ACCEL,0.34,-0.54,10.23,$ALT,283.840$GNGGA,063938.000,3406.3481,N,11742.7627,W,1,10,1.04,397.1,M,-32.9,M,,*40

||||||||||||-82,6969,$GNRMC,063938.000,A,3406.3481,N$GNGGA,063939.000,3406.3482,N,11742.7628,W,1,10,1.04,397.1,M,-32.9,M,,*4D,*40

||||||||||||-81,6969,$ACCEL,0.35,-0.53,10.21,$ALT,283.85GA,063939.000,3406.3482,N,11742.7628,W,1,10,1.04,397.1,M,-32.9,M,,*4D,*40

||||||||||||-81,6969,$GNRMC,063939.000,A,3406.3482,N,1$GNGGA,063940.000,3406.3482,N,11742.7628,W,1,09,1.12,397.1,M,-32.9,M,,*4C40

||||||||||||-81,6969,$ACCEL,0.35,-0.54,10.22,$ALT,283.84NGGA

||||||||||||-81,6969,$GNRMC,063940.000,A,3406$GNGGA,063941.000,3406.3481,N,11742.7629,W,1,09,1.12,397.1,M,-32.9,M,,*4F

||||||||||||-81,6969,$ACCEL,0.34,-0.54,10.21,$ALT,283.8641.000,3406.3481,N,11742.7629,W,1,09,1.12,397.1,M,-32.9,M,,*4F

||||||||||||-81,6969,$GNRMC,063941.000,A,3406.3481,N,1174$GNGGA,063942.000,3406.3480,N,11742.7629,W,1,09,1.12,397.1,M,-32.9,M,,*4D 5

||||||||||||-80,6969,$ACCEL,0.34,-0.53,10.22,$ALT,283.844$GNGGA,063942.000,3406.3480,N,11742.7629,W,1,09,1.12,397.1,M,-32.9,M,,*4D 5

||||||||||||-81,6969,$GNRMC,063942.000,A,3406.3480,N$GNGGA,063943.000,3406.3480,N,11742.7630,W,1,09,1.11,397.1,M,-32.9,M,,*47,*4D 5

||||||||||||-81,6969,$ACCEL,0.34,-0.54,10.21,$ALT,283.85GA,063943.000,3406.3480,N,11742.7630,W,1,09,1.11,397.1,M,-32.9,M,,*47,*4D 5

||||||||||||-80,6969,$GNRMC,063943.000,A,3406.3480,N,1$GNGGA,063944.000,3406.3479,N,11742.7631,W,1,09,1.12,397.1,M,-32.9,M,,*444D 5

||||||||||||-81,6969,$ACCEL,0.35,-0.55,10.22,$ALT,283.84NGGA,063944.000,3406.3479,N,11742.7631,W,1,09,1.12,397.1,M,-32.9,M,,*444D 5

||||||||||||-82,6969,$GNRMC,063944.000,A,3406$GNGGA,063945.000,3406.3478,N,11742.7632,W,1,09,1.12,397.1,M,-32.9,M,,*479,M,,*444D 5

||||||||||||-82,6969,$ACCEL,0.34,-0.53,10.21,$ALT,283.84

||||||||||||-81,6969,$GNRMC,063945.000,A,3406.3478,N,1174$GNGGA,063946.000,3406.3476,N,11742.7634,W,1,09,1.12,397.1,M,-32.9,M,,*4C 4

||||||||||||-80,6969,$GNRMC,063947.000,A,3406.3475,N,1$GNGGA,063948.000,3406.3474,N,11742.7636,W,1,09,1.12,397.1,M,-32.9,M,,*42

||||||||||||-82,6969,$ACCEL,0.34,-0.53,10.20,$ALT,283.86NGGA,063948.000,3406.3474,N,11742.7636,W,1,09,1.12,397.1,M,-32.9,M,,*42

||||||||||||-81,6969,$GNRMC,063948.000,A,3406,C$GNGGA,063949.000,3406.3474,N,11742.7637,W,1,09,1.12,397.1,M,-32.9,M,,*42M,,*42

||||||||||||-81,6969,$ACCEL,0.33,-0.54,10.21,$ALT,283.873949

||||||||||||-81,6969,$GNRMC,063949.000,A,3406.3474,N,11$GNGGA,063950.000,3406.3473,N,11742.7639,W,1,10,1.11,397.1,M,-32.9,M,,*48

||||||||||||-81,6969,$ACCEL,0.33,-0.54,10.21,$ALT,283.90GNGGA,063950.000,3406.3473,N,11742.7639,W,1,10,1.11,397.1,M,-32.9,M,,*48

||||||||||||-80,6969,$GNRMC,063950.000,A,3406.3473,N0,90GNGG

||||||||||||-80,6969,$ACCEL,0.34,-0.53,10.20,$ALT,283.90

||||||||||||-80,6969,$GNGGA,063951.000,3406.3473,N,11742.7640,W,1,10,1.12,397.0,M,-32.9,M,,*45

||||||||||||-81,6969,$ACCEL,0.33,-0.54,10.18,$ALT,283.90.7640,W,1,10,1.12,397.0,M,-32.9,M,,*45

||||||||||||-80,6969,$GNRMC,063951.000,A,3406.3473,3A$GNGGA,063952.000,3406.3472,N,11742.7641,W,1,10,1.11,397.0,M,-32.9,M,,*45

||||||||||||-81,6969,$ACCEL,0.34,-0.53,10.20,$ALT,283.87

||||||||||||-81,6969,$GNRMC,063952.000,A,3406.347274..0,

||||||||||||-81,6969,$ACCEL,0.34,-0.53,10.20,$ALT,283.88

||||||||||||-80,6969,$ACCEL,0.34,-0.55,10.19,$ALT,283.91.764

||||||||||||-80,6969,$GNRMC,063953.000,A,3406.3N.W,226$GNGGA,063954.000,3406.3474,N,11742.7643,W,1,10,1.03,397.0,M,-32.9,M,,*44,

||||||||||||-83,6969,$ACCEL,0.35,-0.54,10.22,$ALT,283.90NGGA

||||||||||||-82,6969,$GNRMC,063954.000,A,340$GNGGA,063955.000,3406.3471,N,11742.7643,W,1,10,1.04,397.0,M,-32.9,M,,*47

||||||||||||-81,6969,$ACCEL,0.35,-0.53,10.21,$ALT,283.87

||||||||||||-82,6969,$GNRMC,063955.000,A,3406.3471,N,$GNGGA,063956.000,3406.3472,N,11742.7643,W,1,10,1.03,397.0,M,-32.9,M,,*40

||||||||||||-82,6969,$ACCEL,0.34,-0.54,10.22,$ALT,283.89GGA,

||||||||||||-83,6969,$GNRMC,063956.000,A,3406.3472,N,1174$GNGGA,063957.000,3406.3471,N,11742.7643,W,1,10,1.03,397.0,M,-32.9,M,,*42 5

||||||||||||-83,6969,$ACCEL,0.35,-0.55,10.21,$ALT,283.874$GN

||||||||||||-84,6969,$GNRMC,063957.000,A,3406.3471,N,1$GNGGA,063958.000,3406.3472,N,11742.7643,W,1,10,1.03,397.0,M,-32.9,M,,*4E

||||||||||||-87,6969,$ACCEL,0.35,-0.54,10.21,$ALT,283.86NGGA,063958.000,3406.3472,N,11742.7643,W,1,10,1.03,397.0,M,-32.9,M,,*4E

||||||||||||-80,6969,$GNRMC,063958.000,A,340$GNGGA,063959.000,3406.3471,N,11742.7643,W,1,10,1.03,397.0,M,-32.9,M,,*4C.9,M,,*4E

||||||||||||-82,6969,$ACCEL,0.34,-0.54,10.21,$ALT,283.859.000,3406.3471,N,11742.7643,W,1,10,1.03,397.0,M,-32.9,M,,*4C.9,M,,*4E

||||||||||||-83,6969,$GNRMC,063959.000,A,3406.3471,N,$GNGGA,064000.000,3406.3471,N,11742.7643,W,1,10,1.03,397.0,M,-32.9,M,,*4E

||||||||||||-83,6969,$ACCEL,0.35,-0.54,10.21,$ALT,283.88GGA,

||||||||||||-83,6969,$GNRMC,064000.000,A,3406.3471,N,1174$GNGGA,064001.000,3406.3471,N,11742.7643,W,1,10,1.03,396.9,M,-32.9,M,,*47

||||||||||||-83,6969,$ACCEL,0.35,-0.54,10.21,$ALT,283.86

||||||||||||-82,6969,$GNRMC,064001.000,A,3406.3471,N,1$GNGGA,064002.000,3406.3472,N,11742.7643,W,1,10,1.03,397.0,M,-32.9,M,,*4F,

||||||||||||-83,6969,$ACCEL,0.34,-0.55,10.21,$ALT,283.84NGGA,064002.000,3406.3472,N,11742.7643,W,1,10,1.03,397.0,M,-32.9,M,,*4F,

||||||||||||-83,6969,$GNRMC,064002.000,A,340$GNGGA,064003.000,3406.3473,N,11742.7643,W,1,10,1.04,397.0,M,-32.9,M,,*48

||||||||||||-82,6969,$ACCEL,0.35,-0.55,10.20,$ALT,283.863.000,3406.3473,N,11742.7643,W,1,10,1.04,397.0,M,-32.9,M,,*48

||||||||||||-82,6969,$GNRMC,064003.000,A,3406.3473,N,$GNGGA,064004.000,3406.3473,N,11742.7642,W,1,10,1.03,397.0,M,-32.9,M,,*49

||||||||||||-83,6969,$ACCEL,0.34,-0.54,10.20,$ALT,283.84GGA,

||||||||||||-82,6969,$GNRMC,064004.000,A,3406.3473,N,1174$GNGGA,064005.000,3406.3473,N,11742.7642,W,1,10,1.03,397.0,M,-32.9,M,,*48

||||||||||||-84,6969,$ACCEL,0.34,-0.54,10.20,$ALT,283.85

||||||||||||-82,6969,$GNRMC,064005.000,A,3406.3473,N,1$GNGGA,064006.000,3406.3472,N,11742.7642,W,1,10,1.03,397.0,M,-32.9,M,,*4A,

||||||||||||-84,6969,$ACCEL,0.35,-0.54,10.22,$ALT,283.83NGGA,064006.000,3406.3472,N,11742.7642,W,1,10,1.03,397.0,M,-32.9,M,,*4A,

||||||||||||-82,6969,$GNRMC,064006.000,A,340421.3A$GNGGA,064007.000,3406.3474,N,11742.7642,W,1,10,1.03,397.0,M,-32.9,M,,*4D

||||||||||||-84,6969,$ACCEL,0.35,-0.54,10.22,$ALT,283.84,064

||||||||||||-83,6969,$GNRMC,064007.000,A,3406.34717,31,7$GNGGA,064008.000,3406.3475,N,11742.7642,W,1,10,1.03,397.0,M,-32.9,M,,*43

||||||||||||-84,6969,$ACCEL,0.36,-0.54,10.21,$ALT,283.88$GNG

||||||||||||-82,6969,$GNRMC,064008.000,A,3406.3420.0A$GNGGA,064009.000,3406.3475,N,11742.7642,W,1,10,1.03,397.1,M,-32.9,M,,*43

||||||||||||-84,6969,$ACCEL,0.35,-0.55,10.20,$ALT,283.88GGA,064009.000,3406.3475,N,11742.7642,W,1,10,1.03,397.1,M,-32.9,M,,*43

||||||||||||-83,6969,$GNRMC,064009.000,A,3406.347,572*$GNGGA,064010.000,3406.3476,N,11742.7642,W,1,10,1.03,397.1,M,-32.9,M,,*48

||||||||||||-82,6969,$ACCEL,0.35,-0.54,10.21,$ALT,283.84NGGA,064010.000,3406.3476,N,11742.7642,W,1,10,1.03,397.1,M,-32.9,M,,*48

||||||||||||-82,6969,$GNRMC,064010.000,A,3406.34716062,4NGGA

||||||||||||-82,6969,$ACCEL,0.35,-0.54,10.21,$ALT,283.88NGGA

