"||||||||||||-65,6969,$ACCEL,-4.26,-0.83,-8.55,$ALT,774.04,-228.45,3429.6946,N,11657.5525,W,2,17,0.62,872.5,M,-31.0,M\r\n"2022-03-12 19:36:06
"||||||||||||-68,6969,$GNRMC,19360104665132F$GNGGA,193602.000,3429.6947,N,11657.5525,W,2,17,0.62,872.5,M,-31,G902,7,,,,\r$GNGGA,193603.000,34\r\n"2022-03-12 19:36:07
"||||||||||||-66,6969,$GNRMC,193605.00,912073*$GNGGA,193606.000,3429.6950,N,11657.5527,W,2,17,0.62,872.6,M,-31.0,M,,*49\r\r\n"2022-03-12 19:36:10
"||||||||||||-64,6969,$ACCEL,-3.30,8.33,3.74,$ALT,773.83,-228.39B\u0001\r\n"2022-03-12 19:36:11
"||||||||||||-63,6969,$GNRMC,193606.000,A,3429.6950,N,11657.5527,W,0$GNGGA,193607.000,3429.6951,N,11657.5529,W,2,17,0.62,872.6,M,-31.0,M,,*4 \r\n"2022-03-12 19:36:11
"||||||||||||-64,6969,$ACCEL,-3.59,8.29,3.72,$ALT,773.88,-228.40,W,0$GNGGA,193607.000,3429.6951,N,11657.5529,W,2,17,0.62,872.6,M,-31.0,M,,*4 \r\n"2022-03-12 19:36:12
"||||||||||||-65,6969,$GNRMC,193607.000,A,3429.6951$GNGGA,193608.000,3429.6951,N,11657.5530,W,2,17,0.62,872.7,M,-31.0,M,,*41\r@B\u000f\r\n"2022-03-12 19:36:12
"||||||||||||-64,6969,$ACCEL,-3.09,8.59,3.35,$ALT,773.93,-228.42.000,3429.6951,N,11657.5530,W,2,17,0.62,872.7,M,-31.0,M,,*41\r@B\u000f\r\n"2022-03-12 19:36:13
"||||||||||||-64,6969,$GNRMC,193608.000,A,3429.$GNGGA,193609.000,3429.6951,N,11657.5531,W,2,17,0.62,872.7,M,-31.0,M,,*41\r*41\r@B\u000f\r\n"2022-03-12 19:36:13
"||||||||||||-64,6969,$ACCEL,-3.21,8.59,3.24,$ALT,773.85,-228.41,3429.6951,N,11657.5531,W,2,17,0.62,872.7,M,-31.0,M,,*41\r*41\r@B\u000f\r\n"2022-03-12 19:36:14
"||||||||||||-64,6969,$GNRMC,193609.000,A,3429$GNGGA,193610.000,3429.6950,N,11657.5531,W,2,17,0.62,872.8,M,-31.0,M,,*47\r\r*41\r@B\u000f\r\n"2022-03-12 19:36:14
"||||||||||||-65,6969,$ACCEL,-2.55,8.77,3.37,$ALT,773.86,-228.403429.6950,N,11657.5531,W,2,17,0.62,872.8,M,-31.0,M,,*47\r\r*41\r@B\u000f\r\n"2022-03-12 19:36:15
"||||||||||||-64,6969,$GNRMC,193610.000,A,3429.69513173*$GNGGA,193611.000,3429.6950,N,11657.5531,W,2,17,0.62,872.8,M,-31.0,M,,*46\r\r\n"2022-03-12 19:36:15
"||||||||||||-63,6969,$ACCEL,-2.44,8.84,3.25,$ALT,773.75,-228.38\r\n"2022-03-12 19:36:16
"||||||||||||-64,6969,$GNRMC,19361,.,5032,$GNGGA,193612.000,3429.6949,N,11657.5531,W,2,17,0.62,872.8,M,-31.0,M,,*4D\r\r\n"2022-03-12 19:36:16
"||||||||||||-63,6969,$ACCEL,-2.33,8.88,3.19,$ALT,773.76,-228.38.6949,N,11657.5531,W,2,17,0.62,872.8,M,-31.0,M,,*4D\r\r\n"2022-03-12 19:36:17
"||||||||||||-64,6969,$GNRMC,193612.00A615030D$GNGGA,193613.000,3429.6949,N,11657.5531,W,2,17,0.62,872.9,M,-31.0,M,,*4D\r\r\n"2022-03-12 19:36:17
"||||||||||||-63,6969,$ACCEL,-2.67,8.80,3.16,$ALT,773.77,-228.393429.6949,N,11657.5531,W,2,17,0.62,872.9,M,-31.0,M,,*4D\r\r\n"2022-03-12 19:36:18
"||||||||||||-66,6969,$GNRMC,193613.004961932B$GNGGA,193614.000,3429.6948,N,11657.5531,W,2,17,0.62,872.9,M,-31.0,M,,*4B\r\r\n"2022-03-12 19:36:18
"||||||||||||-64,6969,$ACCEL,-3.68,8.34,3.34,$ALT,773.82,-228.423429.6948,N,11657.5531,W,2,17,0.62,872.9,M,-31.0,M,,*4B\r\r\n"2022-03-12 19:36:19
"||||||||||||-65,6969,$GNRMC,193614.0002,7W,,,\r$GNGGA,193615.000,3429.6947,N,11657.5531,W,2,17,0.62,873.0,M,-31.0,M,,*4D\r`\r\n"2022-03-12 19:36:19
"||||||||||||-66,6969,$ACCEL,-3.68,8.34,3.34,$ALT,773.91,-228.44B\u0001\r\n"2022-03-12 19:36:20
"||||||||||||-66,6969,$GNRMC,193615.0A615030D$GNGGA,193616.000,3429.6946,N,11657.5531,W,2,17,0.62,873.0,M,-31.0,M,,*4F\r\r\n"2022-03-12 19:36:20
"||||||||||||-69,6969,$ACCEL,-2.38,5.59,7.95,$ALT,773.89,-228.44B\u0001\r\n"2022-03-12 19:36:21
"||||||||||||-68,6969,$GNRMC,193616.000465,,329$GNGGA,193617.000,3429.6946,N,11657.5530,W,2,17,0.62,873.0,M,-31.0,M,,*4F\r`\r\n"2022-03-12 19:36:21
"||||||||||||-63,6969,$ACCEL,-1.65,5.50,8.34,$ALT,773.91,-228.45,3429.6946,N,11657.5530,W,2,17,0.62,873.0,M,-31.0,M,,*4F\r`\r\n"2022-03-12 19:36:22
"||||||||||||-63,6969,$GNRMC,193617.00,913..3*$GNGGA,193618.000,3429.6947,N,11657.5530,W,2,16,0.63,873.0,M,-31.0,M,,*41\r\r`\r\n"2022-03-12 19:36:22
"||||||||||||-65,6969,$ACCEL,-0.98,5.08,8.62,$ALT,773.79,-228.433429.6947,N,11657.5530,W,2,16,0.63,873.0,M,-31.0,M,,*41\r\r`\r\n"2022-03-12 19:36:23
"||||||||||||-61,6969,$GNRMC,193618.000475,,,23$GNGGA,193619.000,3429.6946,N,11657.5530,W,2,17,0.62,873.0,M,-31.0,M,,*41\r`\r\n"2022-03-12 19:36:23
"||||||||||||-67,6969,$ACCEL,0.11,4.75,8.85,$ALT,773.78,-228.420,3429.6946,N,11657.5530,W,2,17,0.62,873.0,M,-31.0,M,,*41\r`\r\n"2022-03-12 19:36:23
"||||||||||||-67,6969,$GNRMC,193619.0,9N.,71,ALT,773.78,-228.\r\n"2022-03-12 19:36:23
"||||||||||||-66,6969,$ACCEL,0.11,4.75,8.85,$ALT,773.77,-228.43\r\n"2022-03-12 19:36:24
"||||||||||||-60,6969,$GNRMC,193620.000,9N.W21,LT,773.84,-228\r\n"2022-03-12 19:36:24
"||||||||||||-63,6969,$ACCEL,-0.21,5.79,8.25,$ALT,773.82,-228.45\r\n"2022-03-12 19:36:25
"||||||||||||-63,6969,$GNGGA,193621.000,3429.6945,N,11657.5529,W,2,17,0.62,873.1,M,-31.0,M,,*40\r\r\n"2022-03-12 19:36:25
"||||||||||||-67,6969,$ACCEL,1.02,4.94,8.80,$ALT,773.84,-228.46\r\n"2022-03-12 19:36:26
"||||||||||||-66,6969,$GNRMC,193621.00,.,.,72,$GNGGA,193622.000,3429.6945,N,11657.5529,W,2,17,0.62,873.1,M,-31.0,M,,*43\r\r\n"2022-03-12 19:36:26
"||||||||||||-57,6969,$ACCEL,2.16,3.76,9.26,$ALT,773.87,-228.46,3429.6945,N,11657.5529,W,2,17,0.62,873.1,M,-31.0,M,,*43\r\r\n"2022-03-12 19:36:27
"||||||||||||-50,6969,$GNRMC,193622.000,9121.3*$GNGGA,193623.000,3429.6945,N,11657.5529,W,2,17,0.62,873.1,M,-3,0,M,,*43\r\r\n"2022-03-12 19:36:27
"||||||||||||-61,6969,$ACCEL,0.24,6.11,7.25,$ALT,774.19,-228.57\r\n"2022-03-12 19:36:28
"||||||||||||-61,6969,,.34621726$GNGGA,193624.000,3429.6944,N,11657.5528,W,2,17,0.62,873.1,M,-31.0,M,,*45\r\r\n"2022-03-12 19:36:28
"||||||||||||-63,6969,$ACCEL,-0.47,8.27,-1.79,$ALT,774.19,-228.5757.5528,W,2,17,0.62,873.1,M,-31.0,M,,*45\r\r\n"2022-03-12 19:36:28
"||||||||||||-63,6969,..3*$GNGGA,193625.000,3429.6943,N,11657.5528,W,2,17,0.62,873.1,M,-31.0,M,,*43\r,,*45\r\r\n"2022-03-12 19:36:29
"||||||||||||-59,6969,$ACCEL,-2.15,8.77,-2.74,$ALT,774.18,-228.578,W,2,17,0.62,873.1,M,-31.0,M,,*43\r,,*45\r\r\n"2022-03-12 19:36:29
"||||||||||||-59,6969,$GNRMC,193625.000,A,349,7W21,\r$GNGGA,193626.000,3429.6942,N,11657.5528,W,2,17,0.62,873.1,M,-31.0,M,,*41\r\r\n"2022-03-12 19:36:30
"||||||||||||-57,6969,$ACCEL,-0.71,8.62,-3.01,$ALT,774.10,-228.55\u0005R\r\n"2022-03-12 19:36:30
"||||||||||||-56,6969,$GNRMC,193626.002,7W21,\r$GNGGA,193627.000,3429.6940,N,11657.5529,W,2,17,0.62,873.2,M,-31.0,M,,*40\r\r\n"2022-03-12 19:36:31
"||||||||||||-57,6969,$ACCEL,3.06,6.33,-6.30,$ALT,774.10,-228.563429.6940,N,11657.5529,W,2,17,0.62,873.2,M,-31.0,M,,*40\r\r\n"2022-03-12 19:36:31
"||||||||||||-57,6969,$GNRMC,193627.000,A,34121726$GNGGA,193628.000,3429.6937,N,11657.5526,W,2,17,0.62,873.2,M,-31.0,M,,*40\r @B\u000f\r\n"2022-03-12 19:36:32
"||||||||||||-58,6969,$ACCEL,3.44,6.61,-6.68,$ALT,774.09,-228.56000,3429.6937,N,11657.5526,W,2,17,0.62,873.2,M,-31.0,M,,*40\r @B\u000f\r\n"2022-03-12 19:36:32
"||||||||||||-58,6969,$GNRMC,193628.000,A,3.,.,72,$GNGGA,193629.000,3429.6935,N,11657.5523,W,2,17,0.62,873.3,M,-31.0,M,,*47\r @B\u000f\r\n"2022-03-12 19:36:33
"||||||||||||-54,6969,$ACCEL,3.20,6.33,-6.41,$ALT,774.10,-228.56000,3429.6935,N,11657.5523,W,2,17,0.62,873.3,M,-31.0,M,,*47\r @B\u000f\r\n"2022-03-12 19:36:34
"||||||||||||-54,6969,$GNRMC,193629.000,A,3255,,,,0$GNGGA,193630.000,3429.6935,N,11657.5523,W,2,17,0.62,873.3,M,-31.0,M,,*4F\r@B\u000f\r\n"2022-03-12 19:36:34
"||||||||||||-54,6969,$ACCEL,2.28,4.73,-7.75,$ALT,774.14,-228.58.000,3429.6935,N,11657.5523,W,2,17,0.62,873.3,M,-31.0,M,,*4F\r@B\u000f\r\n"2022-03-12 19:36:35
"||||||||||||-55,6969,$GNRMC,193630.002,7W21,\r$GNGGA,193631.000,3429.6936,N,11657.5524,W,2,17,0.62,873.3,M,-31.0,M,,*4A\r\r\n"2022-03-12 19:36:35
"||||||||||||-54,6969,$ACCEL,0.37,1.28,-9.54,$ALT,774.19,-228.603429.6936,N,11657.5524,W,2,17,0.62,873.3,M,-31.0,M,,*4A\r\r\n"2022-03-12 19:36:36
"||||||||||||-54,6969,$GNRMC,193631.0033641726$GNGGA,193632.000,3429.6936,N,11657.5524,W,2,17,0.62,873.3,M,-31.0,M,,*49\r\r\n"2022-03-12 19:36:36
"||||||||||||-57,6969,$ACCEL,0.72,1.50,-9.57,$ALT,774.16,-228.603429.6936,N,11657.5524,W,2,17,0.62,873.3,M,-31.0,M,,*49\r\r\n"2022-03-12 19:36:37
"||||||||||||-57,6969,$GNRMC,193632.0A6,5030D$GNGGA,193633.000,3429.6937,N,11657.5524,W,2,17,0.62,873.4,M,-31.0,M,,*4E\r\r\n"2022-03-12 19:36:37
"||||||||||||-60,6969,$ACCEL,0.56,5.61,-7.51,$ALT,774.08,-228.58B\u0001\r\n"2022-03-12 19:36:37
"||||||||||||-58,6969,$GNRMC,193633.0033640326$GNGGA,193634.000,3429.6938,N,11657.5524,W,2,17,0.62,873.4,M,-31.0,M,,*46\r\r\n"2022-03-12 19:36:38
"||||||||||||-59,6969,$ACCEL,0.56,5.61,-7.51,$ALT,774.13,-228.58B\u0001\r\n"2022-03-12 19:36:38
"||||||||||||-59,6969,$GNRMC,193634.009N.,21,$ALT,774.13,-228\r\n"2022-03-12 19:36:38
"||||||||||||-58,6969,$ACCEL,0.48,7.09,-6.25,$ALT,774.12,-228.60B\u0001\r\n"2022-03-12 19:36:39
"||||||||||||-58,6969,$ACCEL,0.96,7.80,-5.38,$ALT,774.13,-228.61B\u0001\r\n"2022-03-12 19:36:40
"||||||||||||-60,6969,$GNRMC,193635.00,615..3*$GNGGA,193636.000,3429.6937,N,11657.5525,W,2,17,0.62,873.5,M,-31.0,M,,*4B\r\r\n"2022-03-12 19:36:40
"||||||||||||-59,6969,$ACCEL,0.96,7.80,-5.38,$ALT,774.11,-228.603429.6937,N,11657.5525,W,2,17,0.62,873.5,M,-31.0,M,,*4B\r\r\n"2022-03-12 19:36:40
"||||||||||||-59,6969,$GNRMC,193636.00,9N.,72,\u0018\r\n"2022-03-12 19:36:40
"||||||||||||-59,6969,$ACCEL,0.93,8.28,-4.72,$ALT,774.08,-228.60\r\n"2022-03-12 19:36:41
"||||||||||||-59,6969,$GNGGA,193637.000,3429.6936,N,11657.5525,W,2,17,0.62,873.5,M,-31.0,M,,*4B\r\r\n"2022-03-12 19:36:41
"||||||||||||-59,6969,$ACCEL,0.93,8.28,-4.72,$ALT,774.07,-228.59,2,17,0.62,873.5,M,-31.0,M,,*4B\r\r\n"2022-03-12 19:36:41
"||||||||||||-58,6969,$GNRMC,193637.0009N.W21,ALT,774.07,-228.59,2,17,0.62,873.5,M,-31.0,M,,*4B\r\r\n"2022-03-12 19:36:41
"||||||||||||-68,6969,$ACCEL,1.47,7.95,-4.92,$ALT,774.09,-228.60,2,17,0.62,873.5,M,-31.0,M,,*4B\r\r\n"2022-03-12 19:36:42
"||||||||||||-72,6969,,.455,7320$GNGGA,193639.000,3429.6934,N,11657.5525,W,2,17,0.62,873.6,M,-31.0,M,,*44\r\r\n"2022-03-12 19:36:43
"||||||||||||-67,6969,$ACCEL,0.07,8.39,-4.23,$ALT,774.17,-228.65657.5525,W,2,17,0.62,873.6,M,-31.0,M,,*44\r\r\n"2022-03-12 19:36:44
"||||||||||||-65,6969,$GNRMC,193639.000,A,34615.30D$GNGGA,193640.000,3429.6933,N,11657.5526,W,2,17,0.62,873.6,M,-31.0,M,,*4326$GNGGA,193641.\r\n"2022-03-12 19:36:44
"||||||||||||-66,6969,$ACCEL,0.15,8.61,-4.23,$ALT,774.11,-228.63.000,3429.6933,N,11657.5526,W,2,17,0.62,873.6,M,-31.0,M,,*4326$GNGGA,193641.\r\n"2022-03-12 19:36:45
"||||||||||||-59,6969,$GNRMC,193641.000,A,3$GNGGA,193642.000,3429.6933,N,11657.5526,W,2,17,0.62,873.7,M,-31.0,M,,*4D\r,M,,*4326$GNGGA,193641.\r\n"2022-03-12 19:36:45
"||||||||||||-51,6969,$ACCEL,0.15,8.61,-4.23,$ALT,774.05,-228.61B\u0001\r\n"2022-03-12 19:36:46
"||||||||||||-51,6969,$GNRM309,7W21,\r$GNGGA,193643.000,3429.6934,N,11657.5527,W,2,17,0.62,873.7,M,-31.0,M,,*4A\r\r\n"2022-03-12 19:36:46
"||||||||||||-52,6969,$ACCEL,-1.84,8.12,-4.33,$ALT,774.04,-228.60N,11657.5527,W,2,17,0.62,873.7,M,-31.0,M,,*4A\r\r\n"2022-03-12 19:36:47
"||||||||||||-52,6969,$GNRMC,193643.000,A9N7W21,LT,774.04,-22\r\n"2022-03-12 19:36:47
"||||||||||||-57,6969,$ACCEL,-1.84,8.12,-4.33,$ALT,774.00,-228.60\u0001\r\n"2022-03-12 19:36:47
"||||||||||||-58,6969,$GNRMC,193644.000,A,3429.6935,N,11657.5526,W,0.09,273.73,1203$GNGGA,193645.000,3429.6935,N,11657.5526,W,2,17,0.62,873. \r\n"2022-03-12 19:36:49
"||||||||||||-53,6969,$ACCEL,-0.16,9.46,1.93,$ALT,774.21,-228.67,W,0.09,273.73,1203$GNGGA,193645.000,3429.6935,N,11657.5526,W,2,17,0.62,873. \r\n"2022-03-12 19:36:49
"||||||||||||-51,6969,$GNRMC,193645.0004556$GNGGA,193646.000,3429.6936,N,11657.5525,W,2,17,0.62,873.7,M,-31.0,M,,*4F\r\r\n"2022-03-12 19:36:50
"||||||||||||-51,6969,$ACCEL,-0.15,9.47,1.95,$ALT,774.12,-228.65B\u0001\r\n"2022-03-12 19:36:50
"||||||||||||-51,6969,$GNRMC,193646.0$GNGGA,193647.000,3429.6935,N,11657.5524,W,2,17,0.62,873.7,M,-31.0,M,,*4C\r\r\n"2022-03-12 19:36:51
"||||||||||||-51,6969,$ACCEL,-0.15,9.47,1.93,$ALT,774.16,-228.66,N,11657.5524,W,2,17,0.62,873.7,M,-31.0,M,,*4C\r\r\n"2022-03-12 19:36:51
"||||||||||||-53,6969,$GNRM10455,992F$GNGGA,193648.000,3429.6936,N,11657.5523,W,2,17,0.62,873.7,M,-31.0,M,,*47\r\r\n"2022-03-12 19:36:51
"||||||||||||-52,6969,$ACCEL,-0.15,9.47,1.93,$ALT,774.17,-228.66B\u0001\r\n"2022-03-12 19:36:52
"||||||||||||-53,6969,$GNRMC,193648.000,A,349N7W11,74.17,-228.66B\u0001\r\n"2022-03-12 19:36:52
"||||||||||||-54,6969,$ACCEL,-0.15,9.47,1.93,$ALT,774.18,-228.67B\u0001\r\n"2022-03-12 19:36:52
"||||||||||||-50,6969,$ACCEL,-0.16,9.47,1.93,$ALT,774.17,-228.67B\u0001\r\n"2022-03-12 19:36:53
"||||||||||||-52,6969,$GNRMC,19364,.,5092,$GNGGA,193650.000,3429.6936,N,11657.5522,W,2,17,0.62,873.8,M,-31.0,M,,*40\r\r\n"2022-03-12 19:36:54
"||||||||||||-56,6969,$ACCEL,-0.14,9.47,1.92,$ALT,774.23,-228.69.6936,N,11657.5522,W,2,17,0.62,873.8,M,-31.0,M,,*40\r\r\n"2022-03-12 19:36:54
"||||||||||||-59,6969,$GNRMC,193650.000,912153*$GNGGA,193651.000,3429.6936,N,11657.5521,W,2,16,0.63,873.8,M,-31.0,M,,*42\r`\r\n"2022-03-12 19:36:55
"||||||||||||-65,6969,$ACCEL,-0.14,9.46,1.93,$ALT,774.22,-228.70,3429.6936,N,11657.5521,W,2,16,0.63,873.8,M,-31.0,M,,*42\r`\r\n"2022-03-12 19:36:55
"||||||||||||-61,6969,$GNRMC,193651.000,,9121.3*$GNGGA,193652.000,3429.6936,N,11657.5521,W,2,16,0.63,873.8,M,-M.0,M,,*42\r`\r\n"2022-03-12 19:36:55
"||||||||||||-52,6969,$ACCEL,-0.14,9.46,1.93,$ALT,774.23,-228.71B\u0001\r\n"2022-03-12 19:36:56
"||||||||||||-52,6969,,.3912152*$GNGGA,193653.000,3429.6935,N,11657.5520,W,2,16,0.63,873.7,M,-31.0,M,,*4D\r\r\n"2022-03-12 19:36:56
"||||||||||||-54,6969,$ACCEL,-0.15,9.46,1.94,$ALT,774.22,-228.71B\u0001\r\n"2022-03-12 19:36:57
"||||||||||||-51,6969,$GNRMC,193653.000,A,342,7W11,\r$GNGGA,193654.000,3429.6934,N,11657.5520,W,2,17,0.62,873.7,M,-31.0,M,,*4B\rB\u000f\r\n"2022-03-12 19:36:57
"||||||||||||-56,6969,$ACCEL,-0.15,9.48,1.92,$ALT,774.22,-228.714.000,3429.6934,N,11657.5520,W,2,17,0.62,873.7,M,-31.0,M,,*4B\rB\u000f\r\n"2022-03-12 19:36:58
"||||||||||||-61,6969,$GNRMC,193654.000,A33621826$GNGGA,193655.000,3429.6933,N,11657.5520,W,2,16,0.63,873.8,M,-31.0,M,,*42\r4B\rB\u000f\r\n"2022-03-12 19:36:58
"||||||||||||-61,6969,$ACCEL,-0.16,9.47,1.92,$ALT,774.20,-228.7100,3429.6933,N,11657.5520,W,2,16,0.63,873.8,M,-31.0,M,,*42\r4B\rB\u000f\r\n"2022-03-12 19:36:59
"||||||||||||-64,6969,$GNRMC,193655.00A615..0D$GNGGA,193656.000,3429.6933,N,11657.5520,W,2,16,0.63,873.8,M,-31.0,M,,*41\r42\r4B\rB\u000f\r\n"2022-03-12 19:36:59
"||||||||||||-54,6969,$ACCEL,-0.14,9.47,1.93,$ALT,774.19,-228.713429.6933,N,11657.5520,W,2,16,0.63,873.8,M,-31.0,M,,*41\r42\r4B\rB\u000f\r\n"2022-03-12 19:37:00
"||||||||||||-54,6969,$GNRMC,193656.000,A615.70D$GNGGA,193657.000,3429.6933,N,11657.5520,W,2,16,0.63,873.8,M,-31.0,M,,*40\r\r4B\rB\u000f\r\n"2022-03-12 19:37:00
"||||||||||||-55,6969,$ACCEL,-0.15,9.47,1.93,$ALT,774.20,-228.700,3429.6933,N,11657.5520,W,2,16,0.63,873.8,M,-31.0,M,,*40\r\r4B\rB\u000f\r\n"2022-03-12 19:37:01
"||||||||||||-54,6969,$GNRMC,193657.000,A,.N.,62,,774.20,-228\r\n"2022-03-12 19:37:01
"||||||||||||-54,6969,$ACCEL,-0.15,9.47,1.93,$ALT,774.17,-228.70\r\n"2022-03-12 19:37:01
"||||||||||||-54,6969,$GNGGA,193658.000,3429.6932,N,11657.5520,W,2,16,0.63,873.8,M,-31.0,M,,*4E\r\r\n"2022-03-12 19:37:02
"||||||||||||-54,6969,$ACCEL,-0.16,9.47,1.93,$ALT,774.23,-228.72,2,16,0.63,873.8,M,-31.0,M,,*4E\r\r\n"2022-03-12 19:37:02
"||||||||||||-54,6969,$GNRMC,193658.009,7W11,\r$GNGGA,193659.000,3429.6932,N,11657.5520,W,2,17,0.62,873.8,M,-31.0,M,,*4F\r\r\n"2022-03-12 19:37:03
"||||||||||||-52,6969,$ACCEL,-0.15,9.47,1.95,$ALT,774.21,-228.723429.6932,N,11657.5520,W,2,17,0.62,873.8,M,-31.0,M,,*4F\r\r\n"2022-03-12 19:37:03
"||||||||||||-54,6969,$GNRMC,193659.00A.,5070D$GNGGA,193700.000,3429.6932,N,11657.5519,W,2,17,0.62,873.8,M,-31.0,M,,*48\r\r\n"2022-03-12 19:37:04
"||||||||||||-55,6969,$ACCEL,-0.15,9.46,1.94,$ALT,774.18,-228.723429.6932,N,11657.5519,W,2,17,0.62,873.8,M,-31.0,M,,*48\r\r\n"2022-03-12 19:37:04
"||||||||||||-58,6969,$GNRMC,193700.00,.,5,62,$GNGGA,193701.000,3429.6931,N,11657.5519,W,2,17,0.62,873.8,M,-.4N309N.W11,\r\n"2022-03-12 19:37:05
"||||||||||||-61,6969,$ACCEL,-0.16,9.47,1.93,$ALT,774.17,-228.72\r\n"2022-03-12 19:37:05
"||||||||||||-63,6969,$GNGGA,193702.000,3429.6931,N,11657.5519,W,2,17,0.62,873.8,M,-31.0,M,,*49\r\r\n"2022-03-12 19:37:05
"||||||||||||-59,6969,$ACCEL,-0.15,9.46,1.92,$ALT,774.19,-228.72,2,17,0.62,873.8,M,-31.0,M,,*49\r\r\n"2022-03-12 19:37:06
"||||||||||||-59,6969,$GNRMC,193702.000,A,615050D$GNGGA,193703.000,3429.6931,N,11657.5519,W,2,17,0.62,873.8,M,-31.0,M,,*48\r\r\n"2022-03-12 19:37:06
"||||||||||||-52,6969,$ACCEL,-0.15,9.47,1.93,$ALT,774.17,-228.7200,3429.6931,N,11657.5519,W,2,17,0.62,873.8,M,-31.0,M,,*48\r\r\n"2022-03-12 19:37:07
"||||||||||||-51,6969,$GNRMC,193703.000,3911102*$GNGGA,193704.000,3429.6930,N,11657.5519,W,2,17,0.62,873.8,M,-31.0,M,,*4E\r\r\r\n"2022-03-12 19:37:07
"||||||||||||-53,6969,$ACCEL,-0.14,9.47,1.94,$ALT,774.18,-228.72B\u0001\r\n"2022-03-12 19:37:08
"||||||||||||-53,6969,$GNRMC,193704.0A615050D$GNGGA,193705.000,3429.6930,N,11657.5519,W,2,17,0.62,873.8,M,-31.0,M,,*4F\r\r\n"2022-03-12 19:37:08
"||||||||||||-55,6969,$ACCEL,-0.15,9.47,1.94,$ALT,774.15,-228.72429.6930,N,11657.5519,W,2,17,0.62,873.8,M,-31.0,M,,*4F\r\r\n"2022-03-12 19:37:09
"||||||||||||-55,6969,$GNRMC,193705.000,.,.,92,$GNGGA,193706.000,3429.6930,N,11657.5519,W,2,17,0.62,873.8,M,-31.0,M,,*4C\r`\r\n"2022-03-12 19:37:09
"||||||||||||-54,6969,$ACCEL,-0.16,9.47,1.94,$ALT,774.15,-228.72B\u0001\r\n"2022-03-12 19:37:10
"||||||||||||-56,6969,$GNRMC,193706.000,A,342915..3*$GNGGA,193707.000,3429.6929,N,11657.5519,W,2,17,0.62,873.8,M,-31.0,M,,*45\rB\u000f\r\n"2022-03-12 19:37:10
"||||||||||||-55,6969,$ACCEL,-0.15,9.47,1.94,$ALT,774.13,-228.72B\u0001\r\n"2022-03-12 19:37:11
"||||||||||||-55,6969,$GNRMC,193707.0,.,.,92,$GNGGA,193708.000,3429.6929,N,11657.5519,W,2,17,0.62,873.8,M,-31.0,M,,*4A\r\r\n"2022-03-12 19:37:11
"||||||||||||-54,6969,$ACCEL,-0.15,9.47,1.94,$ALT,774.11,-228.72429.6929,N,11657.5519,W,2,17,0.62,873.8,M,-31.0,M,,*4A\r\r\n"2022-03-12 19:37:12
"||||||||||||-54,6969,$GNRMC,193708.00A6,5050D$GNGGA,193709.000,3429.6929,N,11657.5519,W,2,17,0.62,873.8,M,-31.0,M,,*4B\r\r\n"2022-03-12 19:37:12
"||||||||||||-56,6969,$ACCEL,-0.16,9.47,1.94,$ALT,774.09,-228.723429.6929,N,11657.5519,W,2,17,0.62,873.8,M,-31.0,M,,*4B\r\r\n"2022-03-12 19:37:13
"||||||||||||-57,6969,$GNRMC,193709.000,A.,5092,$GNGGA,193710.000,3429.6928,N,11657.5519,W,2,16,0.65,873.8,M,-31.0,M,,*44\r\r\n"2022-03-12 19:37:13
"||||||||||||-55,6969,$ACCEL,-0.16,9.47,1.94,$ALT,774.11,-228.710,3429.6928,N,11657.5519,W,2,16,0.65,873.8,M,-31.0,M,,*44\r\r\n"2022-03-12 19:37:14
"||||||||||||-55,6969,$GNRMC,193710.000,9N.,91,\r\n"2022-03-12 19:37:14
"||||||||||||-54,6969,$ACCEL,-0.16,9.48,1.93,$ALT,774.14,-228.73\r\n"2022-03-12 19:37:14
"||||||||||||-54,6969,$GNGGA,193711.000,3429.6928,N,11657.5519,W,2,16,0.65,873.8,M,-31.0,M,,*45\r\r\n"2022-03-12 19:37:14
"||||||||||||-55,6969,$ACCEL,-0.15,9.47,1.92,$ALT,774.16,-228.74\r\n"2022-03-12 19:37:15
"||||||||||||-54,6969,$GNRMC,1937110485,,,2E$GNGGA,193712.000,3429.6928,N,11657.5519,W,2,16,0.65,873.9,M,-31.0,M,,*47\r\r\n"2022-03-12 19:37:15
"||||||||||||-52,6969,$ACCEL,-0.15,9.49,1.94,$ALT,774.16,-228.7529.6928,N,11657.5519,W,2,16,0.65,873.9,M,-31.0,M,,*47\r\r\n"2022-03-12 19:37:16
"||||||||||||-53,6969,$GNRMC,193712.000,9110.3*$GNGGA,193713.000,3429.6928,N,11657.5519,W,2,16,0.65,873.9,M,-31.0,M,,*46\r,\u0001\r\n"2022-03-12 19:37:16
"||||||||||||-53,6969,$ACCEL,-0.15,9.47,1.94,$ALT,774.17,-228.76,3429.6928,N,11657.5519,W,2,16,0.65,873.9,M,-31.0,M,,*46\r,\u0001\r\n"2022-03-12 19:37:18
"||||||||||||-53,6969,$GNRMC,193713.00,615..3*$GNGGA,193714.000,3429.6928,N,11657.5519,W,2,16,0.65,873.9,M,1,G902,5,,,,\r$GNGGA,193715.000,34\r\n"2022-03-12 19:37:18
"||||||||||||-54,6969,$ACCEL,-0.15,9.48,1.93,$ALT,774.31,-228.813429.6928,N,11657.5519,W,2,16,0.65,873.9,M,1,G902,5,,,,\r$GNGGA,193715.000,34\r\n"2022-03-12 19:37:19
"||||||||||||-55,6969,$GNRMC,193715.000,A,32,5,,,,\r$GNGGA,193716.000,3429.6927,N,11657.5518,W,2,16,0.65,873.9,M,-31.0,M,,*4D\r\r\n"2022-03-12 19:37:19
"||||||||||||-55,6969,$ACCEL,-0.16,9.46,1.93,$ALT,774.26,-228.80.000,3429.6927,N,11657.5518,W,2,16,0.65,873.9,M,-31.0,M,,*4D\r\r\n"2022-03-12 19:37:20
"||||||||||||-54,6969,$GNRMC,193716.000,A615..0D$GNGGA,193717.000,3429.6927,N,11657.5518,W,2,17,0.62,873.9,M,-31.0,M,,*4A\r\r\n"2022-03-12 19:37:20
"||||||||||||-54,6969,$ACCEL,-0.16,9.46,1.93,$ALT,774.24,-228.79B\u0001\r\n"2022-03-12 19:37:20
"||||||||||||-54,6969,$GNRMC,193717.0009N7W11,ALT,774.24,-228.79B\u0001\r\n"2022-03-12 19:37:20
"||||||||||||-55,6969,$ACCEL,-0.15,9.47,1.92,$ALT,774.24,-228.79\r\n"2022-03-12 19:37:21
"||||||||||||-53,6969,$GNRMC,193718.000,A,3429.6927,N,11657.5518,W$GNGGA,193719.000,3429.6926,N,11657.5518,W,2,17,0.62,873.9,M,-31.0,M,,*45\r \r\n"2022-03-12 19:37:22
"||||||||||||-54,6969,$GNRMC,193719.000,A,3429.6926$GNGGA,193720.000,3429.6926,N,11657.5518,W,2,17,0.62,874.0,M,-31.0,M,,*41\r@B\u000f\r\n"2022-03-12 19:37:23
"||||||||||||-55,6969,$ACCEL,-0.14,9.48,1.93,$ALT,774.19,-228.79.000,3429.6926,N,11657.5518,W,2,17,0.62,874.0,M,-31.0,M,,*41\r@B\u000f\r\n"2022-03-12 19:37:24
"||||||||||||-55,6969,$GNRMC,193720.000,A,3429.6$GNGGA,193721.000,3429.6926,N,11657.5518,W,2,17,0.62,874.0,M,-31.0,M,,*40*41\r@B\u000f\r\n"2022-03-12 19:37:24
"||||||||||||-55,6969,$ACCEL,-0.16,9.47,1.95,$ALT,774.24,-228.810,3429.6926,N,11657.5518,W,2,17,0.62,874.0,M,-31.0,M,,*40*41\r@B\u000f\r\n"2022-03-12 19:37:25
"||||||||||||-55,6969,,.,911003*$GNGGA,193722.000,3429.6926,N,11657.5517,W,2,17,0.62,874.0,M,-31.0,M,,*4C\r,M,-31.0,M,,*40*41\r@B\u000f\r\n"2022-03-12 19:37:25
"||||||||||||-55,6969,$ACCEL,-0.16,9.47,1.95,$ALT,774.18,-228.79\r\n"2022-03-12 19:37:27
"||||||||||||-53,6969,$GNRMC,193722.000,A,34265,,,22$GNGGA,193723.000,3429.6925,N,11657.5517,W,2,17,0.62,874.0,M,-31.0,M,,*4E\r\r\n"2022-03-12 19:37:27
"||||||||||||-55,6969,$ACCEL,-0.14,9.47,1.93,$ALT,774.18,-228.793.000,3429.6925,N,11657.5517,W,2,17,0.62,874.0,M,-31.0,M,,*4E\r\r\n"2022-03-12 19:37:28
"||||||||||||-53,6969,$GNRMC,1932A615050D$GNGGA,193724.000,3429.6925,N,11657.5517,W,2,17,0.62,874.0,M,-31.0,M,,*49\r\r\n"2022-03-12 19:37:28
"||||||||||||-56,6969,$ACCEL,-0.14,9.47,1.93,$ALT,774.17,-228.796925,N,11657.5517,W,2,17,0.62,874.0,M,-31.0,M,,*49\r\r\n"2022-03-12 19:37:28
"||||||||||||-57,6969,$GNRMC,193724.0009N7W11,ALT,774.17,-228.796925,N,11657.5517,W,2,17,0.62,874.0,M,-31.0,M,,*49\r\r\n"2022-03-12 19:37:29
"||||||||||||-60,6969,$ACCEL,-0.15,9.48,1.94,$ALT,774.14,-228.78B\u0001\r\n"2022-03-12 19:37:29
"||||||||||||-55,6969,$GNRMC,193725.000,911103*$GNGGA,193726.000,3429.6925,N,11657.5517,W,2,17,0.62,874.1,M,-31.0,M,,*4A\r`\r\n"2022-03-12 19:37:30
"||||||||||||-58,6969,$ACCEL,-0.15,9.46,1.91,$ALT,774.27,-228.82,3429.6925,N,11657.5517,W,2,17,0.62,874.1,M,-31.0,M,,*4A\r`\r\n"2022-03-12 19:37:31
"||||||||||||-57,6969,$GNRMC,193726.000,A2,7,,,,\r$GNGGA,193727.000,3429.6925,N,11657.5516,W,2,17,0.62,874.2,M,-31.0,M,,*49\r\r\n"2022-03-12 19:37:31
"||||||||||||-59,6969,$ACCEL,-0.15,9.47,1.92,$ALT,774.21,-228.8100,3429.6925,N,11657.5516,W,2,17,0.62,874.2,M,-31.0,M,,*49\r\r\n"2022-03-12 19:37:33
"||||||||||||-56,6969,$ACCEL,-0.16,9.47,1.93,$ALT,774.24,-228.83\r\n"2022-03-12 19:37:34
"||||||||||||-57,6969,$GNRMC,193729.000,A,3465,,425$GNGGA,193730.000,3429.6925,N,11657.5516,W,2,16,0.66,874.2,M,-31.0,M,,*4A\r\r\n"2022-03-12 19:37:34
"||||||||||||-59,6969,$ACCEL,-0.15,9.47,1.92,$ALT,774.21,-228.82B\u0001\r\n"2022-03-12 19:37:35
"||||||||||||-59,6969,$GNRMC,193730.00A615050D$GNGGA,193731.000,3429.6925,N,11657.5515,W,2,16,0.66,874.2,M,-31.0,M,,*48\r\r\n"2022-03-12 19:37:35
"||||||||||||-58,6969,$ACCEL,-0.16,9.47,1.91,$ALT,774.30,-228.85\r\n"2022-03-12 19:37:36
"||||||||||||-57,6969,$GNRMC,193731.000,A.,5050,$GNGGA,193732.000,3429.6925,N,11657.5515,W,2,16,0.65,874.3,M,-31.0,M,,*49\r\u0001\r\n"2022-03-12 19:37:36
"||||||||||||-66,6969,$ACCEL,-0.16,9.47,1.93,$ALT,774.31,-228.860,3429.6925,N,11657.5515,W,2,16,0.65,874.3,M,-31.0,M,,*49\r\u0001\r\n"2022-03-12 19:37:37
"||||||||||||-71,6969,$GNRMC,193732.000,A,3429.6925,N,11657.5515,W,$GNGGA,193733.000,3429.6924,N,11657.5515,W,2,16,0.66,874.3,M,-31.0,M,,*4A\r\n"2022-03-12 19:37:37
"||||||||||||-66,6969,$ACCEL,-0.15,9.45,1.92,$ALT,774.28,-228.85,W,$GNGGA,193733.000,3429.6924,N,11657.5515,W,2,16,0.66,874.3,M,-31.0,M,,*4A\r\n"2022-03-12 19:37:38
"||||||||||||-63,6969,$GNRMC,193733.000,A,3429.6924$GNGGA,193734.000,3429.6924,N,11657.5515,W,2,16,0.66,874.3,M,-31.0,M,,*4D\r,M,-31.0,M,,*4A\r\n"2022-03-12 19:37:38
"||||||||||||-59,6969,$ACCEL,-0.15,9.47,1.92,$ALT,774.27,-228.85\r\n"2022-03-12 19:37:39
"||||||||||||-56,6969,$GNRMC,193734.000,A,3429$GNGGA,193735.000,3429.6923,N,11657.5515,W,2,16,0.66,874.4,M,-31.0,M,,*4C\r\r\n"2022-03-12 19:37:39
"||||||||||||-60,6969,$ACCEL,-0.14,9.47,1.93,$ALT,774.31,-228.873429.6923,N,11657.5515,W,2,16,0.66,874.4,M,-31.0,M,,*4C\r\r\n"2022-03-12 19:37:40
"||||||||||||-58,6969,$GNRMC,193735.000,A,3429.6$GNGGA,193736.000,3429.6923,N,11657.5515,W,2,16,0.66,874.4,M,-31.0,M,,*4F\r\r\n"2022-03-12 19:37:40
"||||||||||||-56,6969,$ACCEL,-0.18,9.47,1.92,$ALT,774.29,-228.86B\u0001\r\n"2022-03-12 19:37:41
"||||||||||||-55,6969,$GNRMC,193736.000,A,3429.69235,,429$GNGGA,193737.000,3429.6923,N,11657.5515,W,2,17,0.62,874.4,M,-31.0,M,,*4B\r\r\n"2022-03-12 19:37:41
"||||||||||||-57,6969,$ACCEL,-0.16,9.46,1.93,$ALT,774.29,-228.87B\u0001\r\n"2022-03-12 19:37:42
"||||||||||||-58,6969,$GNRMC,193737,911..3*$GNGGA,193738.000,3429.6922,N,11657.5515,W,2,16,0.66,874.5,M,-31.0,M,,*41\r\r\n"2022-03-12 19:37:42
"||||||||||||-58,6969,$ACCEL,-0.15,9.47,1.92,$ALT,774.26,-228.859.6922,N,11657.5515,W,2,16,0.66,874.5,M,-31.0,M,,*41\r\r\n"2022-03-12 19:37:43
"||||||||||||-58,6969,$GNRMC,193738.032656926$GNGGA,193739.000,3429.6921,N,11657.5515,W,2,16,0.66,874.5,M,-31.0,M,,*43\r\r\n"2022-03-12 19:37:43
"||||||||||||-59,6969,$ACCEL,-0.15,9.47,1.92,$ALT,774.27,-228.86429.6921,N,11657.5515,W,2,16,0.66,874.5,M,-31.0,M,,*43\r\r\n"2022-03-12 19:37:44
"||||||||||||-60,6969,$GNRMC,193739.00,911..3*$GNGGA,193740.000,3429.6921,N,11657.5514,W,2,17,0.62,874.5,M,-31.0,M,,*49\r\r\n"2022-03-12 19:37:44
"||||||||||||-59,6969,$ACCEL,-0.15,9.48,1.93,$ALT,774.26,-228.86B\u0001\r\n"2022-03-12 19:37:45
"||||||||||||-61,6969,$GNRMC,193740.000,.,5062,$GNGGA,193741.000,3429.6920,N,11657.5514,W,2,17,0.62,874.6,M,-31.0,M,,*4A\r`\r\n"2022-03-12 19:37:45
"||||||||||||-61,6969,$ACCEL,-0.15,9.48,1.93,$ALT,774.27,-228.86B\u0001\r\n"2022-03-12 19:37:45
"||||||||||||-64,6969,$GNRMC,193741.09N7W11,,$ALT,774.27,-228\r\n"2022-03-12 19:37:45
"||||||||||||-61,6969,$ACCEL,-0.11,9.44,1.87,$ALT,774.31,-228.88B\u0001\r\n"2022-03-12 19:37:46
"||||||||||||-57,6969,$ACCEL,-0.20,9.46,1.94,$ALT,774.39,-228.90B\u0001\r\n"2022-03-12 19:37:47
"||||||||||||-56,6969,$GNRMC,193742.0032643226$GNGGA,193743.000,3429.6919,N,11657.5514,W,2,17,0.62,874.7,M,-31.0,M,,*43\r\r\n"2022-03-12 19:37:47
"||||||||||||-56,6969,$ACCEL,-0.17,9.46,1.93,$ALT,774.41,-228.903429.6919,N,11657.5514,W,2,17,0.62,874.7,M,-31.0,M,,*43\r\r\n"2022-03-12 19:37:48
"||||||||||||-58,6969,$GNRMC,193743.0003911232*$GNGGA,193744.000,3429.6919,N,11657.5513,W,2,17,0.62,874.7,M,-31.0,M,,*43\r`\r\n"2022-03-12 19:37:48
"||||||||||||-57,6969,$ACCEL,-0.17,9.46,1.93,$ALT,774.39,-228.89,3429.6919,N,11657.5513,W,2,17,0.62,874.7,M,-31.0,M,,*43\r`\r\n"2022-03-12 19:37:48
"||||||||||||-57,6969,$GNRMC,193744.09N.W11,,$ALT,774.39,-228\r\n"2022-03-12 19:37:49
"||||||||||||-58,6969,$ACCEL,-0.16,9.47,1.91,$ALT,774.44,-228.91B\u0001\r\n"2022-03-12 19:37:50
"||||||||||||-59,6969,$GNGGA,193745.000,3429.6919,N,11657.5513,W,2,17,0.62,874.8,M,-3.4R7,615000D$GNGGA,193746.000,3429.6918,N,11657.5513,W, \r\n"2022-03-12 19:37:50
"||||||||||||-61,6969,$ACCEL,-0.17,9.47,1.92,$ALT,774.35,-228.90\r\n"2022-03-12 19:37:52
"||||||||||||-63,6969,$GNRMC,193747.00485,,,24$GNGGA,193748.000,3429.6918,N,11657.5513,W,2,17,0.62,874.9,M,-31.0,M,,1.3*$GNGGA,193749.000,34\r\n"2022-03-12 19:37:52
"||||||||||||-61,6969,$ACCEL,-0.15,9.48,1.92,$ALT,774.33,-228.893429.6918,N,11657.5513,W,2,17,0.62,874.9,M,-31.0,M,,1.3*$GNGGA,193749.000,34\r\n"2022-03-12 19:37:54
"||||||||||||-56,6969,$GNRMC,193749.000,A,3429.6918,N,11657.5512,W,0.12,150.35,120322,6$GNGGA,193750.000,3429.6918,N,11657.5512,W,2,17,0.62,\r\n"2022-03-12 19:37:54
"||||||||||||-63,6969,$ACCEL,-0.16,9.47,1.94,$ALT,774.36,-228.89,W,0.12,150.35,120322,6$GNGGA,193750.000,3429.6918,N,11657.5512,W,2,17,0.62,\r\n"2022-03-12 19:37:55
"||||||||||||-67,6969,$GNRMC,19370,911..3*$GNGGA,193751.000,3429.6918,N,11657.5511,W,2,17,0.62,875.1,M,-31.0,M,,*43\r,11657.5512,W,2,17,0.62,\r\n"2022-03-12 19:37:55
"||||||||||||-68,6969,$ACCEL,-0.16,9.47,1.94,$ALT,774.39,-228.88B\u0001\r\n"2022-03-12 19:37:55
"||||||||||||-68,6969,$GNRMC,193751.009N.W11,$ALT,774.39,-228.88B\u0001\r\n"2022-03-12 19:37:55
"||||||||||||-64,6969,$ACCEL,-0.16,9.45,1.94,$ALT,774.39,-228.89B\u0001\r\n"2022-03-12 19:37:56
"||||||||||||-60,6969,$GNRMC,193752.0615000D$GNGGA,193753.000,3429.6919,N,11657.5510,W,2,17,0.62,875.3,M,-31.0,M,,*43\r\r\n"2022-03-12 19:37:57
"||||||||||||-63,6969,$ACCEL,-0.15,9.46,1.96,$ALT,774.32,-228.8929.6919,N,11657.5510,W,2,17,0.62,875.3,M,-31.0,M,,*43\r\r\n"2022-03-12 19:37:58
"||||||||||||-65,6969,$GNRMC,193753.000,A,3429.6919,N,11657.5510,W,0.09,150.35,1$GNGGA,193754.000,3429.6919,N,11657.5510,W,2,16,0.63,875.3,M \r\n"2022-03-12 19:37:58
"||||||||||||-63,6969,$ACCEL,-0.16,9.46,1.95,$ALT,774.32,-228.89,W,0.09,150.35,1$GNGGA,193754.000,3429.6919,N,11657.5510,W,2,16,0.63,875.3,M \r\n"2022-03-12 19:37:59
"||||||||||||-60,6969,$GNRMC,193754.000,A,$GNGGA,193755.000,3429.6919,N,11657.5510,W,2,16,0.63,875.4,M,-31.0,M,,*42\r\n"2022-03-12 19:37:59
"||||||||||||-59,6969,$ACCEL,-0.15,9.46,1.93,$ALT,774.32,-228.89.6919,N,11657.5510,W,2,16,0.63,875.4,M,-31.0,M,,*42\r\n"2022-03-12 19:38:00
"||||||||||||-59,6969,,5,9111.3*$GNGGA,193756.000,3429.6919,N,11657.5509,W,2,16,0.63,875.4,M,-31.0,M,,*49\r.0,M,,*42\r\n"2022-03-12 19:38:00
"||||||||||||-60,6969,$ACCEL,-0.15,9.46,1.93,$ALT,774.31,-228.89657.5509,W,2,16,0.63,875.4,M,-31.0,M,,*49\r.0,M,,*42\r\n"2022-03-12 19:38:00
"||||||||||||-63,6969,$GNRMC,193756.000,A,39N.,52,774.31,-228.89657.5509,W,2,16,0.63,875.4,M,-31.0,M,,*49\r.0,M,,*42\r\n"2022-03-12 19:38:00
"||||||||||||-64,6969,$ACCEL,-0.16,9.46,1.94,$ALT,774.34,-228.90B\u0001\r\n"2022-03-12 19:38:01
"||||||||||||-61,6969,$ACCEL,-0.16,9.46,1.95,$ALT,774.34,-228.91\r\n"2022-03-12 19:38:02
"||||||||||||-63,6969,$GNRMC,193757.0002,7W,,,\r$GNGGA,193758.000,3429.6919,N,11657.5509,W,2,17,0.62,875.4,M,-31.0,M,,*47\r`\r\n"2022-03-12 19:38:02
"||||||||||||-60,6969,$ACCEL,-0.15,9.48,1.96,$ALT,774.33,-228.90B\u0001\r\n"2022-03-12 19:38:03
"||||||||||||-60,6969,$GNRMC,193758,9101.3*$GNGGA,193759.000,3429.6918,N,11657.5509,W,2,17,0.62,875.5,M,-31.0,M,,*46\r\r\n"2022-03-12 19:38:03
"||||||||||||-57,6969,$GNRMC,193759.000,48593520$GNGGA,193800.000,3429.6918,N,11657.5508,W,2,17,0.62,875.5,M,-31,$10486,,,,\r$GNGGA,193801.00 \r\n"2022-03-12 19:38:05
"||||||||||||-54,6969,$ACCEL,-0.15,9.46,1.96,$ALT,774.43,-228.940,3429.6918,N,11657.5508,W,2,17,0.62,875.5,M,-31,$10486,,,,\r$GNGGA,193801.00 \r\n"2022-03-12 19:38:05
"||||||||||||-56,6969,$GNRMC,193801.000,A,34615000D$GNGGA,193802.000,3429.6918,N,11657.5508,W,2,17,0.62,875.5,M,-31.0,M,,*46\rGNGGA,193801.00 \r\n"2022-03-12 19:38:06
"||||||||||||-57,6969,$ACCEL,-0.15,9.44,2.07,$ALT,774.39,-228.93\r\n"2022-03-12 19:38:06
"||||||||||||-55,6969,$GNRMC,193802.00,.,5002,$GNGGA,193803.000,3429.6918,N,11657.5508,W,2,17,0.62,875.5,M,-31.0,M,,*47\r\r\n"2022-03-12 19:38:07
"||||||||||||-59,6969,$ACCEL,-0.15,9.41,2.23,$ALT,774.36,-228.92B\u0001\r\n"2022-03-12 19:38:07
"||||||||||||-63,6969,$GNRMC,193803.000,,915..3*$GNGGA,193804.000,3429.6918,N,11657.5507,W,2,17,0.62,875.5,M,-31.0,M,,*4F\r\r\n"2022-03-12 19:38:08
"||||||||||||-57,6969,$ACCEL,-0.16,9.07,3.00,$ALT,774.34,-228.91B\u0001\r\n"2022-03-12 19:38:09
"||||||||||||-55,6969,$GNRMC,193804.000,A,3429.6918,N,11657.5507,W,$GNGGA,193805.000,3429.6917,N,11657.5508,W,2,17,0.62,875.5,M,-31.0,M,,*4E \r\n"2022-03-12 19:38:09
"||||||||||||-57,6969,$ACCEL,-0.16,9.24,3.13,$ALT,774.43,-228.94\r\n"2022-03-12 19:38:10
"||||||||||||-57,6969,$GNRMC,193805.000,A,3429.6917$GNGGA,193806.000,3429.6917,N,11657.5508,W,2,17,0.62,875.5,M,-31.0,M,,*4D\r@B\u000f\r\n"2022-03-12 19:38:10
"||||||||||||-56,6969,$ACCEL,-0.17,9.19,3.10,$ALT,774.39,-228.93.000,3429.6917,N,11657.5508,W,2,17,0.62,875.5,M,-31.0,M,,*4D\r@B\u000f\r\n"2022-03-12 19:38:11
"||||||||||||-56,6969,$GNRMC,193806.000,A,3429$GNGGA,193807.000,3429.6917,N,11657.5508,W,2,17,0.62,875.6,M,-31.0,M,,*4F\r\r\n"2022-03-12 19:38:11
"||||||||||||-61,6969,$ACCEL,-0.18,9.19,3.10,$ALT,774.41,-228.943429.6917,N,11657.5508,W,2,17,0.62,875.6,M,-31.0,M,,*4F\r\r\n"2022-03-12 19:38:12
"||||||||||||-58,6969,$GNRMC,193807.000,A,3429.6$GNGGA,193808.000,3429.6917,N,11657.5508,W,2,17,0.62,875.6,M,-31.0,M,,*40\r\r\n"2022-03-12 19:38:12
"||||||||||||-58,6969,$ACCEL,-0.18,9.19,3.10,$ALT,774.38,-228.940,3429.6917,N,11657.5508,W,2,17,0.62,875.6,M,-31.0,M,,*40\r\r\n"2022-03-12 19:38:13
"||||||||||||-58,6969,$GNRMC,193808.000,A,3429.691,5,,,,\r$GNGGA,193809.000,3429.6919,N,11657.5510,W,2,16,0.63,875.5,M,-31.0,M,,*45\r\r\n"2022-03-12 19:38:13
"||||||||||||-56,6969,$ACCEL,-0.18,9.20,3.12,$ALT,774.36,-228.93193809.000,3429.6919,N,11657.5510,W,2,16,0.63,875.5,M,-31.0,M,,*45\r\r\n"2022-03-12 19:38:14
"||||||||||||-57,6969,$GNRMC,193809.000,A,3429501521$GNGGA,193810.000,3429.6920,N,11657.5511,W,2,17,0.62,875.5,M,-31.0,M,,*46\r\r\n"2022-03-12 19:38:14
"||||||||||||-54,6969,$ACCEL,-0.18,9.19,3.11,$ALT,774.41,-228.950.000,3429.6920,N,11657.5511,W,2,17,0.62,875.5,M,-31.0,M,,*46\r\r\n"2022-03-12 19:38:15
"||||||||||||-55,6969,$GNRC0,615..0D$GNGGA,193811.000,3429.6922,N,11657.5512,W,2,17,0.62,875.5,M,-31.0,M,,*46\r,M,-31.0,M,,*46\r\r\n"2022-03-12 19:38:15
"||||||||||||-54,6969,$ACCEL,-0.16,9.20,3.13,$ALT,774.41,-228.94B\u0001\r\n"2022-03-12 19:38:16
"||||||||||||-56,6969,$GNRMC,193811.009,7W11,\r$GNGGA,193812.000,3429.6923,N,11657.5513,W,2,17,0.62,875.5,M,-31.0,M,,*45\r\r\n"2022-03-12 19:38:16
"||||||||||||-53,6969,$ACCEL,-0.13,8.94,3.20,$ALT,774.43,-228.943429.6923,N,11657.5513,W,2,17,0.62,875.5,M,-31.0,M,,*45\r\r\n"2022-03-12 19:38:17
"||||||||||||-54,6969,$GNRMC,193812.00,615..3*$GNGGA,193813.000,3429.6925,N,11657.5513,W,2,17,0.62,875.5,M,-31.0,M,,*42\r\r\n"2022-03-12 19:38:17
"||||||||||||-66,6969,$ACCEL,-0.14,9.14,3.33,$ALT,774.42,-228.96B\u0001\r\n"2022-03-12 19:38:18
"||||||||||||-60,6969,$GNRMC,193813.042632526$GNGGA,193814.000,3429.6926,N,11657.5514,W,2,17,0.62,875.4,M,-31.0,M,,*40\r\r\n"2022-03-12 19:38:18
"||||||||||||-67,6969,$ACCEL,0.62,7.70,4.62,$ALT,774.65,-229.02\r\n"2022-03-12 19:38:19
"||||||||||||-65,6969,$GNRMC,193814.0465,852D$GNGGA,193815.000,3429.6928,N,11657.5515,W,2,17,0.62,875.4,M,-31.0,M,,*4E\r\r\n"2022-03-12 19:38:19
"||||||||||||-69,6969,$ACCEL,4.84,4.13,8.02,$ALT,774.56,-229.003429.6928,N,11657.5515,W,2,17,0.62,875.4,M,-31.0,M,,*4E\r\r\n"2022-03-12 19:38:20
"||||||||||||-67,6969,$GNRMC,193815.000,A.,5052,$GNGGA,193816.000,3429.6928,N,11657.5516,W,2,17,0.62,875.4,M,-31.0,M,,*4E\r\r\n"2022-03-12 19:38:20
"||||||||||||-70,6969,$ACCEL,5.16,3.56,7.94,$ALT,774.46,-228.97\r\n"2022-03-12 19:38:21
"||||||||||||-71,6969,$GNRMC,193816.000485,,,2E$GNGGA,193817.000,3429.6929,N,11657.5517,W,2,17,0.62,875.4,M,-31.0,M,,*4F\r`\r\n"2022-03-12 19:38:21
"||||||||||||-70,6969,$ACCEL,4.61,3.40,8.16,$ALT,774.54,-228.99\r\n"2022-03-12 19:38:22
"||||||||||||-61,6969,$GNRMC,193817.00A615000D$GNGGA,193818.000,3429.6930,N,11657.5518,W,2,17,0.62,875.4,M,-31.0,M,,*47\r\r\n"2022-03-12 19:38:22
"||||||||||||-63,6969,$ACCEL,4.52,5.01,7.53,$ALT,774.60,-229.01,3429.6930,N,11657.5518,W,2,17,0.62,875.4,M,-31.0,M,,*47\r\r\n"2022-03-12 19:38:23
"||||||||||||-61,6969,$GNRMC,193818.000A615.00D$GNGGA,193819.000,3429.6931,N,11657.5518,W,2,17,0.62,875.4,M,-31.0,M,,*47\r,\u0001\r\n"2022-03-12 19:38:23
"||||||||||||-58,6969,$ACCEL,3.85,6.74,6.54,$ALT,774.58,-229.000,3429.6931,N,11657.5518,W,2,17,0.62,875.4,M,-31.0,M,,*47\r,\u0001\r\n"2022-03-12 19:38:24
"||||||||||||-58,6969,$GNRMC,193819.00033610326$GNGGA,193820.000,3429.6932,N,11657.5518,W,2,17,0.62,875.4,M,-31.0,M,,*4E\r`\r\n"2022-03-12 19:38:24
"||||||||||||-59,6969,$ACCEL,2.93,7.38,5.33,$ALT,774.55,-228.990,3429.6932,N,11657.5518,W,2,17,0.62,875.4,M,-31.0,M,,*4E\r`\r\n"2022-03-12 19:38:25
"||||||||||||-58,6969,$GNRMC,193820.00033684326$GNGGA,193821.000,3429.6935,N,11657.5518,W,2,17,0.62,875.4,M,-31.0,M,,*48\r`\r\n"2022-03-12 19:38:25
"||||||||||||-60,6969,$ACCEL,2.76,8.71,2.89,$ALT,774.57,-229.010,3429.6935,N,11657.5518,W,2,17,0.62,875.4,M,-31.0,M,,*48\r`\r\n"2022-03-12 19:38:26
"||||||||||||-64,6969,$GNRMC,193821.000,45588526$GNGGA,193822.000,3429.6936,N,11657.5519,W,2,17,0.62,875.4,M,-31.0,M,,*49\r\r\n"2022-03-12 19:38:26
"||||||||||||-61,6969,$ACCEL,2.60,9.33,-0.05,$ALT,774.54,-229.000,3429.6936,N,11657.5519,W,2,17,0.62,875.4,M,-31.0,M,,*49\r\r\n"2022-03-12 19:38:27
"||||||||||||-60,6969,$GNRMC,193822.00,911332*$GNGGA,193823.000,3429.6937,N,11657.5519,W,2,17,0.62,875.5,M,-31.0,M,,*48\r9\r\r\n"2022-03-12 19:38:27
"||||||||||||-53,6969,$ACCEL,2.54,8.81,-1.71,$ALT,774.54,-229.013429.6937,N,11657.5519,W,2,17,0.62,875.5,M,-31.0,M,,*48\r9\r\r\n"2022-03-12 19:38:28
"||||||||||||-53,6969,$GNRMC,193823.000A615000D$GNGGA,193824.000,3429.6939,N,11657.5519,W,2,17,0.62,875.5,M,-31.0,M,,*41\r\r\r\n"2022-03-12 19:38:28
"||||||||||||-60,6969,$ACCEL,2.94,7.11,-5.55,$ALT,774.57,-229.01B\u0001\r\n"2022-03-12 19:38:29
"||||||||||||-59,6969,$GNRMC,193824.000,2,7W1,,\r$GNGGA,193825.000,3429.6939,N,11657.5520,W,2,17,0.62,875.4,M,-31.0,M,,*4B\r\r\n"2022-03-12 19:38:29
"||||||||||||-60,6969,$ACCEL,2.84,7.66,-4.60,$ALT,774.62,-229.02\r\n"2022-03-12 19:38:30
"||||||||||||-59,6969,$GNRMC,193825.000A615000D$GNGGA,193826.000,3429.6940,N,11657.5521,W,2,17,0.62,875.4,M,-31.0,M,,*47\r,\u0001\r\n"2022-03-12 19:38:30
"||||||||||||-63,6969,$ACCEL,3.39,8.16,-4.32,$ALT,774.53,-229.00B\u0001\r\n"2022-03-12 19:38:31
"||||||||||||-65,6969,$GNRMC,193826.00,.,.,52,$GNGGA,193827.000,3429.6941,N,11657.5521,W,2,17,0.62,875.4,M,-31.0,M,,*47\r\r\n"2022-03-12 19:38:31
"||||||||||||-58,6969,$ACCEL,0.20,6.75,-6.04,$ALT,774.47,-229.003429.6941,N,11657.5521,W,2,17,0.62,875.4,M,-31.0,M,,*47\r\r\n"2022-03-12 19:38:32
"||||||||||||-59,6969,$GNRMC,193827.000415,,526$GNGGA,193828.000,3429.6944,N,11657.5523,W,2,17,0.62,875.4,M,-31.0,M,,*4F\r`\r\n"2022-03-12 19:38:32
"||||||||||||-63,6969,$ACCEL,1.70,6.26,-7.15,$ALT,774.47,-228.99\r\n"2022-03-12 19:38:33
"||||||||||||-65,6969,$GNRMC,193828.000445,,52E$GNGGA,193829.000,3429.6945,N,11657.5523,W,2,17,0.62,875.4,M,-31.0,M,,*4F\r,\u0001\r\n"2022-03-12 19:38:33
"||||||||||||-64,6969,$ACCEL,1.70,6.26,-7.15,$ALT,774.44,-228.97,3429.6945,N,11657.5523,W,2,17,0.62,875.4,M,-31.0,M,,*4F\r,\u0001\r\n"2022-03-12 19:38:33
"||||||||||||-61,6969,$GNRMC,193829.,.N.,52,,$ALT,774.44,-228.97,3429.6945,N,11657.5523,W,2,17,0.62,875.4,M,-31.0,M,,*4F\r,\u0001\r\n"2022-03-12 19:38:33
"||||||||||||-59,6969,$ACCEL,-1.41,5.46,-7.93,$ALT,774.40,-228.98\u0005R\r\n"2022-03-12 19:38:34
"||||||||||||-58,6969,$GNGGA,193830.000,3429.6947,N,11657.5524,W,2,17,0.62,875.3,M,-31.0,M,,*45\r\r\n"2022-03-12 19:38:34
"||||||||||||-58,6969,$ACCEL,-1.41,5.46,-7.93,$ALT,774.41,-228.98\u0005R\r\n"2022-03-12 19:38:34
"||||||||||||-57,6969,$GNRMC,193830.0009N7W11,$ALT,774.41,-228.98\u0005R\r\n"2022-03-12 19:38:34
"||||||||||||-58,6969,$ACCEL,-3.41,3.51,-8.27,$ALT,774.43,-228.99\u0005R\r\n"2022-03-12 19:38:35
"||||||||||||-58,6969,$GNGGA,193831.000,3429.6949,N,11657.5525,W,2,17,0.62,875.3,M,-31.0,M,,*4B\r\r\n"2022-03-12 19:38:35
"||||||||||||-58,6969,$ACCEL,-2.88,2.65,-9.19,$ALT,774.43,-228.992,17,0.62,875.3,M,-31.0,M,,*4B\r\r\n"2022-03-12 19:38:36
"||||||||||||-56,6969,$GNRMC,193831.000,912033*$GNGGA,193832.000,3429.6950,N,11657.5525,W,2,17,0.62,875.2,M,-31.0,M,,*41\r`\r\n"2022-03-12 19:38:36
"||||||||||||-58,6969,$ACCEL,-2.61,1.73,-9.09,$ALT,774.50,-229.00\u0001\r\n"2022-03-12 19:38:37
"||||||||||||-54,6969,$GNRMC,193832.00A615..0D$GNGGA,193833.000,3429.6951,N,11657.5526,W,2,17,0.62,875.2,M,-1*G902,7,,1,\r\n"2022-03-12 19:38:37
"||||||||||||-56,6969,$ACCEL,-3.78,6.19,-4.95,$ALT,774.45,-229.00\u0005R\r\n"2022-03-12 19:38:38
"||||||||||||-58,6969,$ACCEL,-3.78,6.19,-4.95,$ALT,774.48,-229.00\u0001\r\n"2022-03-12 19:38:38
"||||||||||||-58,6969,,51,EL,-3.78,6.19,-4.95,$ALT,774.48,-229.00\u0001\r\n"2022-03-12 19:38:38
"||||||||||||-59,6969,$ACCEL,-4.56,6.30,-5.45,$ALT,774.48,-229.01\u0005R\r\n"2022-03-12 19:38:39
"||||||||||||-56,6969,$GNRMC,193835.000,A,3.,5000,$GNGGA,193836.000,3429.6955,N,11657.5526,W,2,17,0.62,875.1,M,-31.0,M,,*40\r @B\u000f\r\n"2022-03-12 19:38:40
"||||||||||||-60,6969,$ACCEL,-2.67,6.33,-6.12,$ALT,774.54,-229.0200,3429.6955,N,11657.5526,W,2,17,0.62,875.1,M,-31.0,M,,*40\r @B\u000f\r\n"2022-03-12 19:38:41
"||||||||||||-60,6969,$GNRMC,193836.0,915..3*$GNGGA,193837.000,3429.6956,N,11657.5528,W,2,17,0.62,875.1,M,-31.0,M,,*4C\r,*40\r @B\u000f\r\n"2022-03-12 19:38:41
"||||||||||||-58,6969,$ACCEL,-2.88,6.37,-5.95,$ALT,774.56,-229.0229.6956,N,11657.5528,W,2,17,0.62,875.1,M,-31.0,M,,*4C\r,*40\r @B\u000f\r\n"2022-03-12 19:38:42
"||||||||||||-56,6969,$GNRMC,193837.000,A2,5,,,,\r$GNGGA,193838.000,3429.6956,N,11657.5528,W,2,17,0.62,875.1,M,-31.0,M,,*3M3,.,5002,$GNGGA,19 \r\n"2022-03-12 19:38:42
"||||||||||||-57,6969,$ACCEL,-2.71,6.14,-6.76,$ALT,774.55,-229.020,3429.6956,N,11657.5528,W,2,17,0.62,875.1,M,-31.0,M,,*3M3,.,5002,$GNGGA,19 \r\n"2022-03-12 19:38:43
"||||||||||||-57,6969,$GNRMC,193839.000,A,34.,5002,$GNGGA,193840.000,3429.6956,N,11657.5529,W,2,17,0.62,875.1,M,-31.0,M,,*4D\r@B\u000f\r\n"2022-03-12 19:38:43
"||||||||||||-55,6969,$ACCEL,-1.82,6.23,-6.84,$ALT,774.54,-229.03\u0005R\r\n"2022-03-12 19:38:44
"||||||||||||-57,6969,$GNRMC,193840.00,.,5,52,$GNGGA,193841.000,3429.6956,N,11657.5529,W,2,17,0.63,875.1,M,-31.0,M,,*4D\r\r\n"2022-03-12 19:38:44
"||||||||||||-54,6969,$ACCEL,-1.27,6.51,-6.72,$ALT,774.61,-229.05429.6956,N,11657.5529,W,2,17,0.63,875.1,M,-31.0,M,,*4D\r\r\n"2022-03-12 19:38:45
"||||||||||||-53,6969,$GNRMC,193841.000465,,529$GNGGA,193842.000,3429.6956,N,11657.5529,W,2,17,0.62,875.0,M,-31.0,M,,*4E\r,\u0001\r\n"2022-03-12 19:38:45
"||||||||||||-53,6969,$ACCEL,1.95,3.55,-7.97,$ALT,774.78,-229.10B\u0001\r\n"2022-03-12 19:38:46
"||||||||||||-52,6969,$GNRMC,193842.000,A,3429.6956,N,11657.5529,W,0$GNGGA,193843.000,3429.6956,N,11657.5528,W,2,17,0.63,875.0,M,-31.0,M,,*4\r\n"2022-03-12 19:38:47
"||||||||||||-52,6969,$ACCEL,0.39,5.36,-7.55,$ALT,774.79,-229.10,W,0$GNGGA,193843.000,3429.6956,N,11657.5528,W,2,17,0.63,875.0,M,-31.0,M,,*4\r\n"2022-03-12 19:38:47
"||||||||||||-52,6969,$GNRMC,193843.000,A,3429.6956$GNGGA,193844.000,3429.6956,N,11657.5528,W,2,17,0.63,875.0,M,-31.0,M,,*48\r@B\u000f\r\n"2022-03-12 19:38:48
"||||||||||||-54,6969,$ACCEL,1.63,8.80,-3.24,$ALT,774.77,-229.09B\u0001\r\n"2022-03-12 19:38:48
"||||||||||||-54,6969,$GNRMC,193844.000,A,3429$GNGGA,193845.000,3429.6955,N,11657.5529,W,2,17,0.62,875.0,M,-31.0,M,,*4A\r\r\n"2022-03-12 19:38:49
"||||||||||||-56,6969,$ACCEL,1.53,9.16,-2.30,$ALT,774.72,-229.08\r\n"2022-03-12 19:38:49
"||||||||||||-55,6969,$GNRMC,193845.000,A,3429.$GNGGA,193846.000,3429.6955,N,11657.5529,W,2,17,0.62,875.0,M,-31.0,M,,*49\r`\r\n"2022-03-12 19:38:50
"||||||||||||-55,6969,$ACCEL,2.01,9.17,-1.74,$ALT,774.71,-229.08,3429.6955,N,11657.5529,W,2,17,0.62,875.0,M,-31.0,M,,*49\r`\r\n"2022-03-12 19:38:50
"||||||||||||-56,6969,$GNRMC,193846.000,A,3429.6955,7W11,\r$GNGGA,193847.000,3429.6955,N,11657.5530,W,2,17,0.62,874.9,M,-31.0,M,,*48\r\r\n"2022-03-12 19:38:51
"||||||||||||-63,6969,$ACCEL,-1.86,9.04,-2.46,$ALT,774.57,-229.04193847.000,3429.6955,N,11657.5530,W,2,17,0.62,874.9,M,-31.0,M,,*48\r\r\n"2022-03-12 19:38:51
"||||||||||||-59,6969,$GNRMC,1934A615.00D$GNGGA,193848.000,3429.6955,N,11657.5530,W,2,17,0.63,874.9,M,-31.0,M,,*46\r\r\n"2022-03-12 19:38:52
"||||||||||||-53,6969,$ACCEL,-3.32,8.44,-2.43,$ALT,774.59,-229.04955,N,11657.5530,W,2,17,0.63,874.9,M,-31.0,M,,*46\r\r\n"2022-03-12 19:38:52
"||||||||||||-54,6969,$GNRMC,193848.0002,7,,,,\r$GNGGA,193849.000,3429.6956,N,11657.5532,W,2,17,0.63,874.9,M,-31.0,M,,*46\r,\u0001\r\n"2022-03-12 19:38:53
"||||||||||||-54,6969,$ACCEL,-2.48,8.26,-3.80,$ALT,774.60,-229.063429.6956,N,11657.5532,W,2,17,0.63,874.9,M,-31.0,M,,*46\r,\u0001\r\n"2022-03-12 19:38:53
"||||||||||||-59,6969,$GNRMC,193849.00,615..3*$GNGGA,193850.000,3429.6957,N,11657.5535,W,2,17,0.62,874.8,M,-31.0,M,,*48\r\r\n"2022-03-12 19:38:54
"||||||||||||-54,6969,$ACCEL,0.73,5.87,-6.70,$ALT,774.70,-229.083429.6957,N,11657.5535,W,2,17,0.62,874.8,M,-31.0,M,,*48\r\r\n"2022-03-12 19:38:54
"||||||||||||-54,6969,$GNRMC,193850.00,913853*$GNGGA,193851.000,3429.6959,N,11657.5535,W,2,17,0.63,874.7,M,-31.0,M,,*49\r\r\n"2022-03-12 19:38:55
"||||||||||||-54,6969,$ACCEL,0.73,5.87,-6.70,$ALT,774.78,-229.093429.6959,N,11657.5535,W,2,17,0.63,874.7,M,-31.0,M,,*49\r\r\n"2022-03-12 19:38:55
"||||||||||||-54,6969,$GNRMC,19385109N.,71,0,$ALT,774.78,-229.093429.6959,N,11657.5535,W,2,17,0.63,874.7,M,-31.0,M,,*49\r\r\n"2022-03-12 19:38:55
"||||||||||||-59,6969,$ACCEL,1.30,4.78,-7.46,$ALT,774.77,-229.093429.6959,N,11657.5535,W,2,17,0.63,874.7,M,-31.0,M,,*49\r\r\n"2022-03-12 19:38:56
"||||||||||||-60,6969,$GNGGA,193852.000,3429.6961,N,11657.5535,W,2,17,0.63,874.7,M,-31.0,M,,*41\r63,874.7,M,-31.0,M,,*49\r\r\n"2022-03-12 19:38:56
"||||||||||||-56,6969,$ACCEL,1.21,6.62,-6.88,$ALT,774.68,-229.07,2,17,0.63,874.7,M,-31.0,M,,*41\r63,874.7,M,-31.0,M,,*49\r\r\n"2022-03-12 19:38:56
"||||||||||||-58,6969,$GNRMC,193852.000,215,,,,2$GNGGA,193853.000,3429.6961,N,11657.5533,W,2,17,0.62,874.7,M,-31.0,M,,*47\r\r\n"2022-03-12 19:38:57
"||||||||||||-59,6969,$ACCEL,-0.28,4.87,-8.15,$ALT,774.67,-229.06,3429.6961,N,11657.5533,W,2,17,0.62,874.7,M,-31.0,M,,*47\r\r\n"2022-03-12 19:38:57
"||||||||||||-58,6969,$GNRMC,193853.00A615.20D$GNGGA,193854.000,3429.6962,N,11657.5535,W,2,17,0.63,874.7,M,-31.0,M,,*44\r7\r\r\n"2022-03-12 19:38:58
"||||||||||||-64,6969,$ACCEL,0.74,6.93,-6.46,$ALT,774.73,-229.083429.6962,N,11657.5535,W,2,17,0.63,874.7,M,-31.0,M,,*44\r7\r\r\n"2022-03-12 19:38:58
"||||||||||||-56,6969,$GNRMC,193854.00046655026$GNGGA,193855.000,3429.6961,N,11657.5535,W,2,17,0.63,874.7,M,-.4R8,.N.,72,\r\r\n"2022-03-12 19:38:59
"||||||||||||-56,6969,$ACCEL,0.74,6.93,-6.46,$ALT,774.76,-229.10,3429.6961,N,11657.5535,W,2,17,0.63,874.7,M,-.4R8,.N.,72,\r\r\n"2022-03-12 19:38:59
"||||||||||||-56,6969,$GNGGA,193856.000,3429.6963,N,11657.5535,W,2,17,0.63,874.7,M,-31.0,M,,*47\r.63,874.7,M,-.4R8,.N.,72,\r\r\n"2022-03-12 19:38:59
"||||||||||||-54,6969,$ACCEL,2.19,8.56,2.47,$ALT,774.82,-229.11W,2,17,0.63,874.7,M,-31.0,M,,*47\r.63,874.7,M,-.4R8,.N.,72,\r\r\n"2022-03-12 19:39:00
"||||||||||||-54,6969,$GNRMC,193856.000,A,39N.,72,74.82,-229.11W,2,17,0.63,874.7,M,-31.0,M,,*47\r.63,874.7,M,-.4R8,.N.,72,\r\r\n"2022-03-12 19:39:00
"||||||||||||-52,6969,$ACCEL,2.19,8.56,2.47,$ALT,774.98,-229.15W,2,17,0.63,874.7,M,-31.0,M,,*47\r.63,874.7,M,-.4R8,.N.,72,\r\r\n"2022-03-12 19:39:00
"||||||||||||-60,6969,$GNRMC,193857.009,7W21,\r$GNGGA,193858.000,3429.6960,N,11657.5534,W,2,17,0.63,874.7,M,-31.0,M,,*4B\r\r\n"2022-03-12 19:39:02
"||||||||||||-53,6969,$ACCEL,3.39,-5.26,6.79,$ALT,774.86,-229.12\r\n"2022-03-12 19:39:02
"||||||||||||-53,6969,$GNRMC,193858.0009N.,21,ALT,774.86,-229.12\r\n"2022-03-12 19:39:02
"||||||||||||-53,6969,$ACCEL,3.39,-5.26,6.79,$ALT,774.79,-229.12\r\n"2022-03-12 19:39:03
"||||||||||||-54,6969,$GNGGA,193859.000,3429.6959,N,11657.5532,W,2,17,0.62,874.6,M,-31.0,M,,*46\r\r\n"2022-03-12 19:39:03
"||||||||||||-60,6969,$ACCEL,2.21,7.88,-4.67,$ALT,774.77,-229.09,2,17,0.62,874.6,M,-31.0,M,,*46\r\r\n"2022-03-12 19:39:04
"||||||||||||-57,6969,$GNRMC,193859.0049624027$GNGGA,193900.000,3429.6960,N,11657.5533,W,2,17,0.63,874.6,M,-31.0,\rC0A615..3D$GNGGA,193901.00\r\n"2022-03-12 19:39:04
"||||||||||||-67,6969,$ACCEL,2.40,8.07,-4.58,$ALT,774.71,-229.09\r\n"2022-03-12 19:39:06
"||||||||||||-63,6969,$GNRMC,193901.000,A,342925,,,26$GNGGA,193902.000,3429.6962,N,11657.5533,W,2,17,0.63,874.5,M,-31.036634526$GNGGA,193903\r\n"2022-03-12 19:39:06
"||||||||||||-56,6969,$ACCEL,2.56,8.08,-4.38,$ALT,774.73,-229.09B\u0001\r\n"2022-03-12 19:39:07
"||||||||||||-52,6969,$GNRMC,193903.000,A,346131526$GNGGA,193904.000,3429.6962,N,11657.5531,W,2,17,0.63,874.4,M,-31.0,M,,*47\r@B\u000f\r\n"2022-03-12 19:39:07
"||||||||||||-61,6969,$ACCEL,2.69,8.83,-2.80,$ALT,774.66,-229.07.000,3429.6962,N,11657.5531,W,2,17,0.63,874.4,M,-31.0,M,,*47\r@B\u000f\r\n"2022-03-12 19:39:08
"||||||||||||-58,6969,$GNRMC,193904.000,A,3429.6962,N,11657.5531,W,0.18,272.50,120322,,$GNGGA,193905.000,3429.6961,N,11657.5533,W,2,17,0.63, \r\n"2022-03-12 19:39:08
"||||||||||||-67,6969,$ACCEL,3.67,8.91,0.48,$ALT,774.71,-229.09\r\n"2022-03-12 19:39:09
"||||||||||||-56,6969,$GNRMC,19390.36633526$GNGGA,193906.000,3429.6961,N,11657.5533,W,2,17,0.63,874.4,M,-31.0,M,,*44\r\r\n"2022-03-12 19:39:09
"||||||||||||-54,6969,$ACCEL,5.13,8.30,0.06,$ALT,774.64,-229.07\r\n"2022-03-12 19:39:10
"||||||||||||-52,6969,$GNRMC,1930A6,5020D$GNGGA,193907.000,3429.6962,N,11657.5533,W,2,17,0.63,874.5,M,-31.0,M,,*47\r\r\n"2022-03-12 19:39:10
"||||||||||||-53,6969,$ACCEL,3.80,8.94,-1.32,$ALT,774.67,-229.08B\u0001\r\n"2022-03-12 19:39:10
"||||||||||||-53,6969,$GNRMC,193907.000,A7W21,\u0018\r\n"2022-03-12 19:39:10
"||||||||||||-56,6969,$ACCEL,3.80,8.94,-1.32,$ALT,774.68,-229.08\r\n"2022-03-12 19:39:11
"||||||||||||-56,6969,$GNGGA,193908.000,3429.6962,N,11657.5532,W,2,17,0.63,874.5,M,-31.0,M,,*49\r\r\n"2022-03-12 19:39:11
"||||||||||||-60,6969,$ACCEL,1.74,9.39,-0.79,$ALT,774.78,-229.12B\u0001\r\n"2022-03-12 19:39:12
"||||||||||||-61,6969,$GNRMC,193908.000,A,3429.6962,N,11657.5532,W,0.20,272.50,12$GNGGA,193909.000,3429.6963,N,11657.5532,W,2,17,0.63,874.6, \r\n"2022-03-12 19:39:13
"||||||||||||-56,6969,$ACCEL,1.47,7.17,-4.03,$ALT,774.69,-229.09\r\n"2022-03-12 19:39:13
"||||||||||||-56,6969,$GNRMC,193909.000,A,2$GNGGA,193910.000,3429.6963,N,11657.5531,W,2,17,0.63,874.6,M,-31.0,M,,*41\r\r\n"2022-03-12 19:39:13
"||||||||||||-55,6969,$ACCEL,-1.79,3.86,-9.10,$ALT,774.61,-229.07.6963,N,11657.5531,W,2,17,0.63,874.6,M,-31.0,M,,*41\r\r\n"2022-03-12 19:39:14
"||||||||||||-55,6969,$GNRMC,193910.000,A$GNGGA,193911.000,3429.6962,N,11657.5530,W,2,17,0.63,874.6,M,-31.0,M,,*40\r1\r\r\n"2022-03-12 19:39:14
"||||||||||||-57,6969,$ACCEL,-2.68,4.23,-8.30,$ALT,774.64,-229.08962,N,11657.5530,W,2,17,0.63,874.6,M,-31.0,M,,*40\r1\r\r\n"2022-03-12 19:39:15
"||||||||||||-57,6969,$GNRMC1A.,5020,$GNGGA,193912.000,3429.6963,N,11657.5530,W,2,17,0.63,874.7,M,-31.0,M,,*43\r*40\r1\r\r\n"2022-03-12 19:39:15
"||||||||||||-55,6969,$ACCEL,-2.21,2.65,-9.21,$ALT,774.50,-229.05\u0005R\r\n"2022-03-12 19:39:16
"||||||||||||-57,6969,$GNRMC,193912.000,A,34.,5020,$GNGGA,193913.000,3429.6964,N,11657.5529,W,2,17,0.63,874.7,M,-31.0,M,,*4D\r\r\n"2022-03-12 19:39:16
"||||||||||||-58,6969,$ACCEL,-1.30,0.52,-9.50,$ALT,774.59,-229.07000,3429.6964,N,11657.5529,W,2,17,0.63,874.7,M,-31.0,M,,*4D\r\r\n"2022-03-12 19:39:17
"||||||||||||-56,6969,$GNRMC,193913A615..0D$GNGGA,193914.000,3429.6964,N,11657.5530,W,2,17,0.63,874.7,M,-31.0,M,,*42\r,M,,*4D\r\r\n"2022-03-12 19:39:17
"||||||||||||-61,6969,$ACCEL,-0.45,2.36,-9.19,$ALT,774.65,-229.08.6964,N,11657.5530,W,2,17,0.63,874.7,M,-31.0,M,,*42\r,M,,*4D\r\r\n"2022-03-12 19:39:18
"||||||||||||-63,6969,$GNRMC,193914.00036603526$GNGGA,193915.000,3429.6963,N,11657.5531,W,2,17,0.63,874.6,M,-31.0,M,,*44\r*4D\r\r\n"2022-03-12 19:39:18
"||||||||||||-58,6969,$ACCEL,-0.45,2.36,-9.19,$ALT,774.68,-229.083429.6963,N,11657.5531,W,2,17,0.63,874.6,M,-31.0,M,,*44\r*4D\r\r\n"2022-03-12 19:39:19
"||||||||||||-59,6969,$GNRMC,193915.000,.N.,72,ALT,774.68,-229.083429.6963,N,11657.5531,W,2,17,0.63,874.6,M,-31.0,M,,*44\r*4D\r\r\n"2022-03-12 19:39:19
"||||||||||||-58,6969,$ACCEL,-0.92,6.06,-7.51,$ALT,774.68,-229.09\u0001\r\n"2022-03-12 19:39:19
"||||||||||||-49,6969,$ACCEL,1.21,7.87,-4.17,$ALT,774.85,-229.14B\u0001\r\n"2022-03-12 19:39:20
"||||||||||||-50,6969,$GNRMC,193916.000,A2,7,,,,\r$GNGGA,193917.000,3429.6964,N,11657.5531,W,2,17,0.63,874.6,M,-31.0,M,,*41\r\r\n"2022-03-12 19:39:20
"||||||||||||-50,6969,$ACCEL,4.96,-0.41,-8.08,$ALT,774.90,-229.150,3429.6964,N,11657.5531,W,2,17,0.63,874.6,M,-31.0,M,,*41\r\r\n"2022-03-12 19:39:21
"||||||||||||-50,6969,$GNRMC,193917.0A615..0D$GNGGA,193918.000,3429.6964,N,11657.5530,W,2,17,0.63,874.6,M,-31.0,M,,*4F\r*41\r\r\n"2022-03-12 19:39:21
"||||||||||||-61,6969,$ACCEL,3.70,-3.93,-7.79,$ALT,774.81,-229.1329.6964,N,11657.5530,W,2,17,0.63,874.6,M,-31.0,M,,*4F\r*41\r\r\n"2022-03-12 19:39:22
"||||||||||||-61,6969,$GNRMC,193918.000A.,5020,$GNGGA,193919.000,3429.6965,N,11657.5531,W,2,17,0.63,874.6,M.4R9,9N.,72,*41\r\r\n"2022-03-12 19:39:22
"||||||||||||-64,6969,$ACCEL,3.70,-3.93,-7.79,$ALT,774.79,-229.123429.6965,N,11657.5531,W,2,17,0.63,874.6,M.4R9,9N.,72,*41\r\r\n"2022-03-12 19:39:23
"||||||||||||-61,6969,$GNGGA,193920.000,3429.6966,N,11657.5530,W,2,17,0.63,874.6,M,-31.0,M,,*46\r\r\n"2022-03-12 19:39:23
"||||||||||||-61,6969,$ACCEL,1.76,-7.85,-5.53,$ALT,774.74,-229.122,17,0.63,874.6,M,-31.0,M,,*46\r\r\n"2022-03-12 19:39:24
"||||||||||||-65,6969,$GNRMC,193920.000,A,3429,5,,,,\r$GNGGA,193921.000,3429.6967,N,11657.5530,W,2,17,0.63,874.6,M,-31.0,M,,*46\r\u000f\r\n"2022-03-12 19:39:24
"||||||||||||-60,6969,$ACCEL,0.08,-8.38,-5.39,$ALT,774.78,-229.131.000,3429.6967,N,11657.5530,W,2,17,0.63,874.6,M,-31.0,M,,*46\r\u000f\r\n"2022-03-12 19:39:25
"||||||||||||-60,6969,$GNRMC,193921.036632526$GNGGA,193922.000,3429.6964,N,11657.5532,W,2,17,0.63,874.6,M,-31.0,M,,*44\r\r\n"2022-03-12 19:39:25
"||||||||||||-61,6969,$ACCEL,-0.47,-8.09,-5.54,$ALT,774.76,-229.12R\r\n"2022-03-12 19:39:26
"||||||||||||-60,6969,$GNRMC,193922.000445,1020$GNGGA,193923.000,3429.6963,N,11657.5531,W,2,17,0.63,874.6,M,-31.0,M,,*41\r`\r\n"2022-03-12 19:39:26
"||||||||||||-60,6969,$ACCEL,-1.71,-6.79,-6.59,$ALT,774.74,-229.12429.6963,N,11657.5531,W,2,17,0.63,874.6,M,-31.0,M,,*41\r`\r\n"2022-03-12 19:39:27
"||||||||||||-60,6969,$GNRMC,193923.000,,915..3*$GNGGA,193924.000,3429.6962,N,11657.5531,W,2,17,0.63,874.6,M,-31.0,M,,*47\r\r\n"2022-03-12 19:39:27
"||||||||||||-67,6969,$ACCEL,-1.92,-6.54,-7.39,$ALT,774.79,-229.133429.6962,N,11657.5531,W,2,17,0.63,874.6,M,-31.0,M,,*47\r\r\n"2022-03-12 19:39:28
"||||||||||||-65,6969,$GNRMC,193924.000,A,3.,.,72,$GNGGA,193925.000,3429.6962,N,11657.5533,W,2,17,0.63,874.5,M,-31.0,M,,*47\r @B\u000f\r\n"2022-03-12 19:39:28
"||||||||||||-64,6969,$ACCEL,-1.21,-5.80,-7.43,$ALT,774.74,-229.11R\r\n"2022-03-12 19:39:29
"||||||||||||-63,6969,$GNRMC,193925.0009N.,21,,$ALT,774.74,-229.11R\r\n"2022-03-12 19:39:29
"||||||||||||-64,6969,$ACCEL,-1.21,-5.80,-7.43,$ALT,774.78,-229.13R\r\n"2022-03-12 19:39:29
"||||||||||||-63,6969,$GNGGA,193926.000,3429.6962,N,11657.5534,W,2,17,0.63,874.4,M,-31.0,M,,*42\r\r\n"2022-03-12 19:39:29
"||||||||||||-61,6969,$ACCEL,-1.31,-6.16,-8.02,$ALT,774.76,-229.12\r\n"2022-03-12 19:39:30
"||||||||||||-59,6969,$GNRMC,193926.0009N7W21,,$ALT,774.76,-2\r\n"2022-03-12 19:39:30
"||||||||||||-58,6969,$ACCEL,-1.31,-6.16,-8.02,$ALT,774.80,-229.13\r\n"2022-03-12 19:39:30
"||||||||||||-60,6969,$ACCEL,-1.09,-7.28,-6.38,$ALT,774.75,-229.13\r\n"2022-03-12 19:39:31
"||||||||||||-57,6969,$GNRMC,193927.0,.,5072,$GNGGA,193928.000,3429.6960,N,11657.5535,W,2,17,0.63,874.3,M,-31.0,M,,*48\r\r\n"2022-03-12 19:39:32
"||||||||||||-57,6969,$ACCEL,-1.70,-8.72,-4.94,$ALT,774.80,-229.14\r\n"2022-03-12 19:39:33
"||||||||||||-61,6969,$GNRMC,193928.00040559021$GNGGA,193929.000,3429.6960,N,11657.5536,W,2,17,0.63,874.3,M1*G902,7,,,,\r$GNGGA,193930.000,34 \r\n"2022-03-12 19:39:33
"||||||||||||-55,6969,$ACCEL,-1.06,-6.38,-6.84,$ALT,774.82,-229.14429.6960,N,11657.5536,W,2,17,0.63,874.3,M1*G902,7,,,,\r$GNGGA,193930.000,34 \r\n"2022-03-12 19:39:34
"||||||||||||-55,6969,$GN$GNGGA,193931.000,3429.6962,N,11657.5536,W,2,17,0.63,874.2,M,-31.0,M,,*40\r,874.3,M1*G902,7,,,,\r$GNGGA,193930.000,34 \r\n"2022-03-12 19:39:34
"||||||||||||-57,6969,$ACCEL,-1.81,2.53,-8.60,$ALT,774.81,-229.13\u0001\r\n"2022-03-12 19:39:35
"||||||||||||-58,6969,$GNRMC,193931.000,A,34299134.3*$GNGGA,193932.000,3429.6962,N,11657.5535,W,2,17,0.63,874.2,M,-31.0,M,,*40\r\u000f\r\n"2022-03-12 19:39:35
"||||||||||||-61,6969,$ACCEL,-2.09,3.22,-8.86,$ALT,774.81,-229.14\u0001\r\n"2022-03-12 19:39:36
"||||||||||||-59,6969,$GNRMC,193932.000,915..3*$GNGGA,193933.000,3429.6963,N,11657.5534,W,2,17,0.63,874.2,M,-31.0,M,,*41\r`\r\n"2022-03-12 19:39:36
"||||||||||||-66,6969,$ACCEL,-2.55,0.37,-9.05,$ALT,774.81,-229.133429.6963,N,11657.5534,W,2,17,0.63,874.2,M,-31.0,M,,*41\r`\r\n"2022-03-12 19:39:37
"||||||||||||-65,6969,$GNRMC,193933.000,A,3429.6963,N,11657.5534,W,0.39,272.50,120322,\r$GNGGA,193934.000,3429.6962,N,11657.5534,W,2,17,0.63,\r\n"2022-03-12 19:39:37
"||||||||||||-61,6969,$ACCEL,-2.48,0.37,-9.25,$ALT,774.82,-229.14W,0.39,272.50,120322,\r$GNGGA,193934.000,3429.6962,N,11657.5534,W,2,17,0.63,\r\n"2022-03-12 19:39:38
"||||||||||||-63,6969,$GN$GNGGA,193935.000,3429.6963,N,11657.5533,W,2,17,0.63,874.1,M,-31.0,M,,*43\r\r\n"2022-03-12 19:39:38
"||||||||||||-68,6969,$ACCEL,-2.36,-0.93,-9.18,$ALT,774.82,-229.13\r\n"2022-03-12 19:39:39
"||||||||||||-63,6969,$GNRMC,193935.000,A,3429.6963,N$GNGGA,193936.000,3429.6963,N,11657.5530,W,2,17,0.63,874.1,M,-31.0,M,,*43\r\u000f\r\n"2022-03-12 19:39:39
"||||||||||||-59,6969,$ACCEL,-2.16,-3.60,-8.66,$ALT,774.63,-229.08.000,3429.6963,N,11657.5530,W,2,17,0.63,874.1,M,-31.0,M,,*43\r\u000f\r\n"2022-03-12 19:39:40
"||||||||||||-67,6969,$GNRMC,193936.000,A,3429.$GNGGA,193937.000,3429.6963,N,11657.5529,W,2,17,0.63,874.1,M,-31.0,M,,*4A\r,,*43\r\u000f\r\n"2022-03-12 19:39:40
"||||||||||||-58,6969,$ACCEL,-4.22,-2.03,-8.92,$ALT,774.71,-229.10429.6963,N,11657.5529,W,2,17,0.63,874.1,M,-31.0,M,,*4A\r,,*43\r\u000f\r\n"2022-03-12 19:39:41
"||||||||||||-56,6969,$GNRMC,193937.000,A,3429.6963,N,1.,71,2\r\n"2022-03-12 19:39:42
"||||||||||||-60,6969,$ACCEL,-4.22,-2.03,-8.92,$ALT,774.78,-229.12\r\n"2022-03-12 19:39:42
"||||||||||||-64,6969,$GNRMC,1933A615020D$GNGGA,193939.000,3429.6963,N,11657.5527,W,2,17,0.63,874.0,M,-31.0,M,,*4B\r\r\n"2022-03-12 19:39:43
"||||||||||||-54,6969,$ACCEL,0.69,-0.34,-9.83,$ALT,774.81,-229.13963,N,11657.5527,W,2,17,0.63,874.0,M,-31.0,M,,*4B\r\r\n"2022-03-12 19:39:44
"||||||||||||-51,6969,$GNRMC,193939.000,A,346673526$GNGGA,193940.000,3429.6965,N,11657.5527,W,2,17,0.63,874.0,M,-31.0,M,,*43\r@B\u000f\r\n"2022-03-12 19:39:44
"||||||||||||-60,6969,$ACCEL,0.46,6.89,-6.46,$ALT,774.85,-229.14.000,3429.6965,N,11657.5527,W,2,17,0.63,874.0,M,-31.0,M,,*43\r@B\u000f\r\n"2022-03-12 19:39:46
"||||||||||||-61,6969,$GNRMC,193940.00,.,.,72,$GNGGA,193941.000,3429.6964,N,11657.5526,W,2,17,0.63,874.0M,\rC4A615.20D$GNGGA,193942.000,3429.\r\n"2022-03-12 19:39:46
"||||||||||||-55,6969,$ACCEL,0.90,8.53,3.53,$ALT,774.88,-229.16\r\n"2022-03-12 19:39:47
"||||||||||||-52,6969,$GNRMC,193942.000,A,342615.20D$GNGGA,193943.000,3429.6963,N,11657.5526,W,2,17,0.63,873.9,M,-31.0,M,,*49\r\r\n"2022-03-12 19:39:47
"||||||||||||-51,6969,$ACCEL,-0.74,7.21,2.86,$ALT,774.77,-229.13\r\n"2022-03-12 19:39:48
"||||||||||||-52,6969,$GNRMC,193943.000,36121526$GNGGA,193944.000,3429.6963,N,11657.5526,W,2,17,0.63,873.9,M,-31.0,M,,*4E\r\u0001\r\n"2022-03-12 19:39:48
"||||||||||||-55,6969,$ACCEL,-0.41,0.90,-8.37,$ALT,774.84,-229.15,3429.6963,N,11657.5526,W,2,17,0.63,873.9,M,-31.0,M,,*4E\r\u0001\r\n"2022-03-12 19:39:49
"||||||||||||-56,6969,$GNRMC,193944.0,.,5,72,$GNGGA,193945.000,3429.6964,N,11657.5526,W,2,17,0.63,873.9,M,-31.0,M,,*48\r\r\n"2022-03-12 19:39:49
"||||||||||||-56,6969,$ACCEL,-1.13,-8.33,-5.57,$ALT,774.85,-229.179.6964,N,11657.5526,W,2,17,0.63,873.9,M,-31.0,M,,*48\r\r\n"2022-03-12 19:39:50
"||||||||||||-56,6969,$GNRMC,193945.000,A,3429.6964,N,11657.5526,W,$GNGGA,193946.000,3429.6964,N,11657.5526,W,2,17,0.63,874.0,M,-31.0,M,,*45 \r\n"2022-03-12 19:39:50
"||||||||||||-67,6969,$ACCEL,-1.11,-8.21,-4.26,$ALT,774.92,-229.19\r\n"2022-03-12 19:39:51
"||||||||||||-67,6969,$GNRMC,193946.000,A,3429.6964,$GNGGA,193947.000,3429.6965,N,11657.5525,W,2,17,0.63,873.9,M,-31.0,M,,*48\rB\u000f\r\n"2022-03-12 19:39:51
"||||||||||||-64,6969,$ACCEL,0.90,-7.15,-6.26,$ALT,774.91,-229.19.000,3429.6965,N,11657.5525,W,2,17,0.63,873.9,M,-31.0,M,,*48\rB\u000f\r\n"2022-03-12 19:39:52
