"Feather LoRa RX Test!\r\n"2022-06-04 13:42:42
"LoRa radio init OK!\r\n"2022-06-04 13:42:42
"Set Freq to: 915.00\r\n"2022-06-04 13:42:42
"||||||||||||-38,6969,$ACCEL,0.79,0.35,9.95,$ALT,658.62,-194.37\r\n"2022-06-04 13:42:42
"||||||||||||-40,6969,$GNRMC,134237.00038761726$GNGGA,134238.000,3520.8185,N,11748.4968,W,1,10,0.85,642.3,M,-29.4,M,,*4A\r,\u0001\r\n"2022-06-04 13:42:42
"||||||||||||-39,6969,$ACCEL,0.78,0.36,9.96,$ALT,658.82,-194.450,3520.8185,N,11748.4968,W,1,10,0.85,642.3,M,-29.4,M,,*4A\r,\u0001\r\n"2022-06-04 13:42:44
"||||||||||||-40,6969,$GNRMC,134238.0A814000A$GNGGA,134239.000,3520.8185,N,11748.4968,W,1,10,0.85,642.3,M,-,BM3A819..0A$GNGGA,134240.000,352\r\n"2022-06-04 13:42:44
"||||||||||||-38,6969,$ACCEL,0.80,0.35,9.96,$ALT,658.71,-194.433520.8185,N,11748.4968,W,1,10,0.85,642.3,M,-,BM3A819..0A$GNGGA,134240.000,352\r\n"2022-06-04 13:42:44
"||||||||||||-41,6969,$GNRMC,134240.000,A,3520N.,04,.71,-194.433520.8185,N,11748.4968,W,1,10,0.85,642.3,M,-,BM3A819..0A$GNGGA,134240.000,352\r\n"2022-06-04 13:42:44
"||||||||||||-36,6969,$ACCEL,0.80,0.35,9.96,$ALT,658.68,-194.43\r\n"2022-06-04 13:42:45
"||||||||||||-41,6969,$ACCEL,0.79,0.36,9.95,$ALT,658.81,-194.47\r\n"2022-06-04 13:42:46
"||||||||||||-39,6969,$GNRMC,134242.0A.,4000A$GNGGA,134243.000,3520.8185,N,11748.4966,W,1,11,0.84,642.4,M,-29.4,M,,*4F\r\r\n"2022-06-04 13:42:47
"||||||||||||-38,6969,$ACCEL,0.79,0.36,9.94,$ALT,658.85,-194.503520.8185,N,11748.4966,W,1,11,0.84,642.4,M,-29.4,M,,*4F\r\r\n"2022-06-04 13:42:48
"||||||||||||-39,6969,$GNRMC,134243.000,A,3520.8185,N,11748.4966,W,$GNGGA,134244.000,3520.8186,N,11748.4966,W,1,11,0.84,642.4,M,-29.4,M,,*4B \r\n"2022-06-04 13:42:48
"||||||||||||-40,6969,$GNRMC,134249.000,A,3520.8186,N,11748.4966,W,0.09,$GNGGA,134250.000,3520.8186,N,11748.4966,W,1,11,0.83,642.4,M,-29.4,M\r\n"2022-06-04 13:42:54
"||||||||||||-40,6969,$ACCEL,0.78,0.34,9.93,$ALT,658.93,-194.53\r\n"2022-06-04 13:42:56
"||||||||||||-37,6969,$GNRMC,134250.000,A,3520.81N$GNGGA,134251.000,3520.8186,N,11748.4968,W,1,11,0.84,642.3,M,-29.4,M6M5A.,4000A$GNGGA,1342 \r\n"2022-06-04 13:42:56
"||||||||||||-40,6969,$ACCEL,0.78,0.35,9.94,$ALT,659.01,-194.56\r\n"2022-06-04 13:42:57
"||||||||||||-37,6969,$GNRMC,134252.000,A,3528780426$GNGGA,134253.000,3520.8186,N,11748.4968,W,1,11,0.84,642.3,M,-29.4,M,,*44\rB\u000f\r\n"2022-06-04 13:42:57
"||||||||||||-42,6969,$ACCEL,0.79,0.35,9.93,$ALT,658.96,-194.5553.000,3520.8186,N,11748.4968,W,1,11,0.84,642.3,M,-29.4,M,,*44\rB\u000f\r\n"2022-06-04 13:42:58
"||||||||||||-39,6969,$GNRMC,134253.00564,,,,B$GNGGA,134254.000,3520.8186,N,11748.4967,W,1,11,0.84,642.3,M,-29.4,M,,*4C\r,,*44\rB\u000f\r\n"2022-06-04 13:42:58
"||||||||||||-42,6969,$ACCEL,0.79,0.36,9.94,$ALT,659.02,-194.57,3520.8186,N,11748.4967,W,1,11,0.84,642.3,M,-29.4,M,,*4C\r,,*44\rB\u000f\r\n"2022-06-04 13:42:59
"||||||||||||-40,6969,$GNRMC,13425038777424$GNGGA,134255.000,3520.8186,N,11748.4967,W,1,12,0.79,642.3,M,-29.4,M,,*4C\r\r\n"2022-06-04 13:42:59
"||||||||||||-39,6969,$ACCEL,0.79,0.36,9.92,$ALT,658.89,-194.53\r\n"2022-06-04 13:43:00
"||||||||||||-39,6969,$GNRMC,134255.000,A,3520.8186,N,11748.4967,W,0.06$GNGGA,134256.000,3520.8186,N,11748.4967,W,1,12,0.79,642.3,M,-29.4,M, \r\n"2022-06-04 13:43:00
"||||||||||||-36,6969,$ACCEL,0.79,0.35,9.95,$ALT,658.87,-194.547,W,0.06$GNGGA,134256.000,3520.8186,N,11748.4967,W,1,12,0.79,642.3,M,-29.4,M, \r\n"2022-06-04 13:43:01
"||||||||||||-40,6969,$GNRMC,134256.000,A,3520.8186,$GNGGA,134257.000,3520.8186,N,11748.4966,W,1,12,0.79,642.4,M,-29.4,M,,*48\r2.3,M,-29.4,M, \r\n"2022-06-04 13:43:01
"||||||||||||-37,6969,$ACCEL,0.79,0.35,9.95,$ALT,658.87,-194.55\r\n"2022-06-04 13:43:02
"||||||||||||-41,6969,$GNRMC,134257.000,A,3528$GNGGA,134258.000,3520.8186,N,11748.4966,W,1,12,0.79,642.3,M,-29.4,M,,*40\r\r\n"2022-06-04 13:43:02
"||||||||||||-35,6969,$ACCEL,0.79,0.35,9.94,$ALT,658.94,-194.57,3520.8186,N,11748.4966,W,1,12,0.79,642.3,M,-29.4,M,,*40\r\r\n"2022-06-04 13:43:03
"||||||||||||-39,6969,$GNRMC,134258.000,A,3$GNGGA,134259.000,3520.8186,N,11748.4966,W,1,12,0.79,642.3,M,-29.4,M,,*41\r40\r\r\n"2022-06-04 13:43:03
"||||||||||||-41,6969,$ACCEL,0.79,0.36,9.93,$ALT,658.97,-194.5820.8186,N,11748.4966,W,1,12,0.79,642.3,M,-29.4,M,,*41\r40\r\r\n"2022-06-04 13:43:04
"||||||||||||-41,6969,$GNRMC,134259.000,A,3520.864,,,,\r$GNGGA,134300.000,3520.8186,N,11748.4965,W,1,12,0.79,642.3,M,-29.4,M,,*4F\r,\u0001\r\n"2022-06-04 13:43:04
"||||||||||||-51,6969,$ACCEL,0.79,0.36,9.93,$ALT,659.19,-194.62\r\n"2022-06-04 13:43:05
"||||||||||||-58,6969,$GNRMC,13430,0N.,04,$GNGGA,134301.000,3520.8186,N,11748.4966,W,1,12,0.79,642.4,M,-29.4,M,,*4A\r\r\n"2022-06-04 13:43:05
"||||||||||||-45,6969,$ACCEL,0.78,0.36,9.95,$ALT,659.08,-194.580.8186,N,11748.4966,W,1,12,0.79,642.4,M,-29.4,M,,*4A\r\r\n"2022-06-04 13:43:06
"||||||||||||-50,6969,$GNRMC,134301.002,8W10,\r$GNGGA,134302.000,3520.8186,N,11748.4966,W,1,12,0.79,642.3,M,-29.4,M,,*4E\r\r\n"2022-06-04 13:43:06
"||||||||||||-53,6969,$ACCEL,0.77,0.34,9.91,$ALT,659.05,-194.55,3520.8186,N,11748.4966,W,1,12,0.79,642.3,M,-29.4,M,,*4E\r\r\n"2022-06-04 13:43:06
"||||||||||||-52,6969,$GNRMC,134302.00N.,10,$ALT,659.05,-194.\r\n"2022-06-04 13:43:06
"||||||||||||-53,6969,$ACCEL,0.77,0.34,9.91,$ALT,659.08,-194.58\r\n"2022-06-04 13:43:07
"||||||||||||-49,6969,$GNRMC,134303.000,.,4,44,$GNGGA,134304.000,3520.8184,N,11748.4964,W,1,12,0.79,642.4,M,-29.4,M,,*4F\r,\u0001\r\n"2022-06-04 13:43:08
"||||||||||||-54,6969,$ACCEL,0.75,0.15,9.94,$ALT,659.02,-194.560,3520.8184,N,11748.4964,W,1,12,0.79,642.4,M,-29.4,M,,*4F\r,\u0001\r\n"2022-06-04 13:43:09
"||||||||||||-57,6969,$GNRMC,13430402,8W10,\r$GNGGA,134305.000,3520.8185,N,11748.4964,W,1,12,0.79,642.4,M,-29.4,M,,*4F\r4F\r,\u0001\r\n"2022-06-04 13:43:09
"||||||||||||-60,6969,$ACCEL,0.78,0.32,9.92,$ALT,659.26,-194.65520.8185,N,11748.4964,W,1,12,0.79,642.4,M,-29.4,M,,*4F\r4F\r,\u0001\r\n"2022-06-04 13:43:10
"||||||||||||-55,6969,$GNRMC,134305.0031161926$GNGGA,134306.000,3520.8185,N,11748.4964,W,1,12,0.79,642.4,M,-29,\r\n"2022-06-04 13:43:10
"||||||||||||-47,6969,$ACCEL,0.78,0.35,9.94,$ALT,659.27,-194.67\r\n"2022-06-04 13:43:11
"||||||||||||-49,6969,,.38744226$GNGGA,134307.000,3520.8187,N,11748.4964,W,1,12,0.79,642.4,M,-29.4,M,,*4F\r\r\n"2022-06-04 13:43:11
"||||||||||||-45,6969,$ACCEL,0.79,0.34,9.94,$ALT,659.03,-194.571748.4964,W,1,12,0.79,642.4,M,-29.4,M,,*4F\r\r\n"2022-06-04 13:43:12
"||||||||||||-51,6969,$GNRMC,134307.000,A,357448421$GNGGA,134308.000,3520.8187,N,11748.4965,W,1,12,0.79,642.4,M,-29.4,M,,*41\r@B\u000f\r\n"2022-06-04 13:43:12
"||||||||||||-50,6969,$ACCEL,0.79,0.35,9.94,$ALT,658.93,-194.558.000,3520.8187,N,11748.4965,W,1,12,0.79,642.4,M,-29.4,M,,*41\r@B\u000f\r\n"2022-06-04 13:43:13
"||||||||||||-56,6969,$GNRMC,134308.000,.,4090,$GNGGA,134309.000,3520.8188,N,11748.4964,W,1,12,0.79,642.4,M,-29.4,M,,*4E\r*41\r@B\u000f\r\n"2022-06-04 13:43:13
"||||||||||||-52,6969,$ACCEL,0.79,0.35,9.94,$ALT,658.97,-194.580,3520.8188,N,11748.4964,W,1,12,0.79,642.4,M,-29.4,M,,*4E\r*41\r@B\u000f\r\n"2022-06-04 13:43:14
"||||||||||||-53,6969,$GNRMC,134309.03874802B$GNGGA,134310.000,3520.8188,N,11748.4963,W,1,12,0.79,642.4,M,-29.4,M,,*41\rE\r*41\r@B\u000f\r\n"2022-06-04 13:43:14
"||||||||||||-49,6969,$ACCEL,0.79,0.36,9.94,$ALT,658.93,-194.57\r\n"2022-06-04 13:43:15
"||||||||||||-50,6969,$GNRMC,134310.000,A,119..6*$GNGGA,134311.000,3520.8183,N,11748.4963,W,1,12,0.79,642.4,M,-29.4,M,,*4B\r\r\n"2022-06-04 13:43:15
"||||||||||||-47,6969,$ACCEL,0.76,0.34,9.94,$ALT,659.05,-194.61\r\n"2022-06-04 13:43:16
"||||||||||||-51,6969,$GNRMC,134311.000,A534,,027$GNGGA,134312.000,3520.8181,N,11748.4962,W,1,12,0.79,642.4,M,-29.4,M,,*4B\r\r\n"2022-06-04 13:43:16
"||||||||||||-52,6969,$ACCEL,0.76,0.34,9.94,$ALT,658.92,-194.57\r\n"2022-06-04 13:43:16
"||||||||||||-52,6969,$GNRMC,134312.02,8W30,$ALT,658.92,-194.\r\n"2022-06-04 13:43:16
"||||||||||||-50,6969,$ACCEL,0.79,0.36,9.95,$ALT,659.14,-194.64\r\n"2022-06-04 13:43:17
"||||||||||||-49,6969,$GNGGA,134313.000,3520.8181,N,11748.4961,W,1,12,0.79,642.4,M,-29.4,M,,*49\r\r\n"2022-06-04 13:43:17
"||||||||||||-49,6969,$ACCEL,0.79,0.36,9.95,$ALT,659.14,-194.66\r\n"2022-06-04 13:43:18
"||||||||||||-50,6969,$GNRMC,134313.00,116382*$GNGGA,134314.000,3520.8181,N,11748.4961,W,1,12,0.79,642.4,M,-29.4,M,,*4E\r\r\n"2022-06-04 13:43:18
"||||||||||||-51,6969,$ACCEL,0.78,0.34,9.95,$ALT,658.98,-194.61,3520.8181,N,11748.4961,W,1,12,0.79,642.4,M,-29.4,M,,*4E\r\r\n"2022-06-04 13:43:19
"||||||||||||-53,6969,$GNRMC,134314.0000N.,04,$GNGGA,134315.000,3520.8180,N,11748.4960,W,1,12,0.79,642.4,M,-29.4,M,,*4F\r\r\n"2022-06-04 13:43:19
"||||||||||||-52,6969,$ACCEL,0.77,0.36,9.95,$ALT,658.84,-194.58,3520.8180,N,11748.4960,W,1,12,0.79,642.4,M,-29.4,M,,*4F\r\r\n"2022-06-04 13:43:20
"||||||||||||-49,6969,$GNRMC,134315.0038701627$GNGGA,134316.000,3520.8178,N,11748.4959,W,1,12,0.79,642.4,M,-29*N400N.W94,$GNGGA,134317.000,3 \r\n"2022-06-04 13:43:21
"||||||||||||-51,6969,$ACCEL,0.78,0.35,9.96,$ALT,658.92,-194.61\r\n"2022-06-04 13:43:21
"||||||||||||-47,6969,$GNRMC,134317.000,A,3584,3,,\r$GNGGA,134318.000,3520.8177,N,11748.4955,W,1,12,0.79,642.5,M,-29.4,M,,*4D\r\r\n"2022-06-04 13:43:22
"||||||||||||-50,6969,$ACCEL,0.79,0.36,9.95,$ALT,658.94,-194.628.000,3520.8177,N,11748.4955,W,1,12,0.79,642.5,M,-29.4,M,,*4D\r\r\n"2022-06-04 13:43:22
"||||||||||||-49,6969,$GNRMC,134318.000574,,,,\r$GNGGA,134319.000,3520.8177,N,11748.4955,W,1,12,0.79,642.6,M,-29.4,M,,*4F\r`\r\n"2022-06-04 13:43:23
"||||||||||||-50,6969,$ACCEL,0.79,0.36,9.95,$ALT,658.94,-194.630,3520.8177,N,11748.4955,W,1,12,0.79,642.6,M,-29.4,M,,*4F\r`\r\n"2022-06-04 13:43:23
"||||||||||||-49,6969,$GNRMC,134319.002,8W10,ALT,658.94,-194.630,3520.8177,N,11748.4955,W,1,12,0.79,642.6,M,-29.4,M,,*4F\r`\r\n"2022-06-04 13:43:23
"||||||||||||-49,6969,$ACCEL,0.78,0.36,9.95,$ALT,658.90,-194.63\r\n"2022-06-04 13:43:24
"||||||||||||-49,6969,$GNRMC,134320.000,A,3520.8176,N,11748.4956,W,0$GNGGA,134321.000,3520.8177,N,11748.4958,W,1,12,0.79,642.5,M,-29.4,M,,*4\r\n"2022-06-04 13:43:25
"||||||||||||-47,6969,$ACCEL,0.79,0.35,9.95,$ALT,658.99,-194.666,W,0$GNGGA,134321.000,3520.8177,N,11748.4958,W,1,12,0.79,642.5,M,-29.4,M,,*4\r\n"2022-06-04 13:43:26
"||||||||||||-50,6969,$GNRMC,134321.000,A,3520.8177$GNGGA,134322.000,3520.8177,N,11748.4958,W,1,12,0.79,642.5,M,-29.4,M,,*49\r5,M,-29.4,M,,*4\r\n"2022-06-04 13:43:26
"||||||||||||-51,6969,$ACCEL,0.80,0.36,9.96,$ALT,658.98,-194.69\r\n"2022-06-04 13:43:27
"||||||||||||-47,6969,$GNRMC,134322.000,A,3520.$GNGGA,134323.000,3520.8178,N,11748.4957,W,1,12,0.79,642.5,M,-29.4,M,,*N402,8W10,\r$GNGGA,1343 \r\n"2022-06-04 13:43:28
"||||||||||||-51,6969,$ACCEL,0.78,0.37,9.96,$ALT,658.85,-194.660,3520.8178,N,11748.4957,W,1,12,0.79,642.5,M,-29.4,M,,*N402,8W10,\r$GNGGA,1343 \r\n"2022-06-04 13:43:28
"||||||||||||-48,6969,$GNRMC,134324.000,584,,0,\r$GNGGA,134325.000,3520.8179,N,11748.4956,W,1,12,0.79,642.6,M,-29.4,M,,*4D\r,8W10,\r$GNGGA,1343 \r\n"2022-06-04 13:43:29
"||||||||||||-49,6969,$ACCEL,0.79,0.36,9.94,$ALT,658.80,-194.6600,3520.8179,N,11748.4956,W,1,12,0.79,642.6,M,-29.4,M,,*4D\r,8W10,\r$GNGGA,1343 \r\n"2022-06-04 13:43:29
"||||||||||||-48,6969,$GNRMC,134325.037759825$GNGGA,134326.000,3520.8178,N,11748.4956,W,1,12,0.79,642.6,M,-29.4,M,,*4F\r4D\r,8W10,\r$GNGGA,1343 \r\n"2022-06-04 13:43:30
"||||||||||||-50,6969,$ACCEL,0.79,0.37,9.96,$ALT,658.88,-194.68\r\n"2022-06-04 13:43:30
"||||||||||||-45,6969,$GNRMC,134326.0,.,40.6*$GNGGA,134327.000,3520.8179,N,11748.4955,W,1,12,0.79,642.6,M,-29.4,M,,*4C\r\r\n"2022-06-04 13:43:31
"||||||||||||-45,6969,$ACCEL,0.79,0.35,9.94,$ALT,658.96,-194.733520.8179,N,11748.4955,W,1,12,0.79,642.6,M,-29.4,M,,*4C\r\r\n"2022-06-04 13:43:32
"||||||||||||-49,6969,$GNRMC,134327.000,A,3520.8179,N,11748.4955,W,0.50,86$GNGGA,134328.000,3520.8181,N,11748.4955,W,1,12,0.79,642.6,M,-29.4\r\n"2022-06-04 13:43:32
"||||||||||||-48,6969,$ACCEL,0.78,0.36,9.95,$ALT,658.95,-194.74\r\n"2022-06-04 13:43:33
"||||||||||||-51,6969,$GNRMC,134328.000,A,3520.8$GNGGA,134329.000,3520.8181,N,11748.4957,W,1,12,0.79,642.7,M,-29.4,M,,*46\r\u0001\r\n"2022-06-04 13:43:33
"||||||||||||-48,6969,$ACCEL,0.79,0.35,9.96,$ALT,659.05,-194.78\r\n"2022-06-04 13:43:34
"||||||||||||-50,6969,$GNRMC,134329.000,A,352$GNGGA,134330.000,3520.8181,N,11748.4959,W,1,12,0.79,642.7,M,-29.4,M,,*40\r\r\n"2022-06-04 13:43:34
"||||||||||||-47,6969,$ACCEL,0.79,0.36,9.96,$ALT,658.95,-194.75\r\n"2022-06-04 13:43:35
"||||||||||||-50,6969,$GNRMC,134330.000,A,352$GNGGA,134331.000,3520.8180,N,11748.4961,W,1,12,0.79,642.7,M,-29.4,M,,*4B\r\r\n"2022-06-04 13:43:35
"||||||||||||-48,6969,$ACCEL,0.79,0.36,9.96,$ALT,658.90,-194.753520.8180,N,11748.4961,W,1,12,0.79,642.7,M,-29.4,M,,*4B\r\r\n"2022-06-04 13:43:36
"||||||||||||-49,6969,$GNRMC,134331.000,A,3520.8104,,0,\r$GNGGA,134332.000,3520.8180,N,11748.4961,W,1,12,0.79,642.7,M,-29.4,M,,*48\r\r\n"2022-06-04 13:43:36
"||||||||||||-47,6969,$ACCEL,0.78,0.36,9.95,$ALT,658.76,-194.69134332.000,3520.8180,N,11748.4961,W,1,12,0.79,642.7,M,-29.4,M,,*48\r\r\n"2022-06-04 13:43:37
"||||||||||||-48,6969,$GNRMC,1342A819.425$GNGGA,134333.000,3520.8179,N,11748.4961,W,1,12,0.79,642.7,M,-29.4,M,,*4F\rM,-29.4,M,,*48\r\r\n"2022-06-04 13:43:37
"||||||||||||-49,6969,$ACCEL,0.79,0.36,9.96,$ALT,658.76,-194.68.8179,N,11748.4961,W,1,12,0.79,642.7,M,-29.4,M,,*4F\rM,-29.4,M,,*48\r\r\n"2022-06-04 13:43:37
"||||||||||||-60,6969,$ACCEL,0.79,0.36,9.96,$ALT,658.98,-194.77\r\n"2022-06-04 13:43:38
"||||||||||||-55,6969,$GNRMC,134335.000,0N.,60,$GNGGA,134336.000,3520.8179,N,11748.4965,W,1,12,0.79,642.8,M,-29.4,M,,*41\r`\r\n"2022-06-04 13:43:40
"||||||||||||-55,6969,$ACCEL,0.79,0.36,9.93,$ALT,659.04,-194.80\r\n"2022-06-04 13:43:41
"||||||||||||-50,6969,$GNRMC,134336.00A819.46*$GNGGA,134337.000,3520.8179,N,11748.4966,W,1,12,0.79,642.8,M,-2MB\u000f\r\n"2022-06-04 13:43:41
"||||||||||||-63,6969,$ACCEL,0.81,0.36,9.94,$ALT,659.04,-194.83\r\n"2022-06-04 13:43:42
"||||||||||||-64,6969,,.37161824$GNGGA,134338.000,3520.8180,N,11748.4966,W,1,12,0.79,642.8,M,-29.4,M,,*4A\r\r\n"2022-06-04 13:43:42
"||||||||||||-44,6969,$ACCEL,0.76,0.35,9.93,$ALT,659.11,-194.87\r\n"2022-06-04 13:43:42
"||||||||||||-48,6969,W84,$GNGGA,134339.000,3520.8181,N,11748.4966,W,1,12,0.79,642.8,M,-29.4,M,,*4A\r\r\n"2022-06-04 13:43:43
"||||||||||||-42,6969,$ACCEL,0.79,0.37,9.93,$ALT,658.89,-194.84966,W,1,12,0.79,642.8,M,-29.4,M,,*4A\r\r\n"2022-06-04 13:43:43
"||||||||||||-47,6969,$GNRMC,134339.000,A,3514,,,,\r$GNGGA,134340.000,3520.8181,N,11748.4966,W,1,11,0.99,642.8,M,-29.4,M,,*49\r\r\n"2022-06-04 13:43:44
"||||||||||||-45,6969,$ACCEL,0.79,0.35,9.93,$ALT,659.02,-194.890.000,3520.8181,N,11748.4966,W,1,11,0.99,642.8,M,-29.4,M,,*49\r\r\n"2022-06-04 13:43:44
"||||||||||||-51,6969,$GNRMC,134340.0.N.,60A$GNGGA,134341.000,3520.8180,N,11748.4965,W,1,11,0.99,642.8,M,-29.4,M,,*4A\rM,,*49\r\r\n"2022-06-04 13:43:45
"||||||||||||-53,6969,$ACCEL,0.78,0.36,9.91,$ALT,658.95,-194.88520.8180,N,11748.4965,W,1,11,0.99,642.8,M,-29.4,M,,*4A\rM,,*49\r\r\n"2022-06-04 13:43:45
"||||||||||||-53,6969,$GNRMC,134341.000,A819.425$GNGGA,134342.000,3520.8180,N,11748.4965,W,1,11,0.99,642.8,M,-29.4,M,,*49\r49\r\r\n"2022-06-04 13:43:46
"||||||||||||-55,6969,$ACCEL,0.79,0.36,9.92,$ALT,658.91,-194.88\r\n"2022-06-04 13:43:46
"||||||||||||-60,6969,$GNRMC,134342.000,A,35819.425$GNGGA,134343.000,3520.8180,N,11748.4964,W,1,11,0.99,642.8,M,-29.4,M,,*49\r@B\u000f\r\n"2022-06-04 13:43:47
"||||||||||||-57,6969,$ACCEL,0.79,0.36,9.92,$ALT,658.86,-194.87\r\n"2022-06-04 13:43:47
"||||||||||||-59,6969,$GNRMC,134343.000,A2,8W,0,,658.86,-194.\r\n"2022-06-04 13:43:47
"||||||||||||-54,6969,$ACCEL,0.77,0.37,9.95,$ALT,658.92,-194.89\r\n"2022-06-04 13:43:48
"||||||||||||-48,6969,$GNRMC,134344.00N.,60,$GNGGA,134345.000,3520.8179,N,11748.4964,W,1,11,0.93,642.8,M,-29.4,M,,*43\r\r\n"2022-06-04 13:43:49
"||||||||||||-43,6969,$ACCEL,0.79,0.41,9.95,$ALT,658.84,-194.92520.8179,N,11748.4964,W,1,11,0.93,642.8,M,-29.4,M,,*43\r\r\n"2022-06-04 13:43:50
"||||||||||||-47,6969,$GNRMC,134345.000A.,40.6*$GNGGA,134346.000,3520.8177,N,11748.4965,W,1,12,0.79,642.9,M,-29.4,M,,*49\r`\r\n"2022-06-04 13:43:50
"||||||||||||-50,6969,$ACCEL,0.80,0.36,9.93,$ALT,658.84,-194.930,3520.8177,N,11748.4965,W,1,12,0.79,642.9,M,-29.4,M,,*49\r`\r\n"2022-06-04 13:43:50
"||||||||||||-60,6969,$GNRMC,134346.000,119.425$GNGGA,134347.000,3520.8177,N,11748.4966,W,1,12,0.79,642.9,M,M\u0001\r\n"2022-06-04 13:43:51
"||||||||||||-45,6969,$ACCEL,0.78,0.34,9.89,$ALT,658.86,-194.970,3520.8177,N,11748.4966,W,1,12,0.79,642.9,M,M\u0001\r\n"2022-06-04 13:43:51
"||||||||||||-48,6969,,.,1166524$GNGGA,134348.000,3520.8177,N,11748.4966,W,1,12,0.79,642.9,M,-29.4,M,,*44\r\r\n"2022-06-04 13:43:52
"||||||||||||-52,6969,$ACCEL,0.78,0.34,9.89,$ALT,658.87,-194.98\r\n"2022-06-04 13:43:52
"||||||||||||-56,6969,$GNRMC,134348.000,A,35274,,0,8.87,-194.98\r\n"2022-06-04 13:43:52
"||||||||||||-50,6969,$ACCEL,0.80,0.37,9.94,$ALT,659.04,-195.03\r\n"2022-06-04 13:43:53
"||||||||||||-50,6969,$GNRMC,134349.000,0N.,40A$GNGGA,134350.000,3520.8178,N,11748.4964,W,1,10,1.12,642.9,M,-29.4,M,,*4E\r,\u0001\r\n"2022-06-04 13:43:54
"||||||||||||-47,6969,$ACCEL,0.79,0.36,9.92,$ALT,659.17,-195.100,3520.8178,N,11748.4964,W,1,10,1.12,642.9,M,-29.4,M,,*4E\r,\u0001\r\n"2022-06-04 13:43:54
"||||||||||||-51,6969,$GNRMC,134350.0A819.36*$GNGGA,134351.000,3520.8178,N,11748.4964,W,1,11,0.99,642.9,M,-29.4,M,,*4C\rE\r,\u0001\r\n"2022-06-04 13:43:55
"||||||||||||-51,6969,$ACCEL,0.78,0.37,9.95,$ALT,659.39,-195.163520.8178,N,11748.4964,W,1,11,0.99,642.9,M,-29.4,M,,*4C\rE\r,\u0001\r\n"2022-06-04 13:43:55
"||||||||||||-48,6969,$GNRMC,134351.000,A584,,0,\r$GNGGA,134352.000,3520.8179,N,11748.4964,W,1,11,0.99,643.0,M,-2M,,*4C\rE\r,\u0001\r\n"2022-06-04 13:43:56
"||||||||||||-48,6969,$ACCEL,0.78,0.37,9.95,$ALT,659.15,-195.11000,3520.8179,N,11748.4964,W,1,11,0.99,643.0,M,-2M,,*4C\rE\r,\u0001\r\n"2022-06-04 13:43:56
"||||||||||||-49,6969,,.,1167026$GNGGA,134353.000,3520.8179,N,11748.4964,W,1,11,0.99,643.0,M,-29.4,M,,*47\r\r\n"2022-06-04 13:43:56
"||||||||||||-42,6969,$ACCEL,0.79,0.36,9.95,$ALT,659.19,-195.13\r\n"2022-06-04 13:43:57
"||||||||||||-42,6969,$GNRMC,134353.000,A,350N.W30,9.19,-195.13\r\n"2022-06-04 13:43:57
"||||||||||||-50,6969,$ACCEL,0.79,0.36,9.95,$ALT,659.27,-195.17\r\n"2022-06-04 13:43:57
"||||||||||||-51,6969,$ACCEL,0.72,0.36,9.92,$ALT,659.04,-195.10\r\n"2022-06-04 13:43:58
"||||||||||||-51,6969,$GNRMC,134354.000594,,,,\r$GNGGA,134355.000,3520.8177,N,11748.4965,W,1,11,0.99,643.0,M,-29.4,M,,*4E\r`\r\n"2022-06-04 13:43:59
"||||||||||||-53,6969,$ACCEL,0.79,0.36,9.94,$ALT,659.05,-195.10\r\n"2022-06-04 13:43:59
"||||||||||||-52,6969,$GNRMC,134355.000N.,20,ALT,659.05,-195.10\r\n"2022-06-04 13:43:59
"||||||||||||-49,6969,$ACCEL,0.79,0.36,9.94,$ALT,659.11,-195.14\r\n"2022-06-04 13:44:00
"||||||||||||-42,6969,$GNRMC,134356.000584,,,,\r$GNGGA,134357.000,3520.8179,N,11748.4961,W,1,10,1.12,643.0,M,-29*N302,8W30,\r\n"2022-06-04 13:44:01
"||||||||||||-49,6969,$ACCEL,0.78,0.35,9.95,$ALT,659.08,-195.150,3520.8179,N,11748.4961,W,1,10,1.12,643.0,M,-29*N302,8W30,\r\n"2022-06-04 13:44:01
"||||||||||||-53,6969,$GNGGA,134358.000,3520.8179,N,11748.4960,W,1,11,0.99,643.0,M,-29.4,M,,*48\r.12,643.0,M,-29*N302,8W30,\r\n"2022-06-04 13:44:02
"||||||||||||-50,6969,$ACCEL,0.78,0.36,9.96,$ALT,659.13,-195.19W,1,11,0.99,643.0,M,-29.4,M,,*48\r.12,643.0,M,-29*N302,8W30,\r\n"2022-06-04 13:44:03
"||||||||||||-65,6969,$GNRMC,134358.000,A,3527701026$GNGGA,134359.000,3520.8178,N,11748.4960,W,1,10,1.08,643.0,M,-29.4,M,4040A$GNGGA,134400. \r\n"2022-06-04 13:44:03
"||||||||||||-49,6969,$ACCEL,0.78,0.37,9.94,$ALT,659.10,-195.1959.000,3520.8178,N,11748.4960,W,1,10,1.08,643.0,M,-29.4,M,4040A$GNGGA,134400. \r\n"2022-06-04 13:44:04
"||||||||||||-48,6969,$GNRMC,134400.000,A,352.,.,24,$GNGGA,134401.000,3520.8171,N,11748.4960,W,1,12,0.79,643.0,M,-29.4,M,,*46\r$GNGGA,134400. \r\n"2022-06-04 13:44:04
"||||||||||||-54,6969,$ACCEL,0.82,0.38,9.96,$ALT,658.90,-195.1501.000,3520.8171,N,11748.4960,W,1,12,0.79,643.0,M,-29.4,M,,*46\r$GNGGA,134400. \r\n"2022-06-04 13:44:05
"||||||||||||-49,6969,$GNRMC,134401.00,.,4040A$GNGGA,134402.000,3520.8166,N,11748.4958,W,1,12,0.79,643.1,M,-29.4,M,,*49\r,,*46\r$GNGGA,134400. \r\n"2022-06-04 13:44:05
"||||||||||||-54,6969,$ACCEL,0.79,0.37,9.96,$ALT,659.03,-195.21\r\n"2022-06-04 13:44:06
"||||||||||||-57,6969,$GNRMC,134402.000,A,35814040A$GNGGA,134403.000,3520.8161,N,11748.4958,W,1,12,0.79,643.1,M,-29.4,M,,*4F\r\r\n"2022-06-04 13:44:06
"||||||||||||-52,6969,$ACCEL,0.77,0.36,9.97,$ALT,659.16,-195.263.000,3520.8161,N,11748.4958,W,1,12,0.79,643.1,M,-29.4,M,,*4F\r\r\n"2022-06-04 13:44:07
"||||||||||||-49,6969,$GNRMC,134403.000,A,3520.8161,N,11748.495$GNGGA,134404.000,3520.8157,N,11748.4959,W,1,12,0.79,643.2,M,-29.4,M,,*4F\r\u0001\r\n"2022-06-04 13:44:07
"||||||||||||-44,6969,$ACCEL,0.80,0.36,9.96,$ALT,659.18,-195.27\r\n"2022-06-04 13:44:08
"||||||||||||-51,6969,$GNRMC,134404.000,A,3520.8157,$GNGGA,134405.000,3520.8154,N,11748.4959,W,1,12,0.79,643.3,M,-29.4,M,,*4C\rB\u000f\r\n"2022-06-04 13:44:08
"||||||||||||-40,6969,$ACCEL,0.79,0.35,9.90,$ALT,659.43,-195.35\r\n"2022-06-04 13:44:09
"||||||||||||-42,6969,$GNRMC,134405.000,A,3520$GNGGA,134406.000,3520.8151,N,11748.4957,W,1,12,0.79,643.4,M,-29.4,M,,*43\r\r\n"2022-06-04 13:44:09
"||||||||||||-41,6969,$ACCEL,0.79,0.38,9.92,$ALT,659.20,-195.24,3520.8151,N,11748.4957,W,1,12,0.79,643.4,M,-29.4,M,,*43\r\r\n"2022-06-04 13:44:10
"||||||||||||-51,6969,$GNRMC,134406.000,A,3520.8151$GNGGA,134407.000,3520.8150,N,11748.4955,W,1,12,0.79,643.5,M,-29.4,M,,*40\r@B\u000f\r\n"2022-06-04 13:44:10
"||||||||||||-61,6969,$ACCEL,0.75,0.16,9.93,$ALT,659.45,-195.317.000,3520.8150,N,11748.4955,W,1,12,0.79,643.5,M,-29.4,M,,*40\r@B\u000f\r\n"2022-06-04 13:44:11
"||||||||||||-44,6969,$GNRMC,134407.000,A,3520.N.,24,$GNGGA,134408.000,3520.8150,N,11748.4955,W,1,12,0.79,643.5,M,-29.4,M,,*4F\r\r\n"2022-06-04 13:44:11
"||||||||||||-52,6969,$ACCEL,0.82,0.36,9.94,$ALT,659.22,-195.29408.000,3520.8150,N,11748.4955,W,1,12,0.79,643.5,M,-29.4,M,,*4F\r\r\n"2022-06-04 13:44:12
"||||||||||||-59,6969,$GNRMC,134400504,,,,\r$GNGGA,134409.000,3520.8150,N,11748.4954,W,1,12,0.79,643.5,M,-29.4,M,,*4F\r\r\n"2022-06-04 13:44:12
"||||||||||||-47,6969,$ACCEL,0.79,0.34,9.96,$ALT,659.00,-195.2620.8150,N,11748.4954,W,1,12,0.79,643.5,M,-29.4,M,,*4F\r\r\n"2022-06-04 13:44:13
"||||||||||||-50,6969,$GNRMC,134409.031151026$GNGGA,134410.000,3520.8151,N,11748.4954,W,1,12,0.79,643.5,M,-29.4,M,,*46\r\r\n"2022-06-04 13:44:13
"||||||||||||-54,6969,$ACCEL,0.79,0.35,9.96,$ALT,659.21,-195.34\r\n"2022-06-04 13:44:14
"||||||||||||-45,6969,$GNRMC,134410.02,8W30,\r$GNGGA,134411.000,3520.8152,N,11748.4953,W,1,12,0.79,643.6,M,-29.4,M,,*40\r\r\n"2022-06-04 13:44:14
"||||||||||||-38,6969,$ACCEL,0.78,0.34,9.97,$ALT,659.37,-195.383520.8152,N,11748.4953,W,1,12,0.79,643.6,M,-29.4,M,,*40\r\r\n"2022-06-04 13:44:15
"||||||||||||-41,6969,$GNRMC,134411.0,.,4044,$GNGGA,134412.000,3520.8153,N,11748.4954,W,1,12,0.79,643.5,M,-29.4,M,,*46\r\r\n"2022-06-04 13:44:15
"||||||||||||-43,6969,$ACCEL,0.78,0.34,9.97,$ALT,659.40,-195.39\r\n"2022-06-04 13:44:16
"||||||||||||-45,6969,$GNRMC,134412.000N.,24,ALT,659.40,-195.39\r\n"2022-06-04 13:44:16
"||||||||||||-53,6969,$ACCEL,2.38,-0.26,9.47,$ALT,659.22,-195.32B\u0001\r\n"2022-06-04 13:44:16
"||||||||||||-43,6969,$GNRMC,134413.00A8,4040A$GNGGA,134414.000,3520.8156,N,11748.4954,W,1,12,0.79,643.5,M,-29.4,M,,*45\r\r\n"2022-06-04 13:44:17
"||||||||||||-53,6969,$ACCEL,-0.23,2.00,9.79,$ALT,659.22,-195.28\r\n"2022-06-04 13:44:18
"||||||||||||-53,6969,$GNRMC,134414.000,35741026$GNGGA,134415.000,3520.8157,N,11748.4954,W,1,12,0.79,643.5,M,-29.4,M,,*45\r\r\n"2022-06-04 13:44:18
"||||||||||||-53,6969,$ACCEL,-1.01,3.18,9.42,$ALT,659.20,-195.24B\u0001\r\n"2022-06-04 13:44:19
"||||||||||||-55,6969,$GNRMC,134415.0,0N.,24,$GNGGA,134416.000,3520.8157,N,11748.4955,W,1,12,0.79,643.5,M,-2.4R400N.,24,\r\n"2022-06-04 13:44:19
"||||||||||||-44,6969,$ACCEL,-1.36,3.57,9.17,$ALT,659.25,-195.24B\u0001\r\n"2022-06-04 13:44:20
"||||||||||||-49,6969,$GNRMC,134417.000,A,355751026$GNGGA,134418.000,3520.8160,N,11748.4953,W,1,12,0.79,643.6,M,-29.4,M,,*48\r@B\u000f\r\n"2022-06-04 13:44:21
"||||||||||||-54,6969,$ACCEL,5.29,6.98,4.15,$ALT,659.51,-195.588.000,3520.8160,N,11748.4953,W,1,12,0.79,643.6,M,-29.4,M,,*48\r@B\u000f\r\n"2022-06-04 13:44:22
"||||||||||||-52,6969,$GNRMC,134418.36150026$GNGGA,134419.000,3520.8162,N,11748.4952,W,1,12,0.79,643.6,M,-29.4,M,,*4A\r\r\n"2022-06-04 13:44:22
"||||||||||||-65,6969,$ACCEL,7.02,5.70,4.27,$ALT,659.49,-195.49520.8162,N,11748.4952,W,1,12,0.79,643.6,M,-29.4,M,,*4A\r\r\n"2022-06-04 13:44:23
