"||||||||||||-56,6969,$ACCEL,0.30,0.41,9.92,$ALT,680.05,-208.23\r\n"2022-06-04 00:30:25
"||||||||||||-53,6969,$GNRMC,003023.000,A,3520.8208,N,11748.4965,W,0.28,22$GNGGA,003024.000,3520.8206,N,11748.4963,W,1,16,0.62,624.0,M,-29.4\r\n"2022-06-04 00:30:26
"||||||||||||-53,6969,$ACCEL,0.31,0.40,9.94,$ALT,679.95,-208.20\r\n"2022-06-04 00:30:27
"||||||||||||-53,6969,$GNRMC,003024.000,A,3520.86$GNGGA,003025.000,3520.8205,N,11748.4961,W,1,16,0.62,624.0,M,-29.4,M,,*4F\r\r\n"2022-06-04 00:30:27
"||||||||||||-52,6969,$ACCEL,0.31,0.41,9.93,$ALT,680.69,-208.42\r\n"2022-06-04 00:30:28
"||||||||||||-52,6969,$GNRMC,003025.000,A,35.,$GNGGA,003026.000,3520.8203,N,11748.4960,W,1,16,0.62,624.0,M,-29.4,M\r\n"2022-06-04 00:30:28
"||||||||||||-52,6969,$ACCEL,0.31,0.41,9.94,$ALT,681.22,-208.58\r\n"2022-06-04 00:30:29
"||||||||||||-54,6969,,.30702026$GNGGA,003027.000,3520.8203,N,11748.4957,W,1,16,0.62,624.0,M,-29.4,M,,*4E\r\r\n"2022-06-04 00:30:29
"||||||||||||-53,6969,$ACCEL,0.31,0.41,9.94,$ALT,680.37,-208.31\r\n"2022-06-04 00:30:29
"||||||||||||-53,6969,$GNRMC,003027.000,A,3520.N.W20,37,-208.31\r\n"2022-06-04 00:30:29
"||||||||||||-51,6969,$ACCEL,0.30,0.41,9.93,$ALT,680.28,-208.28\r\n"2022-06-04 00:30:30
"||||||||||||-54,6969,$GNRMC,0032A819020A$GNGGA,003029.000,3520.8203,N,11748.4954,W,1,16,0.62,624.1,M,-29.4,M,,*42\r\r\n"2022-06-04 00:30:31
"||||||||||||-53,6969,$ACCEL,0.32,0.40,9.93,$ALT,680.08,-208.21.8203,N,11748.4954,W,1,16,0.62,624.1,M,-29.4,M,,*42\r\r\n"2022-06-04 00:30:32
"||||||||||||-54,6969,$GNRMC,003029.,2150.6*$GNGGA,003030.000,3520.8201,N,11748.4953,W,1,17,0.62,624.1,M,-29.4,M,,*4E\r\r\n"2022-06-04 00:30:32
"||||||||||||-55,6969,$ACCEL,0.31,0.39,9.92,$ALT,680.02,-208.24520.8201,N,11748.4953,W,1,17,0.62,624.1,M,-29.4,M,,*4E\r\r\n"2022-06-04 00:30:33
"||||||||||||-56,6969,$GNRMC,003030.000,A.,4020A$GNGGA,003031.000,3520.8200,N,11748.4952,W,1,17,0.62,624.2,M,-29.4,G002,8W,,,\r$GNGGA,003032.\r\n"2022-06-04 00:30:34
"||||||||||||-54,6969,$ACCEL,0.30,0.41,9.93,$ALT,680.64,-208.4200,3520.8200,N,11748.4952,W,1,17,0.62,624.2,M,-29.4,G002,8W,,,\r$GNGGA,003032.\r\n"2022-06-04 00:30:34
"||||||||||||-54,6969,$GNRMC,003032.000,A,2,8,,,,\r$GNGGA,003033.000,3520.8198,N,11748.4951,W,1,17,0.62,624.1,M,-29.4,M,,*4C\r,\r$GNGGA,003032.\r\n"2022-06-04 00:30:35
"||||||||||||-54,6969,$ACCEL,0.30,0.40,9.93,$ALT,679.58,-208.08\r\n"2022-06-04 00:30:35
"||||||||||||-54,6969,$GNRMC,003033.000,119..6*$GNGGA,003034.000,3520.8198,N,11748.4949,W,1,17,0.62,624.2,M,-29.4,M,,*41\r`\r\n"2022-06-04 00:30:36
"||||||||||||-54,6969,$ACCEL,0.31,0.39,9.93,$ALT,679.35,-207.990,3520.8198,N,11748.4949,W,1,17,0.62,624.2,M,-29.4,M,,*41\r`\r\n"2022-06-04 00:30:36
"||||||||||||-53,6969,$GNRMC,003034.000584,1623$GNGGA,003035.000,3520.8198,N,11748.4948,W,1,17,0.62,624.2,M,-29.4,M,,*41\r,\u0001\r\n"2022-06-04 00:30:36
"||||||||||||-51,6969,$ACCEL,0.28,0.40,9.92,$ALT,680.02,-208.20\r\n"2022-06-04 00:30:37
"||||||||||||-51,6969,$GNRMC,003035.000,A,3520.8198,N,11748.4948,W,0$GNGGA,003036.000,3520.8196,N,11748.4947,W,1,17,0.62,624.2,M,-29.4,M,,*4 \r\n"2022-06-04 00:30:38
"||||||||||||-50,6969,$ACCEL,0.31,0.41,9.91,$ALT,679.66,-208.098,W,0$GNGGA,003036.000,3520.8196,N,11748.4947,W,1,17,0.62,624.2,M,-29.4,M,,*4 \r\n"2022-06-04 00:30:38
"||||||||||||-51,6969,$GNRMC,003036.000,A,3520.819$GNGGA,003037.000,3520.8196,N,11748.4945,W,1,17,0.62,624.3,M,-29.4,M,,*41\r.2,M,-29.4,M,,*4 \r\n"2022-06-04 00:30:39
"||||||||||||-49,6969,$ACCEL,0.30,0.40,9.92,$ALT,679.79,-208.12.000,3520.8196,N,11748.4945,W,1,17,0.62,624.3,M,-29.4,M,,*41\r.2,M,-29.4,M,,*4 \r\n"2022-06-04 00:30:39
"||||||||||||-50,6969,$GNRMC,003037.000,A,3520.$GNGGA,003038.000,3520.8195,N,11748.4944,W,1,17,0.62,624.3,M,-29.4,M,,*4C\r`\r\n"2022-06-04 00:30:40
"||||||||||||-51,6969,$ACCEL,0.31,0.39,9.91,$ALT,680.82,-208.43\r\n"2022-06-04 00:30:40
"||||||||||||-51,6969,$GNRMC,003038.000,A,3520.$GNGGA,003039.000,3520.8195,N,11748.4944,W,1,17,0.62,624.3,M,-29.4,M,,*4D\r`\r\n"2022-06-04 00:30:40
"||||||||||||-49,6969,$ACCEL,0.31,0.41,9.92,$ALT,680.18,-208.240,3520.8195,N,11748.4944,W,1,17,0.62,624.3,M,-29.4,M,,*4D\r`\r\n"2022-06-04 00:30:41
"||||||||||||-50,6969,$GNRMC,003039.000,A,3520.8,4020A$GNGGA,003040.000,3520.8196,N,11748.4943,W,1,17,0.62,624.1,M,-29.4,M,,*45\r\r\n"2022-06-04 00:30:41
"||||||||||||-51,6969,$ACCEL,0.28,0.39,9.90,$ALT,680.37,-208.283040.000,3520.8196,N,11748.4943,W,1,17,0.62,624.1,M,-29.4,M,,*45\r\r\n"2022-06-04 00:30:42
"||||||||||||-51,6969,$GNRMC,0030056434625$GNGGA,003041.000,3520.8196,N,11748.4941,W,1,17,0.62,624.1,M,-29.4,M,,*46\r\r\n"2022-06-04 00:30:42
"||||||||||||-51,6969,$ACCEL,0.31,0.40,9.91,$ALT,680.14,-208.210.8196,N,11748.4941,W,1,17,0.62,624.1,M,-29.4,M,,*46\r\r\n"2022-06-04 00:30:44
"||||||||||||-50,6969,$GNRMC,003041.056416624$GNGGA,003042.000,3520.8197,N,11748.4941,W,1,16,0.62,624.0,M,-29.4,M,,*44\r\r\n"2022-06-04 00:30:44
"||||||||||||-50,6969,$ACCEL,0.30,0.40,9.91,$ALT,680.41,-208.30\r\n"2022-06-04 00:30:45
"||||||||||||-50,6969,$GNRMC,003042.057414624$GNGGA,003043.000,3520.8198,N,11748.4941,W,1,17,0.62,623.9,M,-29.4,M,,*45\r\r\n"2022-06-04 00:30:45
"||||||||||||-52,6969,$ACCEL,0.31,0.41,9.91,$ALT,680.39,-208.30\r\n"2022-06-04 00:30:46
"||||||||||||-53,6969,$GNRMC,003043.0002,8,,,,\r$GNGGA,003044.000,3520.8199,N,11748.4941,W,1,17,0.62,623.9,M,-29.4,M,,*43\r,\u0001\r\n"2022-06-04 00:30:46
"||||||||||||-50,6969,$ACCEL,0.31,0.40,9.93,$ALT,681.37,-208.610,3520.8199,N,11748.4941,W,1,17,0.62,623.9,M,-29.4,M,,*43\r,\u0001\r\n"2022-06-04 00:30:47
"||||||||||||-50,6969,$GNRMC,003044.A819.20A$GNGGA,003045.000,3520.8198,N,11748.4941,W,1,16,0.66,623.9,M,-29.4,M,,*46\r43\r,\u0001\r\n"2022-06-04 00:30:47
"||||||||||||-50,6969,$ACCEL,0.31,0.39,9.91,$ALT,680.55,-208.35520.8198,N,11748.4941,W,1,16,0.66,623.9,M,-29.4,M,,*46\r43\r,\u0001\r\n"2022-06-04 00:30:48
"||||||||||||-51,6969,$GNRMC,003045.000,,1141026$GNGGA,003046.000,3520.8198,N,11748.4940,W,1,16,0.66,623.8,M,-29.4,M,,*45\r\u0001\r\n"2022-06-04 00:30:48
"||||||||||||-51,6969,$ACCEL,0.30,0.40,9.91,$ALT,680.69,-208.3800,3520.8198,N,11748.4940,W,1,16,0.66,623.8,M,-29.4,M,,*45\r\u0001\r\n"2022-06-04 00:30:49
"||||||||||||-51,6969,$GNRMC,003046.0,.N.,24,$GNGGA,003047.000,3520.8198,N,11748.4939,W,1,17,0.62,623.8,M,-29.4,M,,*4F\r\r\n"2022-06-04 00:30:49
"||||||||||||-52,6969,$ACCEL,0.32,0.40,9.93,$ALT,680.29,-208.263520.8198,N,11748.4939,W,1,17,0.62,623.8,M,-29.4,M,,*4F\r\r\n"2022-06-04 00:30:50
"||||||||||||-52,6969,$GNRMC,003047.000,0N.,24,$GNGGA,003048.000,3520.8196,N,11748.4938,W,1,17,0.62,623.9,M,-29.4,M,,*4E\r,\u0001\r\n"2022-06-04 00:30:50
"||||||||||||-52,6969,$ACCEL,0.30,0.40,9.93,$ALT,680.47,-208.31\r\n"2022-06-04 00:30:50
"||||||||||||-53,6969,$GNRMC,003048.00,.,4024,$GNGGA,003049.000,3520.8195,N,11748.4937,W,1,17,0.62,623.9,M,-29.4,M,,*43\r\r\n"2022-06-04 00:30:51
"||||||||||||-52,6969,$ACCEL,0.30,0.40,9.93,$ALT,680.21,-208.24,3520.8195,N,11748.4937,W,1,17,0.62,623.9,M,-29.4,M,,*43\r\r\n"2022-06-04 00:30:51
"||||||||||||-53,6969,$GNRMC,003049.00,0N.,24,LT,680.21,-208.24,3520.8195,N,11748.4937,W,1,17,0.62,623.9,M,-29.4,M,,*43\r\r\n"2022-06-04 00:30:51
"||||||||||||-53,6969,$ACCEL,0.31,0.40,9.93,$ALT,680.23,-208.26\r\n"2022-06-04 00:30:51
"||||||||||||-54,6969,$GNRMC,003050.0,.,4024,$GNGGA,003051.000,3520.8193,N,11748.4938,W,1,17,0.62,624.0,M,-29.4,M,,*4D\r\r\n"2022-06-04 00:30:52
"||||||||||||-54,6969,$ACCEL,0.31,0.41,9.92,$ALT,680.93,-208.453520.8193,N,11748.4938,W,1,17,0.62,624.0,M,-29.4,M,,*4D\r\r\n"2022-06-04 00:30:54
"||||||||||||-54,6969,$GNRMC,003051.000,0N.,24,T,680.93,-208.453520.8193,N,11748.4938,W,1,17,0.62,624.0,M,-29.4,M,,*4D\r\r\n"2022-06-04 00:30:54
"||||||||||||-55,6969,$ACCEL,0.32,0.39,9.92,$ALT,681.27,-208.573520.8193,N,11748.4938,W,1,17,0.62,624.0,M,-29.4,M,,*4D\r\r\n"2022-06-04 00:30:54
"||||||||||||-55,6969,$GNRMC,003052.,0N.,24,$GNGGA,003053.000,3520.8191,N,11748.4940,W,1,17,0.62,624.0,M,-9*N300N.,20,\r\n"2022-06-04 00:30:55
"||||||||||||-55,6969,$ACCEL,0.30,0.40,9.91,$ALT,680.57,-208.34520.8191,N,11748.4940,W,1,17,0.62,624.0,M,-9*N300N.,20,\r\n"2022-06-04 00:30:56
"||||||||||||-55,6969,$GNGGA,003054.000,3520.8190,N,11748.4939,W,1,17,0.62,624.1,M,-29.4,M,,*4B\r,624.0,M,-9*N300N.,20,\r\n"2022-06-04 00:30:56
"||||||||||||-55,6969,$ACCEL,0.29,0.41,9.91,$ALT,680.03,-208.16W,1,17,0.62,624.1,M,-29.4,M,,*4B\r,624.0,M,-9*N300N.,20,\r\n"2022-06-04 00:30:57
"||||||||||||-54,6969,$GNRMC,003054.000,A,35819020A$GNGGA,003055.000,3520.8190,N,11748.4939,W,1,17,0.62,624.1,M,-29.4,M,,*4A6A$GNGGA,003056. \r\n"2022-06-04 00:30:58
"||||||||||||-52,6969,$ACCEL,0.31,0.39,9.92,$ALT,680.32,-208.26\r\n"2022-06-04 00:31:01
"||||||||||||-51,6969,$GNRMC,003059.000,A,3520.8187,N,11748.493$GNGGA,003100.000,3520.8186,N,11748.4937,W,1,17,0.62,624.2,M,-29.4,M,,*41\r\u0001\r\n"2022-06-04 00:31:02
"||||||||||||-51,6969,$ACCEL,0.28,0.41,9.92,$ALT,680.28,-208.24\r\n"2022-06-04 00:31:03
"||||||||||||-50,6969,$GNRMC,003100.000,A,3520.8186,$GNGGA,003101.000,3520.8186,N,11748.4936,W,1,17,0.62,624.2,M,-29.4,M,,*41\rB\u000f\r\n"2022-06-04 00:31:03
"||||||||||||-51,6969,$ACCEL,0.31,0.41,9.92,$ALT,680.21,-208.22\r\n"2022-06-04 00:31:04
"||||||||||||-51,6969,$GNRMC,003101.000,A,3520$GNGGA,003102.000,3520.8184,N,11748.4937,W,1,17,0.62,624.3,M,-29.4,M,,*40N302,8W20,\r$GNGGA,003 \r\n"2022-06-04 00:31:04
"||||||||||||-50,6969,$ACCEL,0.31,0.39,9.93,$ALT,680.38,-208.27,3520.8184,N,11748.4937,W,1,17,0.62,624.3,M,-29.4,M,,*40N302,8W20,\r$GNGGA,003 \r\n"2022-06-04 00:31:05
"||||||||||||-52,6969,$GNRMC,003103.000,A,3520,8,,,,\r$GNGGA,003104.000,3520.8183,N,11748.4936,W,1,17,0.62,624.3,M,-29.4,M,,*40\r0,\r$GNGGA,003 \r\n"2022-06-04 00:31:05
"||||||||||||-52,6969,$ACCEL,0.31,0.40,9.96,$ALT,680.60,-208.33104.000,3520.8183,N,11748.4936,W,1,17,0.62,624.3,M,-29.4,M,,*40\r0,\r$GNGGA,003 \r\n"2022-06-04 00:31:06
"||||||||||||-52,6969,$GNRMC,003104,.,4020,$GNGGA,003105.000,3520.8185,N,11748.4937,W,1,17,0.62,624.3,M,-29.4,M,,*46\r.4,M,,*40\r0,\r$GNGGA,003 \r\n"2022-06-04 00:31:06
"||||||||||||-51,6969,$ACCEL,0.31,0.40,9.94,$ALT,680.42,-208.2920.8185,N,11748.4937,W,1,17,0.62,624.3,M,-29.4,M,,*46\r.4,M,,*40\r0,\r$GNGGA,003 \r\n"2022-06-04 00:31:07
"||||||||||||-51,6969,$GNRMC,003105.,1138,2D$GNGGA,003106.000,3520.8186,N,11748.4936,W,1,17,0.62,624.3,M,-29.4,M,,*47\r4,M,,*40\r0,\r$GNGGA,003 \r\n"2022-06-04 00:31:07
"||||||||||||-51,6969,$ACCEL,0.32,0.40,9.92,$ALT,680.51,-208.29\r\n"2022-06-04 00:31:08
"||||||||||||-52,6969,$GNRMC,003106.000,A,3520.8186,N,11748.4936,W,0.45,$GNGGA,003107.000,3520.8186,N,11748.4936,W,1,17,0.62,624.3,M,-29.4,M\r\n"2022-06-04 00:31:09
"||||||||||||-52,6969,$ACCEL,0.31,0.40,9.93,$ALT,680.47,-208.286,W,0.45,$GNGGA,003107.000,3520.8186,N,11748.4936,W,1,17,0.62,624.3,M,-29.4,M\r\n"2022-06-04 00:31:10
"||||||||||||-53,6969,$GNRMC,003107.000,A,3520.8186,.$GNGGA,003108.000,3520.8186,N,11748.4935,W,1,17,0.62,624.3,M,-29.4,M,,*4A\r\u000f\r\n"2022-06-04 00:31:10
"||||||||||||-52,6969,$ACCEL,0.31,0.40,9.93,$ALT,680.54,-208.32108.000,3520.8186,N,11748.4935,W,1,17,0.62,624.3,M,-29.4,M,,*4A\r\u000f\r\n"2022-06-04 00:31:11
"||||||||||||-52,6969,$GNRMC,003108.000,387$GNGGA,003109.000,3520.8186,N,11748.4937,W,1,17,0.62,624.4,M,-29.4,M,,*4E\r.4,M,,*4A\r\u000f\r\n"2022-06-04 00:31:11
"||||||||||||-50,6969,$ACCEL,0.31,0.40,9.93,$ALT,679.96,-208.15\r\n"2022-06-04 00:31:12
"||||||||||||-50,6969,$GNRMC,003109.000,A,35$GNGGA,003110.000,3520.8186,N,11748.4938,W,1,17,0.62,624.4,M,-29.4,M,,*49\r\r\n"2022-06-04 00:31:12
"||||||||||||-51,6969,$ACCEL,0.30,0.40,9.94,$ALT,680.18,-208.22520.8186,N,11748.4938,W,1,17,0.62,624.4,M,-29.4,M,,*49\r\r\n"2022-06-04 00:31:12
"||||||||||||-51,6969,$GNRMC,003110.000,A,3520.87800,18,-208.22520.8186,N,11748.4938,W,1,17,0.62,624.4,M,-29.4,M,,*49\r\r\n"2022-06-04 00:31:13
"||||||||||||-51,6969,$ACCEL,0.30,0.40,9.94,$ALT,680.08,-208.19\r\n"2022-06-04 00:31:13
"||||||||||||-52,6969,$GNGGA,003111.000,3520.8185,N,11748.4939,W,1,17,0.62,624.4,M,-29.4,M,,*4A\r\r\n"2022-06-04 00:31:13
"||||||||||||-51,6969,$ACCEL,0.30,0.40,9.93,$ALT,680.40,-208.28W,1,17,0.62,624.4,M,-29.4,M,,*4A\r\r\n"2022-06-04 00:31:14
"||||||||||||-51,6969,$GNRMC,003102,8W04,$GNGGA,003112.000,3520.8183,N,11748.4939,W,1,17,0.62,624.4,M,-29.4,M,,*4F\r\r\n"2022-06-04 00:31:14
"||||||||||||-52,6969,$ACCEL,0.30,0.39,9.92,$ALT,680.18,-208.20.8183,N,11748.4939,W,1,17,0.62,624.4,M,-29.4,M,,*4F\r\r\n"2022-06-04 00:31:15
"||||||||||||-52,6969,$GNRMC,003112.002,8W00A$GNGGA,003113.000,3520.8182,N,11748.4938,W,1,17,0.62,624.4,M,-29.4,M,,*4E\r\r\n"2022-06-04 00:31:15
"||||||||||||-53,6969,$ACCEL,0.30,0.40,9.90,$ALT,680.25,-208.223520.8182,N,11748.4938,W,1,17,0.62,624.4,M,-29.4,M,,*4E\r\r\n"2022-06-04 00:31:15
"||||||||||||-52,6969,$GNRMC,003113.000,587880,T,680.25,-208.\r\n"2022-06-04 00:31:16
"||||||||||||-53,6969,$ACCEL,0.30,0.40,9.90,$ALT,679.98,-208.14\r\n"2022-06-04 00:31:16
"||||||||||||-52,6969,$GNGGA,003114.000,3520.8182,N,11748.4939,W,1,17,0.62,624.4,M,M\r\n"2022-06-04 00:31:16
"||||||||||||-52,6969,$ACCEL,0.31,0.41,9.91,$ALT,679.64,-208.04W,1,17,0.62,624.4,M,M\r\n"2022-06-04 00:31:17
"||||||||||||-52,6969,,.38732,,\r$GNGGA,003115.000,3520.8182,N,11748.4938,W,1,17,0.62,624.4,M,-29.4,M,,*48\r\r\n"2022-06-04 00:31:17
"||||||||||||-53,6969,$ACCEL,0.31,0.40,9.91,$ALT,680.14,-208.201748.4938,W,1,17,0.62,624.4,M,-29.4,M,,*48\r\r\n"2022-06-04 00:31:18
"||||||||||||-52,6969,$GNRMC,003115.000,A,3528781,,\r$GNGGA,003116.000,3520.8181,N,11748.4937,W,1,17,0.62,624.4,M,-29.4,M,,*47\rB\u000f\r\n"2022-06-04 00:31:18
"||||||||||||-52,6969,$ACCEL,0.31,0.38,9.91,$ALT,680.61,-208.33\r\n"2022-06-04 00:31:19
"||||||||||||-51,6969,$GNRMC,003116.00A8140126$GNGGA,003117.000,3520.8181,N,11748.4938,W,1,17,0.62,624.4,M,-29.4,M,,*44,$GNGGA,003118.000,35 \r\n"2022-06-04 00:31:20
"||||||||||||-52,6969,$ACCEL,0.30,0.40,9.91,$ALT,680.35,-208.24\r\n"2022-06-04 00:31:20
"||||||||||||-51,6969,$GNRMC,003118.000,A,3520.8,8W04,$GNGGA,003119.000,3520.8181,N,11748.4938,W,1,17,0.62,624.6,M,-29.4,M,,*45\r\r\n"2022-06-04 00:31:21
"||||||||||||-52,6969,$ACCEL,0.30,0.40,9.93,$ALT,680.44,-208.28\r\n"2022-06-04 00:31:21
"||||||||||||-52,6969,$GNRMC,003119.000,A,0N.,00A$GNGGA,003120.000,3520.8182,N,11748.4936,W,1,17,0.62,624.6,M,-29.4,M,,*42\r\r\n"2022-06-04 00:31:21
"||||||||||||-51,6969,$ACCEL,0.31,0.39,9.92,$ALT,680.94,-208.44000,3520.8182,N,11748.4936,W,1,17,0.62,624.6,M,-29.4,M,,*42\r\r\n"2022-06-04 00:31:23
"||||||||||||-50,6969,$GNRMC,003120.00524,,4,$GNGGA,003121.000,3520.8181,N,11748.4935,W,1,17,0.62,624.7,M,-29.4,M,,*42\r*42\r\r\n"2022-06-04 00:31:23
"||||||||||||-52,6969,$ACCEL,0.30,0.39,9.93,$ALT,679.91,-208.143520.8181,N,11748.4935,W,1,17,0.62,624.7,M,-29.4,M,,*42\r*42\r\r\n"2022-06-04 00:31:24
"||||||||||||-52,6969,$GNRMC,003121.000,A,3520.8181,N,11748.4935$GNGGA,003122.000,3520.8182,N,11748.4935,W,1,17,0.62,624.7,M,-29.4,M,,*42\r\u0001\r\n"2022-06-04 00:31:24
"||||||||||||-51,6969,$ACCEL,0.33,0.40,9.93,$ALT,680.20,-208.21\r\n"2022-06-04 00:31:25
"||||||||||||-51,6969,$GNRMC,003122.000,A,3520.8182,N,$GNGGA,003123.000,3520.8181,N,11748.4934,W,1,17,0.62,624.7,M,-29.4,M,,*41\r\r\n"2022-06-04 00:31:25
"||||||||||||-52,6969,$ACCEL,0.31,0.40,9.94,$ALT,680.06,-208.163123.000,3520.8181,N,11748.4934,W,1,17,0.62,624.7,M,-29.4,M,,*41\r\r\n"2022-06-04 00:31:26
"||||||||||||-50,6969,$GNRMC,003123.000,A,3520.81$GNGGA,003124.000,3520.8181,N,11748.4933,W,1,17,0.62,624.7,M,-29.4,M,,*41\r,*41\r\r\n"2022-06-04 00:31:26
"||||||||||||-50,6969,$ACCEL,0.31,0.40,9.94,$ALT,680.24,-208.20\r\n"2022-06-04 00:31:27
"||||||||||||-50,6969,$GNRMC,003124.000,A,352$GNGGA,003125.000,3520.8182,N,11748.4932,W,1,17,0.62,624.8,M,-29.4,M,,*4D\r\r\n"2022-06-04 00:31:27
"||||||||||||-52,6969,$ACCEL,0.32,0.40,9.91,$ALT,679.68,-208.023520.8182,N,11748.4932,W,1,17,0.62,624.8,M,-29.4,M,,*4D\r\r\n"2022-06-04 00:31:28
"||||||||||||-52,6969,$GNRMC,003125.000,A,3520.887250,\r$GNGGA,003126.000,3520.8182,N,11748.4931,W,1,17,0.62,624.9,M,-29.4,M,,*4C\r,\u0001\r\n"2022-06-04 00:31:28
"||||||||||||-50,6969,$ACCEL,0.32,0.40,9.91,$ALT,680.56,-208.2803126.000,3520.8182,N,11748.4931,W,1,17,0.62,624.9,M,-29.4,M,,*4C\r,\u0001\r\n"2022-06-04 00:31:28
"||||||||||||-51,6969,$GNRMC,003120527110,1,$\r\n"2022-06-04 00:31:28
"||||||||||||-51,6969,$ACCEL,0.32,0.40,9.93,$ALT,680.55,-208.29\r\n"2022-06-04 00:31:29
"||||||||||||-51,6969,$GNGGA,003127.000,3520.8181,N,11748.4931,W,1,15,0.69,624.9,M,-29.4,M,,*47\r\r\n"2022-06-04 00:31:29
"||||||||||||-51,6969,$ACCEL,0.32,0.41,9.92,$ALT,680.06,-208.13\r\n"2022-06-04 00:31:30
"||||||||||||-51,6969,$GNRMC,00317,119.327$GNGGA,003128.000,3520.8181,N,11748.4931,W,1,15,0.69,625.0,M,-29.4,M,,*40\r\r\n"2022-06-04 00:31:30
"||||||||||||-50,6969,$ACCEL,0.31,0.39,9.92,$ALT,680.28,-208.20\r\n"2022-06-04 00:31:31
"||||||||||||-50,6969,$GNRMC,003128.0,.,4016*$GNGGA,003129.000,3520.8181,N,11748.4931,W,1,16,0.65,625.0,M,-29.4,M,,*4E\r\r\n"2022-06-04 00:31:31
"||||||||||||-51,6969,$ACCEL,0.31,0.39,9.92,$ALT,680.10,-208.15\r\n"2022-06-04 00:31:31
"||||||||||||-51,6969,$GNRMC,003129.000,514,50,T,680.10,-208.15\r\n"2022-06-04 00:31:31
"||||||||||||-50,6969,$ACCEL,0.30,0.40,9.93,$ALT,680.13,-208.17\r\n"2022-06-04 00:31:33
"||||||||||||-49,6969,$GNGGA,003130.000,3520.8181,N,11748.4932,W,1,16,0.65,625.1,M,-.4R1,.,4,.6*$GNGGA,003131.000,3520.8181,N,11748.4932,W,1 \r\n"2022-06-04 00:31:33
"||||||||||||-51,6969,$ACCEL,0.31,0.42,9.93,$ALT,680.25,-208.20W,1,16,0.65,625.1,M,-.4R1,.,4,.6*$GNGGA,003131.000,3520.8181,N,11748.4932,W,1 \r\n"2022-06-04 00:31:34
"||||||||||||-51,6969,$GNRMC,003131.000,A,3.,40126$GNGGA,003132.000,3520.8181,N,11748.4934,W,1,16,0.65,625.2,M,-29.4,M,,*43\r @B\u000f\r\n"2022-06-04 00:31:34
"||||||||||||-51,6969,$ACCEL,0.31,0.42,9.93,$ALT,680.04,-208.13\r\n"2022-06-04 00:31:34
"||||||||||||-50,6969,$GNRMC,003132.000387410,LT,680.04,-208.13\r\n"2022-06-04 00:31:34
"||||||||||||-50,6969,$ACCEL,0.32,0.40,9.92,$ALT,679.85,-208.08\r\n"2022-06-04 00:31:35
"||||||||||||-50,6969,$GNGGA,003133.000,3520.8180,N,11748.4934,W,1,16,0.65,625.3,M,-29.4,M,,*4W00A$GNGGA,003134.000,3520.8181,N,11748.4935,W\r\n"2022-06-04 00:31:36
"||||||||||||-53,6969,$ACCEL,0.31,0.40,9.93,$ALT,679.93,-208.12W,1,16,0.65,625.3,M,-29.4,M,,*4W00A$GNGGA,003134.000,3520.8181,N,11748.4935,W\r\n"2022-06-04 00:31:37
"||||||||||||-55,6969,$GNRMC,003134.000,A,3520.8181,N,11748.4935,W,0.10,0.13,040622,$GNGGA,003135.000,3520.8180,N,11748.4935,W,1,16,0.65,625\r\n"2022-06-04 00:31:37
"||||||||||||-45,6969,$ACCEL,0.30,0.42,9.94,$ALT,679.75,-208.095,W,0.10,0.13,040622,$GNGGA,003135.000,3520.8180,N,11748.4935,W,1,16,0.65,625\r\n"2022-06-04 00:31:38
"||||||||||||-44,6969,$GNRMC,003135.31131,,\r$GNGGA,003136.000,3520.8180,N,11748.4935,W,1,16,0.65,625.5,M,2,G005041,,\r$GNGGA,003137.000,3520.\r\n"2022-06-04 00:31:38
"||||||||||||-48,6969,$ACCEL,0.30,0.41,9.93,$ALT,680.09,-208.21\r\n"2022-06-04 00:31:39
"||||||||||||-50,6969,$GNRMC,003137.000,A,3520.8181,N,11748.4932$GNGGA,003138.000,3520.8181,N,11748.4932,W,1,16,0.65,625.7,M,-29.4,M,,*4A\r\u0001\r\n"2022-06-04 00:31:39
"||||||||||||-54,6969,$ACCEL,0.32,0.40,9.91,$ALT,679.69,-208.08\r\n"2022-06-04 00:31:40
"||||||||||||-54,6969,$GNRMC,003138.000,A,3520.8181,N,11748.3.32C$GNGGA,003139.000,3520.8180,N,11748.4932,W,1,16,0.65,625.8,M,-29.4,M,,*45\r\r\n"2022-06-04 00:31:40
"||||||||||||-54,6969,$ACCEL,0.31,0.40,9.92,$ALT,680.13,-208.212C$GNGGA,003139.000,3520.8180,N,11748.4932,W,1,16,0.65,625.8,M,-29.4,M,,*45\r\r\n"2022-06-04 00:31:41
"||||||||||||-55,6969,$GNRMC,00310504,,4,$GNGGA,003140.000,3520.8180,N,11748.4931,W,1,16,0.65,625.8,M,-29.4,M,,*48\r\r\n"2022-06-04 00:31:41
"||||||||||||-56,6969,$ACCEL,0.34,0.41,9.94,$ALT,679.65,-208.07.8180,N,11748.4931,W,1,16,0.65,625.8,M,-29.4,M,,*48\r\r\n"2022-06-04 00:31:42
"||||||||||||-57,6969,$GNRMC,003140.000,A,$GNGGA,003141.000,3520.8181,N,11748.4930,W,1,17,0.62,625.8,M,-29.4,M,,*4F\r\r\n"2022-06-04 00:31:42
"||||||||||||-56,6969,$ACCEL,0.32,0.40,9.93,$ALT,680.04,-208.210.8181,N,11748.4930,W,1,17,0.62,625.8,M,-29.4,M,,*4F\r\r\n"2022-06-04 00:31:43
"||||||||||||-54,6969,$GNRMC,003141.000,A,3520.8181,N,11748.4930$GNGGA,003142.000,3520.8181,N,11748.4930,W,1,17,0.62,625.9,M,-29.4,M,,*4D\r\u0001\r\n"2022-06-04 00:31:43
"||||||||||||-55,6969,$ACCEL,0.30,0.39,9.92,$ALT,679.44,-208.030$GNGGA,003142.000,3520.8181,N,11748.4930,W,1,17,0.62,625.9,M,-29.4,M,,*4D\r\u0001\r\n"2022-06-04 00:31:44
"||||||||||||-57,6969,$GNRMC,003142.000,A,3520.8181,N,11748.431,,$GNGGA,003143.000,3520.8183,N,11748.4931,W,1,17,0.62,625.9,M,-29.4,M,,*4F\r\r\n"2022-06-04 00:31:45
"||||||||||||-57,6969,$ACCEL,0.31,0.41,9.92,$ALT,679.77,-208.13,,$GNGGA,003143.000,3520.8183,N,11748.4931,W,1,17,0.62,625.9,M,-29.4,M,,*4F\r\r\n"2022-06-04 00:31:45
"||||||||||||-57,6969,$GNRMC,00314,0N.,.6$GNGGA,003144.000,3520.8183,N,11748.4930,W,1,17,0.62,625.9,M,-29.4,M,,*49\r62,625.9,M,-29.4,M,,*4F\r\r\n"2022-06-04 00:31:46
"||||||||||||-54,6969,$ACCEL,0.30,0.39,9.92,$ALT,679.57,-208.07.8183,N,11748.4930,W,1,17,0.62,625.9,M,-29.4,M,,*49\r62,625.9,M,-29.4,M,,*4F\r\r\n"2022-06-04 00:31:46
"||||||||||||-55,6969,$GNRMC,003144.000,A.$GNGGA,003145.000,3520.8184,N,11748.4930,W,1,17,0.62,626.0,M,-29.4,M,,*45\r\r\n"2022-06-04 00:31:46
"||||||||||||-55,6969,$ACCEL,0.31,0.40,9.92,$ALT,680.06,-208.210.8184,N,11748.4930,W,1,17,0.62,626.0,M,-29.4,M,,*45\r\r\n"2022-06-04 00:31:47
"||||||||||||-55,6969,$GNRMC,003145.000,A,3520.,40126$GNGGA,003146.000,3520.8184,N,11748.4931,W,1,17,0.62,626.0,M,-29.4,M,,*47\r\r\n"2022-06-04 00:31:48
"||||||||||||-55,6969,$ACCEL,0.33,0.41,9.92,$ALT,680.32,-208.30\r\n"2022-06-04 00:31:48
"||||||||||||-54,6969,$GNRMC,003146A8190126$GNGGA,003147.000,3520.8184,N,11748.4933,W,1,16,0.65,626.1,M,-29.4,M,,*43\r\r\n"2022-06-04 00:31:48
"||||||||||||-56,6969,$ACCEL,0.31,0.41,9.94,$ALT,679.92,-208.1920.8184,N,11748.4933,W,1,16,0.65,626.1,M,-29.4,M,,*43\r\r\n"2022-06-04 00:31:49
"||||||||||||-55,6969,$GNRMC,00314,.,4016*$GNGGA,003148.000,3520.8185,N,11748.4936,W,1,16,0.65,626.3,M,-29.4,M,,*4A\r\r\r\n"2022-06-04 00:31:49
"||||||||||||-56,6969,$ACCEL,0.31,0.42,9.93,$ALT,679.84,-208.16\r\n"2022-06-04 00:31:50
"||||||||||||-56,6969,$GNRMC,003148.000,0N.,.0A$GNGGA,003149.000,3520.8184,N,11748.4938,W,1,17,0.62,626.4,M,-29.4,M,,*45\r`\r\n"2022-06-04 00:31:50
"||||||||||||-58,6969,$ACCEL,0.32,0.39,9.93,$ALT,679.75,-208.13\r\n"2022-06-04 00:31:51
"||||||||||||-57,6969,$GNRMC,003149.000,A819.326$GNGGA,003150.000,3520.8184,N,11748.4939,W,1,17,0.62,626.5,M,-29.4,M,,*4D\r\r\n"2022-06-04 00:31:51
"||||||||||||-58,6969,$ACCEL,0.32,0.40,9.92,$ALT,679.66,-208.0800,3520.8184,N,11748.4939,W,1,17,0.62,626.5,M,-29.4,M,,*4D\r\r\n"2022-06-04 00:31:52
"||||||||||||-58,6969,$GNRMC,003150.,0N.,.6*$GNGGA,003151.000,3520.8183,N,11748.4941,W,1,17,0.62,626.7,M,-29.4,M,,*46\r*4D\r\r\n"2022-06-04 00:31:52
"||||||||||||-58,6969,$ACCEL,0.30,0.41,9.94,$ALT,680.00,-208.19520.8183,N,11748.4941,W,1,17,0.62,626.7,M,-29.4,M,,*46\r*4D\r\r\n"2022-06-04 00:31:53
"||||||||||||-58,6969,$GNRMC,003151.000,1141,,4$GNGGA,003152.000,3520.8184,N,11748.4943,W,1,17,0.62,626.7,M,-29.4,M,,*40\r`\r\n"2022-06-04 00:31:53
"||||||||||||-57,6969,$ACCEL,0.30,0.41,9.94,$ALT,679.92,-208.160,3520.8184,N,11748.4943,W,1,17,0.62,626.7,M,-29.4,M,,*40\r`\r\n"2022-06-04 00:31:54
"||||||||||||-58,6969,$GNRMC,003152.000,544,,4,T,679.92,-208.\r\n"2022-06-04 00:31:54
"||||||||||||-58,6969,$ACCEL,0.29,0.40,9.93,$ALT,679.85,-208.15\r\n"2022-06-04 00:31:54
"||||||||||||-57,6969,$GNGGA,003153.000,3520.8183,N,11748.4944,W,1,17,0.62,626.8,M,-29.4,M,,*4E\r\r\n"2022-06-04 00:31:55
"||||||||||||-57,6969,$ACCEL,0.32,0.40,9.93,$ALT,680.21,-208.25\r\n"2022-06-04 00:31:55
"||||||||||||-57,6969,$GNRMC,003153.,1141,,4$GNGGA,003154.000,3520.8183,N,11748.4945,W,1,17,0.62,626.8,M,-29.4,M,,*48\r\r\n"2022-06-04 00:31:56
"||||||||||||-56,6969,$ACCEL,0.32,0.40,9.93,$ALT,680.18,-208.23520.8183,N,11748.4945,W,1,17,0.62,626.8,M,-29.4,M,,*48\r\r\n"2022-06-04 00:31:56
"||||||||||||-56,6969,$GNRMC,003154.000534,,4,LT,680.18,-208.23520.8183,N,11748.4945,W,1,17,0.62,626.8,M,-29.4,M,,*48\r\r\n"2022-06-04 00:31:56
"||||||||||||-55,6969,$ACCEL,0.32,0.39,9.90,$ALT,679.99,-208.18\r\n"2022-06-04 00:31:57
"||||||||||||-60,6969,$GNGGA,003156.000,3520.8184,N,11748.4946,W,1,16,0.66,626.9,M,9*G002,8W04,$GNGGA,003157.000,3520.8184,N,11748.4947,W,1, \r\n"2022-06-04 00:31:58
"||||||||||||-58,6969,$ACCEL,0.30,0.40,9.90,$ALT,680.78,-208.39W,1,16,0.66,626.9,M,9*G002,8W04,$GNGGA,003157.000,3520.8184,N,11748.4947,W,1, \r\n"2022-06-04 00:32:00
"||||||||||||-58,6969,$GNRMC,003157.000,A,350N.W00A$GNGGA,003158.000,3520.8184,N,11748.4947,W,1,17,0.62,626.8,M,-29.4,M,,*4,4,.6*$GNGGA,0031 \r\n"2022-06-04 00:32:00
"||||||||||||-57,6969,$ACCEL,0.32,0.41,9.90,$ALT,680.18,-208.198.000,3520.8184,N,11748.4947,W,1,17,0.62,626.8,M,-29.4,M,,*4,4,.6*$GNGGA,0031 \r\n"2022-06-04 00:32:01
"||||||||||||-57,6969,$GNRMC,003159.000,A$GNGGA,003200.000,3520.8183,N,11748.4948,W,1,16,0.65,627.0,M,-29.4,M,,*48\r\r\n"2022-06-04 00:32:01
"||||||||||||-57,6969,$ACCEL,0.30,0.39,9.92,$ALT,680.31,-208.23.8183,N,11748.4948,W,1,16,0.65,627.0,M,-29.4,M,,*48\r\r\n"2022-06-04 00:32:02
"||||||||||||-58,6969,$GNRMC,003200.000,A,3520.8183,N,11748.4948,W,0126$GNGGA,003201.000,3520.8184,N,11748.4949,W,1,16,0.65,627.1,M,-29.4,M, \r\n"2022-06-04 00:32:02
"||||||||||||-57,6969,$ACCEL,0.31,0.40,9.91,$ALT,680.18,-208.188,W,0126$GNGGA,003201.000,3520.8184,N,11748.4949,W,1,16,0.65,627.1,M,-29.4,M, \r\n"2022-06-04 00:32:03
"||||||||||||-59,6969,$GNRMC,003201,1141,,D$GNGGA,003202.000,3520.8184,N,11748.4949,W,1,16,0.65,627.1,M,-29.4,M,,*4D\r\r\n"2022-06-04 00:32:03
"||||||||||||-51,6969,$ACCEL,0.32,0.41,9.92,$ALT,680.26,-208.2020.8184,N,11748.4949,W,1,16,0.65,627.1,M,-29.4,M,,*4D\r\r\n"2022-06-04 00:32:04
"||||||||||||-49,6969,$GNRMC,003202.000,A,3520.8184,N,117$GNGGA,003203.000,3520.8184,N,11748.4949,W,1,16,0.65,627.1,M,-29.4,M,,*4C\r\r\n"2022-06-04 00:32:04
"||||||||||||-54,6969,$ACCEL,0.29,0.41,9.92,$ALT,680.19,-208.19\r\n"2022-06-04 00:32:05
"||||||||||||-56,6969,$GNRMC,003203.000,A$GNGGA,003204.000,3520.8185,N,11748.4951,W,1,16,0.65,627.1,M,-29.4,M,,*43\r\r\n"2022-06-04 00:32:05
"||||||||||||-54,6969,$ACCEL,0.32,0.40,9.93,$ALT,680.27,-208.24\r\n"2022-06-04 00:32:06
"||||||||||||-53,6969,$GNRMC,003204.000,A,3520.8185,N,11748.4951,W,0.17$GNGGA,003205.000,3520.8185,N,11748.4951,W,1,16,0.65,627.1,M,-29.4,M, \r\n"2022-06-04 00:32:06
"||||||||||||-55,6969,$ACCEL,0.32,0.42,9.94,$ALT,679.34,-207.98\r\n"2022-06-04 00:32:07
"||||||||||||-53,6969,$GNRMC,003205.00,.N.,$GNGGA,003206.000,3520.8186,N,11748.4951,W,1,16,0.65,627.2,M,-29.4,M,,*41\r\r\n"2022-06-04 00:32:07
"||||||||||||-57,6969,$ACCEL,0.33,0.40,9.93,$ALT,679.93,-208.1520.8186,N,11748.4951,W,1,16,0.65,627.2,M,-29.4,M,,*41\r\r\n"2022-06-04 00:32:08
"||||||||||||-57,6969,$GNRMC,003206.000,A,30N.,.6*$GNGGA,003207.000,3520.8186,N,11748.4951,W,1,16,0.65,627.2,M,-29.4,M,,*40\r @B\u000f\r\n"2022-06-04 00:32:08
"||||||||||||-57,6969,$ACCEL,0.33,0.41,9.94,$ALT,680.07,-208.20\r\n"2022-06-04 00:32:09
"||||||||||||-57,6969,$GNRMC,003207.038715,,\r$GNGGA,003208.000,3520.8186,N,11748.4952,W,1,16,0.65,627.2,M,-29.4,M,,*4C\r\r\n"2022-06-04 00:32:09
"||||||||||||-56,6969,$ACCEL,0.31,0.42,9.94,$ALT,680.16,-208.223520.8186,N,11748.4952,W,1,16,0.65,627.2,M,-29.4,M,,*4C\r\r\n"2022-06-04 00:32:10
"||||||||||||-56,6969,$GNRMC,003208.000,2,8W00,$GNGGA,003209.000,3520.8186,N,11748.4952,W,1,16,0.65,627.2,M,-29.4,M,,*4D\r,\u0001\r\n"2022-06-04 00:32:10
"||||||||||||-57,6969,$ACCEL,0.31,0.41,9.95,$ALT,680.07,-208.200,3520.8186,N,11748.4952,W,1,16,0.65,627.2,M,-29.4,M,,*4D\r,\u0001\r\n"2022-06-04 00:32:11
"||||||||||||-57,6969,$GNRMC,00320A8190126$GNGGA,003210.000,3520.8186,N,11748.4952,W,1,16,0.65,627.2,M,-29.4,M,,*45\r,*4D\r,\u0001\r\n"2022-06-04 00:32:11
"||||||||||||-56,6969,$ACCEL,0.30,0.41,9.93,$ALT,680.01,-208.18\r\n"2022-06-04 00:32:12
"||||||||||||-57,6969,$GNRMC,003210.000,1151320$GNGGA,003211.000,3520.8187,N,11748.4954,W,1,17,0.62,627.2,M,-29.4,M,,*45\r`\r\n"2022-06-04 00:32:12
"||||||||||||-54,6969,$ACCEL,0.31,0.41,9.93,$ALT,680.14,-208.230,3520.8187,N,11748.4954,W,1,17,0.62,627.2,M,-29.4,M,,*45\r`\r\n"2022-06-04 00:32:13
"||||||||||||-55,6969,$GNRMC,003211.0A819.327$GNGGA,003212.000,3520.8187,N,11748.4955,W,1,16,0.62,627.2,M,-29.4,M,,*46\r5\r`\r\n"2022-06-04 00:32:13
"||||||||||||-55,6969,$ACCEL,0.31,0.41,9.93,$ALT,680.08,-208.20\r\n"2022-06-04 00:32:15
"||||||||||||-55,6969,$GNRMC,003212.000574,,4,LT,680.08,-208.\r\n"2022-06-04 00:32:15
"||||||||||||-56,6969,$ACCEL,0.30,0.41,9.92,$ALT,680.12,-208.24\r\n"2022-06-04 00:32:15
"||||||||||||-56,6969,$ACCEL,0.32,0.41,9.94,$ALT,680.02,-208.22\r\n"2022-06-04 00:32:16
"||||||||||||-56,6969,$GNRMC,003213.000574,,4,$GNGGA,003214.000,3520.8187,N,11748.4958,W,1,16,0.62,627.3,M,-29.4,M,,*4C\r\r\n"2022-06-04 00:32:16
"||||||||||||-56,6969,$ACCEL,0.31,0.41,9.95,$ALT,679.96,-208.19\r\n"2022-06-04 00:32:17
"||||||||||||-56,6969,$GNRMC,003214.00A819.126$GNGGA,003215.000,3520.8186,N,11748.4958,W,1,16,0.62,627.2,M,-29.4,M,,*4D\r\r\n"2022-06-04 00:32:17
"||||||||||||-56,6969,$ACCEL,0.32,0.41,9.93,$ALT,680.11,-208.24\r\n"2022-06-04 00:32:18
"||||||||||||-57,6969,$GNRMC,003215.000,2,8W00A$GNGGA,003216.000,3520.8186,N,11748.4959,W,1,16,0.62,627.2,M,-2M\r\n"2022-06-04 00:32:18
"||||||||||||-56,6969,$ACCEL,0.32,0.42,9.94,$ALT,680.60,-208.400,3520.8186,N,11748.4959,W,1,16,0.62,627.2,M,-2M\r\n"2022-06-04 00:32:19
"||||||||||||-57,6969,,.387.32C$GNGGA,003217.000,3520.8185,N,11748.4958,W,1,16,0.62,627.2,M,-29.4,M,,*4C\r,M,-2M\r\n"2022-06-04 00:32:19
"||||||||||||-55,6969,$ACCEL,0.32,0.41,9.94,$ALT,680.17,-208.26748.4958,W,1,16,0.62,627.2,M,-29.4,M,,*4C\r,M,-2M\r\n"2022-06-04 00:32:20
"||||||||||||-56,6969,$GNRMC,003217.000,A,3554,,4,$GNGGA,003218.000,3520.8185,N,11748.4959,W,1,16,0.62,627.2,M,-29.4,M,,*42\r @B\u000f\r\n"2022-06-04 00:32:20
"||||||||||||-55,6969,$ACCEL,0.32,0.41,9.93,$ALT,679.95,-208.19.000,3520.8185,N,11748.4959,W,1,16,0.62,627.2,M,-29.4,M,,*42\r @B\u000f\r\n"2022-06-04 00:32:21
"||||||||||||-54,6969,$GNRMC,003218.000,8791,,\r$GNGGA,003219.000,3520.8183,N,11748.4960,W,1,16,0.62,627.2,M,-29.4,M,,*4F\r42\r @B\u000f\r\n"2022-06-04 00:32:21
"||||||||||||-55,6969,$ACCEL,0.32,0.41,9.93,$ALT,680.39,-208.320,3520.8183,N,11748.4960,W,1,16,0.62,627.2,M,-29.4,M,,*4F\r42\r @B\u000f\r\n"2022-06-04 00:32:21
"||||||||||||-55,6969,$GNRMC,003219.000,34,,0,LT,680.39,-208.320,3520.8183,N,11748.4960,W,1,16,0.62,627.2,M,-29.4,M,,*4F\r42\r @B\u000f\r\n"2022-06-04 00:32:22
"||||||||||||-56,6969,$ACCEL,0.31,0.41,9.93,$ALT,680.32,-208.30\r\n"2022-06-04 00:32:22
"||||||||||||-55,6969,$GNRMC,003220.000,A0N.,00A$GNGGA,003221.000,3520.8181,N,11748.4962,W,1,16,0.62,627.2,M,-29.4,M,,*44\r\r\n"2022-06-04 00:32:23
"||||||||||||-55,6969,$ACCEL,0.32,0.41,9.94,$ALT,680.42,-208.36\r\n"2022-06-04 00:32:24
"||||||||||||-54,6969,$GNRMC,003221.000,A31160,,\r$GNGGA,003222.000,3520.8181,N,11748.4963,W,1,16,0.62,627.2,M,-29.4,M,,*46\r\r\n"2022-06-04 00:32:24
"||||||||||||-54,6969,$ACCEL,0.30,0.41,9.93,$ALT,680.38,-208.36000,3520.8181,N,11748.4963,W,1,16,0.62,627.2,M,-29.4,M,,*46\r\r\n"2022-06-04 00:32:26
"||||||||||||-53,6969,$GNRMC,003222.0A8,40126$GNGGA,003223.000,3520.8182,N,11748.4962,W,1,16,0.62,627.2,M,-9*N002,8W00,$GNGGA,003224.000,352 \r\n"2022-06-04 00:32:26
"||||||||||||-55,6969,$ACCEL,0.30,0.42,9.94,$ALT,680.40,-208.37\r\n"2022-06-04 00:32:27
"||||||||||||-55,6969,$GNRMC,003224.000,A,352,8W00A$GNGGA,003225.000,3520.8182,N,11748.4961,W,1,16,0.62,627.2,M,-29.4,M,,*40\r@B\u000f\r\n"2022-06-04 00:32:27
"||||||||||||-57,6969,$ACCEL,0.32,0.40,9.95,$ALT,680.24,-208.32\r\n"2022-06-04 00:32:28
"||||||||||||-57,6969,$GNRMC,003225.00A8,40126$GNGGA,003226.000,3520.8182,N,11748.4960,W,1,16,0.62,627.2,M,-29.4,M,,*42\r\r\n"2022-06-04 00:32:28
"||||||||||||-57,6969,$ACCEL,0.31,0.41,9.92,$ALT,680.33,-208.34,3520.8182,N,11748.4960,W,1,16,0.62,627.2,M,-29.4,M,,*42\r\r\n"2022-06-04 00:32:29
"||||||||||||-57,6969,$GNRMC,003226.0002,8,,4,$GNGGA,003227.000,3520.8181,N,11748.4959,W,1,16,0.62,627.2,M,-29.4,M,,*4A\r\r\n"2022-06-04 00:32:29
"||||||||||||-57,6969,$ACCEL,0.33,0.41,9.93,$ALT,680.22,-208.32,3520.8181,N,11748.4959,W,1,16,0.62,627.2,M,-29.4,M,,*4A\r\r\n"2022-06-04 00:32:30
"||||||||||||-57,6969,$GNRMC,003227.000,A,3520.8181,N,11748.4959,W,0.$GNGGA,003228.000,3520.8181,N,11748.4957,W,1,16,0.62,627.1,M,-29.4,M,,* \r\n"2022-06-04 00:32:30
"||||||||||||-55,6969,$ACCEL,0.31,0.41,9.93,$ALT,680.26,-208.349,W,0.$GNGGA,003228.000,3520.8181,N,11748.4957,W,1,16,0.62,627.1,M,-29.4,M,,* \r\n"2022-06-04 00:32:31
"||||||||||||-55,6969,$GNRMC,003228.000,A,3520.8181$GNGGA,003229.000,3520.8181,N,11748.4957,W,1,16,0.62,627.1,M,-29.4,M,,*49\r\r\n"2022-06-04 00:32:31
"||||||||||||-55,6969,$ACCEL,0.30,0.42,9.93,$ALT,680.40,-208.399.000,3520.8181,N,11748.4957,W,1,16,0.62,627.1,M,-29.4,M,,*49\r\r\n"2022-06-04 00:32:32
"||||||||||||-55,6969,$GNRMC,003229.000,A,3520$GNGGA,003230.000,3520.8181,N,11748.4957,W,1,16,0.62,627.1,M,-29.4,M,,*41\r\r\n"2022-06-04 00:32:32
"||||||||||||-55,6969,$ACCEL,0.31,0.41,9.94,$ALT,680.41,-208.41,3520.8181,N,11748.4957,W,1,16,0.62,627.1,M,-29.4,M,,*41\r\r\n"2022-06-04 00:32:33
"||||||||||||-54,6969,$GNRMC,003230.000,A,3520$GNGGA,003231.000,3520.8181,N,11748.4957,W,1,16,0.62,627.1,M,-29.4,M,,*40\r\r\n"2022-06-04 00:32:33
"||||||||||||-54,6969,$ACCEL,0.31,0.41,9.93,$ALT,680.39,-208.40\r\n"2022-06-04 00:32:34
"||||||||||||-55,6969,$GNRMC,003231.000,A,3520.8N.,.6*$GNGGA,003232.000,3520.8181,N,11748.4957,W,1,16,0.62,627.1,M,-29.4,M,,*43\r\r\n"2022-06-04 00:32:34
"||||||||||||-55,6969,$ACCEL,0.29,0.40,9.95,$ALT,680.30,-208.383232.000,3520.8181,N,11748.4957,W,1,16,0.62,627.1,M,-29.4,M,,*43\r\r\n"2022-06-04 00:32:35
"||||||||||||-56,6969,$GNRMC,0032,.,4016*$GNGGA,003233.000,3520.8181,N,11748.4957,W,1,16,0.62,627.1,M,-29.4,M,,*42\r\r\n"2022-06-04 00:32:35
"||||||||||||-55,6969,$ACCEL,0.31,0.41,9.93,$ALT,680.45,-208.45.8181,N,11748.4957,W,1,16,0.62,627.1,M,-29.4,M,,*42\r\r\n"2022-06-04 00:32:36
"||||||||||||-54,6969,$GNRMC,003233.03140126$GNGGA,003234.000,3520.8181,N,11748.4956,W,1,17,0.62,627.0,M,-29.4,M,,*44\r\r\n"2022-06-04 00:32:36
"||||||||||||-57,6969,$ACCEL,0.31,0.41,9.95,$ALT,679.72,-208.22520.8181,N,11748.4956,W,1,17,0.62,627.0,M,-29.4,M,,*44\r\r\n"2022-06-04 00:32:37
"||||||||||||-56,6969,$GNRMC,003234.000,5751,,\r$GNGGA,003235.000,3520.8181,N,11748.4956,W,1,17,0.62,627.0,M,-29.4,M,,*45\r`\r\n"2022-06-04 00:32:37
"||||||||||||-57,6969,$ACCEL,0.30,0.41,9.93,$ALT,679.87,-208.260,3520.8181,N,11748.4956,W,1,17,0.62,627.0,M,-29.4,M,,*45\r`\r\n"2022-06-04 00:32:38
"||||||||||||-54,6969,$GNRMC,003235.000A8.,.6*$GNGGA,003236.000,3520.8181,N,11748.4955,W,1,17,0.62,627.0,M,-29.4,M,,*45\r\r`\r\n"2022-06-04 00:32:38
"||||||||||||-53,6969,$ACCEL,0.32,0.40,9.94,$ALT,679.61,-208.18\r\n"2022-06-04 00:32:39
"||||||||||||-53,6969,$GNRMC,003236.00,115.6*$GNGGA,003237.000,3520.8181,N,11748.4955,W,1,17,0.62,627.0,M,-29.4,M,,*44\r\r\n"2022-06-04 00:32:39
"||||||||||||-53,6969,$ACCEL,0.32,0.40,9.94,$ALT,680.28,-208.39\r\n"2022-06-04 00:32:39
"||||||||||||-53,6969,$GNRMC,003237.000,A,0N,,4,,680.28,-208.39\r\n"2022-06-04 00:32:39
"||||||||||||-54,6969,$ACCEL,0.32,0.40,9.94,$ALT,680.23,-208.36\r\n"2022-06-04 00:32:40
"||||||||||||-55,6969,$GNGGA,003238.000,3520.8181,N,11748.4954,W,1,16,0.66,627.0,M,-29.4,M,,*4F\r\r\n"2022-06-04 00:32:40
"||||||||||||-56,6969,$ACCEL,0.30,0.40,9.93,$ALT,680.01,-208.29W,1,16,0.66,627.0,M,-29.4,M,,*4F\r\r\n"2022-06-04 00:32:41
"||||||||||||-55,6969,$GNRMC,003238.0514,,,\r$GNGGA,003239.000,3520.8181,N,11748.4953,W,1,17,0.62,627.0,M,-29.4,M,,*4C\r\r\n"2022-06-04 00:32:41
"||||||||||||-54,6969,$ACCEL,0.30,0.40,9.94,$ALT,680.15,-208.33520.8181,N,11748.4953,W,1,17,0.62,627.0,M,-29.4,M,,*4C\r\r\n"2022-06-04 00:32:42
"||||||||||||-54,6969,$GNRMC,003239.000,1151,6$GNGGA,003240.000,3520.8181,N,11748.4953,W,1,17,0.62,627.0,M,-29.4,M,,*42\r\r\n"2022-06-04 00:32:42
"||||||||||||-54,6969,$ACCEL,0.31,0.42,9.91,$ALT,679.81,-208.24\r\n"2022-06-04 00:32:43
"||||||||||||-54,6969,$GNRMC,003240.000,A3115026$GNGGA,003241.000,3520.8181,N,11748.4952,W,1,17,0.62,627.0,M,-M\u000f\r\n"2022-06-04 00:32:43
"||||||||||||-53,6969,$ACCEL,0.31,0.42,9.91,$ALT,679.29,-208.0600,3520.8181,N,11748.4952,W,1,17,0.62,627.0,M,-M\u000f\r\n"2022-06-04 00:32:44
"||||||||||||-53,6969,,.31150,,\r$GNGGA,003242.000,3520.8181,N,11748.4953,W,1,16,0.66,627.0,M,-29.4,M,,*45\r,M,-M\u000f\r\n"2022-06-04 00:32:44
"||||||||||||-55,6969,$ACCEL,0.30,0.42,9.91,$ALT,680.58,-208.451748.4953,W,1,16,0.66,627.0,M,-29.4,M,,*45\r,M,-M\u000f\r\n"2022-06-04 00:32:45
"||||||||||||-55,6969,$GNRMC,003242.000,A,3.,40126$GNGGA,003243.000,3520.8181,N,11748.4953,W,1,17,0.62,627.0,M,-29.4,M,,*41\r @B\u000f\r\n"2022-06-04 00:32:45
"||||||||||||-54,6969,$ACCEL,0.31,0.41,9.93,$ALT,680.35,-208.39\r\n"2022-06-04 00:32:46
"||||||||||||-54,6969,$GNRMC,003243.000,A,1151327$GNGGA,003244.000,3520.8182,N,11748.4954,W,1,16,0.62,627.0,M,-29.4,M,,*43\r\r\n"2022-06-04 00:32:46
"||||||||||||-55,6969,$ACCEL,0.30,0.42,9.92,$ALT,680.66,-208.46000,3520.8182,N,11748.4954,W,1,16,0.62,627.0,M,-29.4,M,,*43\r\r\n"2022-06-04 00:32:47
"||||||||||||-55,6969,$GNRMC,003244.000N.W00A$GNGGA,003245.000,3520.8183,N,11748.4954,W,1,15,0.66,627.0,M,-29.4,M,,*44\r*43\r\r\n"2022-06-04 00:32:47
"||||||||||||-54,6969,$ACCEL,0.32,0.41,9.91,$ALT,680.61,-208.443520.8183,N,11748.4954,W,1,15,0.66,627.0,M,-29.4,M,,*44\r*43\r\r\n"2022-06-04 00:32:48
"||||||||||||-54,6969,$GNRMC,003245.00038743,,\r$GNGGA,003246.000,3520.8184,N,11748.4955,W,1,15,0.65,627.1,M,-29.4,M,,*43\r`\r\n"2022-06-04 00:32:48
"||||||||||||-54,6969,$ACCEL,0.32,0.40,9.91,$ALT,680.54,-208.41\r\n"2022-06-04 00:32:49
"||||||||||||-54,6969,$GNRMC,003246.000,A.,.,.6*$GNGGA,003247.000,3520.8184,N,11748.4956,W,1,15,0.65,627.1,M,-29.4,M,,*41\r\r\n"2022-06-04 00:32:49
"||||||||||||-52,6969,$ACCEL,0.32,0.41,9.90,$ALT,680.84,-208.49\r\n"2022-06-04 00:32:50
"||||||||||||-54,6969,$GNRMC,003247.00244,,4,$GNGGA,003248.000,3520.8186,N,11748.4956,W,1,14,0.69,627.1,M,-29.4,M,,*41\r\r\n"2022-06-04 00:32:50
"||||||||||||-55,6969,$ACCEL,0.32,0.41,9.90,$ALT,681.15,-208.58\r\n"2022-06-04 00:32:50
"||||||||||||-56,6969,$GNRMC,003248.000564,20,LT,681.15,-208.58\r\n"2022-06-04 00:32:50
"||||||||||||-54,6969,$ACCEL,0.31,0.40,9.92,$ALT,681.88,-208.81\r\n"2022-06-04 00:32:51
"||||||||||||-55,6969,$GNGGA,003249.000,3520.8186,N,11748.4959,W,1,14,0.69,627.1,M,-29.4,M,,*4F\r\r\n"2022-06-04 00:32:51
"||||||||||||-55,6969,$ACCEL,0.33,0.42,9.91,$ALT,681.58,-208.71\r\n"2022-06-04 00:32:52
"||||||||||||-55,6969,$GNRMC,003249.00387910,\r$GNGGA,003250.000,3520.8186,N,11748.4961,W,1,15,0.65,627.1,M,-29.4,M,,*41\r\r\n"2022-06-04 00:32:52
"||||||||||||-55,6969,$ACCEL,0.33,0.42,9.91,$ALT,681.08,-208.56,3520.8186,N,11748.4961,W,1,15,0.65,627.1,M,-29.4,M,,*41\r\r\n"2022-06-04 00:32:53
"||||||||||||-56,6969,$GNRMC,003250.0A8190126$GNGGA,003251.000,3520.8186,N,11748.4962,W,1,15,0.63,627.1,M,-29.4,M,,*45\r\r\n"2022-06-04 00:32:53
"||||||||||||-55,6969,$ACCEL,0.31,0.41,9.91,$ALT,681.37,-208.643520.8186,N,11748.4962,W,1,15,0.63,627.1,M,-29.4,M,,*45\r\r\n"2022-06-04 00:32:53
"||||||||||||-55,6969,$GNRMC,003251.000564200,\u0018\r\n"2022-06-04 00:32:53
"||||||||||||-57,6969,$ACCEL,0.32,0.40,9.91,$ALT,680.91,-208.49\r\n"2022-06-04 00:32:55
"||||||||||||-58,6969,$GNGGA,003252.000,3520.8187,N,11748.4964,W,1,14,0.67,627.1,M,2,G002,4,,4,$GNGGA,003253.000,3520.8188,N,11748.4965,W,1,\r\n"2022-06-04 00:32:55
"||||||||||||-56,6969,$ACCEL,0.30,0.41,9.91,$ALT,681.30,-208.63\r\n"2022-06-04 00:32:56
"||||||||||||-56,6969,$GNRMC,003253.000,A,30N.,00A$GNGGA,003254.000,3520.8188,N,11748.4965,W,1,17,0.62,627.2,M,-29.4,M,,*49\r @B\u000f\r\n"2022-06-04 00:32:56
"||||||||||||-55,6969,$ACCEL,0.32,0.40,9.91,$ALT,681.31,-208.62\r\n"2022-06-04 00:32:56
"||||||||||||-55,6969,$GNRMC,003254.000,A584,,4,,681.31,-208.62\r\n"2022-06-04 00:32:56
"||||||||||||-58,6969,$ACCEL,0.31,0.41,9.92,$ALT,680.71,-208.44\r\n"2022-06-04 00:32:57
"||||||||||||-57,6969,$GNGGA,003255.000,3520.8189,N,11748.4965,W,1,17,0.62,627.2,M,-29.4,M,,*.32E$GNGGA,003256.000,3520.8189,N,11748.4969,W, \r\n"2022-06-04 00:32:58
"||||||||||||-58,6969,$ACCEL,0.32,0.41,9.92,$ALT,680.88,-208.48\r\n"2022-06-04 00:32:59
"||||||||||||-57,6969,$GNRMC,003256.000,A,3520.8189,N,11748.4969,W,0.28,0.13,040622,,F$GNGGA,003257.000,3520.8190,N,11748.4971,W,1,14,0.70,6\r\n"2022-06-04 00:32:59
"||||||||||||-59,6969,$ACCEL,0.32,0.41,9.92,$ALT,680.48,-208.35\r\n"2022-06-04 00:33:00
"||||||||||||-59,6969,$GNRMC,00325,.,4016*$GNGGA,003258.000,3520.8190,N,11748.4970,W,1,15,0.66,627.2,M,-,$00597040,\r\n"2022-06-04 00:33:00
"||||||||||||-58,6969,$ACCEL,0.32,0.41,9.93,$ALT,680.55,-208.370.8190,N,11748.4970,W,1,15,0.66,627.2,M,-,$00597040,\r\n"2022-06-04 00:33:00
"||||||||||||-59,6969,$GNGGA,003259.000,3520.8190,N,11748.4970,W,1,16,0.65,627.2,M,-29.4,M,,*4F\r\r\n"2022-06-04 00:33:01
"||||||||||||-57,6969,$ACCEL,0.30,0.42,9.92,$ALT,681.78,-208.76\r\n"2022-06-04 00:33:01
