"||||||||||||-101,6969,$ACCEL,4.54,-0.35,-8.87,$ALT,659.06,-203.96\u0005R\r\n"2022-06-04 17:49:36
"||||||||||||-97,6969,$GNRMC,174932057461,,\r$GNGGA,174933.000,3520.8637,N,11748.5476,W,2,15,0.71,629.8,M,-29.4,M,,*48\r\r\n"2022-06-04 17:49:36
"||||||||||||-103,6969,$ACCEL,4.55,-0.35,-8.88,$ALT,658.99,-203.940.8637,N,11748.5476,W,2,15,0.71,629.8,M,-29.4,M,,*48\r\r\n"2022-06-04 17:49:37
"||||||||||||-102,6969,$GNRMC,174933.,.,5,30D$GNGGA,174934.000,3520.8637,N,11748.5476,W,2,15,0.71,629.8,M,-29.4,M,,*4F\r\r\n"2022-06-04 17:49:37
"||||||||||||-105,6969,$ACCEL,4.55,-0.34,-8.88,$ALT,658.99,-203.940.8637,N,11748.5476,W,2,15,0.71,629.8,M,-29.4,M,,*4F\r\r\n"2022-06-04 17:49:38
"||||||||||||-102,6969,$GNRMC,174934.000,A,350,8W24,$GNGGA,174935.000,3520.8637,N,11748.5476,W,2,15,0.71,629.8,M,-29.4,M,,*4E\r@B\u000f\r\n"2022-06-04 17:49:38
"||||||||||||-104,6969,$ACCEL,4.54,-0.34,-8.88,$ALT,658.92,-203.92\u0001\r\n"2022-06-04 17:49:39
"||||||||||||-103,6969,$GNRMC,174935.3617082C$GNGGA,174936.000,3520.8637,N,11748.5476,W,2,15,0.71,629.8,M,-29.4,M,,*4D\r\r\n"2022-06-04 17:49:39
"||||||||||||-99,6969,$ACCEL,4.53,-0.35,-8.88,$ALT,658.94,-203.93\u0001\r\n"2022-06-04 17:49:40
"||||||||||||-102,6969,$GNRMC,174936.00,.,.,30D$GNGGA,174937.000,3520.8637,N,11748.5476,W,2,15,0.71,629.8,M,-29.4,M,,*4C\r\r\n"2022-06-04 17:49:40
"||||||||||||-107,6969,$ACCEL,4.55,-0.34,-8.88,$ALT,658.77,-203.88520.8637,N,11748.5476,W,2,15,0.71,629.8,M,-29.4,M,,*4C\r\r\n"2022-06-04 17:49:41
"||||||||||||-102,6969,$GNRMC,174937.0033763,2D$GNGGA,174938.000,3520.8637,N,11748.5476,W,2,15,0.71,629.8,M,-29.4,M,,*43\r\r\n"2022-06-04 17:49:41
"||||||||||||-103,6969,$ACCEL,4.53,-0.34,-8.86,$ALT,658.85,-203.90520.8637,N,11748.5476,W,2,15,0.71,629.8,M,-29.4,M,,*43\r\r\n"2022-06-04 17:49:42
"||||||||||||-106,6969,$GNRMC,174938.0036170820$GNGGA,174939.000,3520.8637,N,11748.5476,W,2,15,0.71,629.8,M,-29.4,M,,*42\r\r\n"2022-06-04 17:49:42
"||||||||||||-100,6969,$ACCEL,4.55,-0.34,-8.88,$ALT,659.00,-203.96520.8637,N,11748.5476,W,2,15,0.71,629.8,M,-29.4,M,,*42\r\r\n"2022-06-04 17:49:43
"||||||||||||-106,6969,$GNRMC,17493900N.,34,$GNGGA,174940.000,3520.8637,N,11748.5476,W,2,15,0.71,629.8,M,-29.4,M,,*4C\r\r\n"2022-06-04 17:49:43
"||||||||||||-99,6969,$ACCEL,4.54,-0.34,-8.87,$ALT,658.94,-203.95\u0005R\r\n"2022-06-04 17:49:44
"||||||||||||-99,6969,$GNRMC,174940.000,574,,0,\r$GNGGA,174941.000,3520.8637,N,11748.5476,W,2,15,0.71,629.8,M,-29.4,M,,*4D\r\r\n"2022-06-04 17:49:44
"||||||||||||-101,6969,$ACCEL,4.55,-0.35,-8.87,$ALT,658.93,-203.94,3520.8637,N,11748.5476,W,2,15,0.71,629.8,M,-29.4,M,,*4D\r\r\n"2022-06-04 17:49:45
"||||||||||||-102,6969,$GNRMC,174941057461,,\r$GNGGA,174942.000,3520.8637,N,11748.5476,W,2,15,0.71,629.8,M,-29.4,M,,*4E\r*4D\r\r\n"2022-06-04 17:49:45
"||||||||||||-103,6969,$ACCEL,4.54,-0.34,-8.85,$ALT,658.94,-203.940.8637,N,11748.5476,W,2,15,0.71,629.8,M,-29.4,M,,*4E\r*4D\r\r\n"2022-06-04 17:49:46
"||||||||||||-102,6969,$GNRMC,174942.00,614.825$GNGGA,174943.000,3520.8637,N,11748.5476,W,2,15,0.71,629.8,M,-29.4,M,,*4F\r\r\n"2022-06-04 17:49:46
"||||||||||||-102,6969,$ACCEL,4.53,-0.34,-8.85,$ALT,658.92,-203.93\u0001\r\n"2022-06-04 17:49:47
"||||||||||||-100,6969,$GNRMC,174943.0,.,50.6*$GNGGA,174944.000,3520.8637,N,11748.5476,W,2,15,0.71,629.8,M,-29.4,M,,*48\r\r\n"2022-06-04 17:49:47
"||||||||||||-104,6969,$ACCEL,4.54,-0.34,-8.86,$ALT,659.03,-203.97\u0001\r\n"2022-06-04 17:49:48
"||||||||||||-103,6969,$GNRMC,174944.03317082B$GNGGA,174945.000,3520.8637,N,11748.5476,W,2,15,0.71,629.8,M,-29.4,M,,*49\r\r\n"2022-06-04 17:49:48
"||||||||||||-101,6969,$ACCEL,4.56,-0.34,-8.87,$ALT,658.91,-203.94\u0005R\r\n"2022-06-04 17:49:49
"||||||||||||-98,6969,$GNRMC,174945.0,.,50.6*$GNGGA,174946.000,3520.8637,N,11748.5476,W,2,15,0.71,629.8,M,-29.4,M,,*4A\r\r\n"2022-06-04 17:49:49
"||||||||||||-100,6969,$ACCEL,4.54,-0.35,-8.87,$ALT,658.64,-203.85\u0001\r\n"2022-06-04 17:49:50
"||||||||||||-101,6969,$GNRMC,174946.000,617.825$GNGGA,174947.000,3520.8637,N,11748.5476,W,2,15,0.71,629.8,M,-29.4,M,,*4B\r`\r\n"2022-06-04 17:49:50
"||||||||||||-105,6969,$ACCEL,4.54,-0.34,-8.87,$ALT,658.77,-203.903520.8637,N,11748.5476,W,2,15,0.71,629.8,M,-29.4,M,,*4B\r`\r\n"2022-06-04 17:49:51
"||||||||||||-114,6969,$GNRMC,174947.,.,50.0D$GNGGA,174948.000,3520.8637,N,11748.5476,W,2,15,0.71,629.8,M,-29.4,M,,*44\r\r\n"2022-06-04 17:49:51
"||||||||||||-104,6969,$ACCEL,4.55,-0.35,-8.87,$ALT,658.88,-203.93\u0001\r\n"2022-06-04 17:49:52
"||||||||||||-100,6969,$GNRMC,174948.000A8150.6*$GNGGA,174949.000,3520.8637,N,11748.5476,W,2,15,0.71,629.8,M,-29.4,M,,*45\r`\r\n"2022-06-04 17:49:52
"||||||||||||-102,6969,$ACCEL,4.54,-0.34,-8.87,$ALT,658.96,-203.963520.8637,N,11748.5476,W,2,15,0.71,629.8,M,-29.4,M,,*45\r`\r\n"2022-06-04 17:49:53
"||||||||||||-103,6969,$GNRMC,174949.0000N.,30,$GNGGA,174950.000,3520.8637,N,11748.5476,W,2,15,0.71,629.8,M,-29.4,M,,*4D\r\r\n"2022-06-04 17:49:53
"||||||||||||-107,6969,$ACCEL,4.55,-0.34,-8.87,$ALT,658.92,-203.94520.8637,N,11748.5476,W,2,15,0.71,629.8,M,-29.4,M,,*4D\r\r\n"2022-06-04 17:49:54
"||||||||||||-107,6969,$GNRMC,174950.0,814.825$GNGGA,174951.000,3520.8637,N,11748.5476,W,2,15,0.71,629.8,M,-29.4,M,,*4C\r\r\n"2022-06-04 17:49:54
"||||||||||||-108,6969,$ACCEL,4.55,-0.34,-8.87,$ALT,658.86,-203.9320.8637,N,11748.5476,W,2,15,0.71,629.8,M,-29.4,M,,*4C\r\r\n"2022-06-04 17:49:56
"||||||||||||-108,6969,$GNRMC,174951.0A8,50.6*$GNGGA,174952.000,3520.8637,N,11748.5476,W,2,15,0.71,629.8,M,-29.4,M,,*4F\r\r\n"2022-06-04 17:49:56
"||||||||||||-105,6969,$ACCEL,4.54,-0.34,-8.88,$ALT,658.74,-203.90\u0001\r\n"2022-06-04 17:49:57
"||||||||||||-102,6969,$GNRMC,174952.00A814.86*$GNGGA,174953.000,3520.8637,N,11748.5476,W,2,15,0.71,629.8,M,-29.4,M,,*4E\r\r\n"2022-06-04 17:49:57
"||||||||||||-98,6969,$ACCEL,4.54,-0.34,-8.88,$ALT,658.69,-203.87520.8637,N,11748.5476,W,2,15,0.71,629.8,M,-29.4,M,,*4E\r\r\n"2022-06-04 17:49:57
"||||||||||||-99,6969,$GNRMC,174953.002,8,,0,,$ALT,658.69,-203.87520.8637,N,11748.5476,W,2,15,0.71,629.8,M,-29.4,M,,*4E\r\r\n"2022-06-04 17:49:57
"||||||||||||-105,6969,$ACCEL,4.54,-0.34,-8.86,$ALT,658.73,-203.89\u0001\r\n"2022-06-04 17:49:58
"||||||||||||-103,6969,$GNRMC,174954.033761,,A$GNGGA,174955.000,3520.8637,N,11748.5476,W,2,15,0.71,629.8,M,-29.4,M,,*48\r\r\n"2022-06-04 17:49:59
"||||||||||||-98,6969,$ACCEL,4.54,-0.34,-8.89,$ALT,658.69,-203.89\u0001\r\n"2022-06-04 17:50:00
"||||||||||||-98,6969,$GNRMC,174955.0033760,2A$GNGGA,174956.000,3520.8637,N,11748.5476,W,2,15,0.71,629.8,M,-29.4,M,,*4B\r\r\n"2022-06-04 17:50:00
"||||||||||||-101,6969,$ACCEL,4.54,-0.34,-8.89,$ALT,658.59,-203.85520.8637,N,11748.5476,W,2,15,0.71,629.8,M,-29.4,M,,*4B\r\r\n"2022-06-04 17:50:00
"||||||||||||-102,6969,$GNRMC,174956.002,8W20,,$ALT,658.59,-203.85520.8637,N,11748.5476,W,2,15,0.71,629.8,M,-29.4,M,,*4B\r\r\n"2022-06-04 17:50:00
"||||||||||||-101,6969,$ACCEL,4.54,-0.34,-8.88,$ALT,658.98,-203.98520.8637,N,11748.5476,W,2,15,0.71,629.8,M,-29.4,M,,*4B\r\r\n"2022-06-04 17:50:02
"||||||||||||-101,6969,$GNGGA,174957.000,3520.8637,N,11748.5476,W,2,15,0.71,629.8,M,9*N057461,,\r$GNGGA,174958.000,3520.8637,N,11748.5476,W,2, \r\n"2022-06-04 17:50:02
"||||||||||||-101,6969,$GNRMC,174959.0033770827$GNGGA,175000.000,3520.8637,N,11748.5476,W,2,15,0.71,629.8,M,-29.4,M,,*40\r$GNGGA,175001.000,35 \r\n"2022-06-04 17:50:04
"||||||||||||-101,6969,$ACCEL,4.54,-0.34,-8.87,$ALT,658.81,-203.93520.8637,N,11748.5476,W,2,15,0.71,629.8,M,-29.4,M,,*40\r$GNGGA,175001.000,35 \r\n"2022-06-04 17:50:05
"||||||||||||-102,6969,$GNRMC,175001.000,A,3520.8637,N,11748.5476,W,0.01,23.88,040622,6,W,2,15,0.71,629.8,M,-29.4,M,,*40\r$GNGGA,175001.000,35 \r\n"2022-06-04 17:50:05
"||||||||||||-102,6969,$ACCEL,4.53,-0.34,-8.87,$ALT,658.78,-203.92W,0.01,23.88,040622,6,W,2,15,0.71,629.8,M,-29.4,M,,*40\r$GNGGA,175001.000,35 \r\n"2022-06-04 17:50:06
"||||||||||||-101,6969,$GNGGA,175002.000,3520.8637,N,11748.5476,W,2,15,0.71,629.8,M,-29.4,M,,*42\r\r\n"2022-06-04 17:50:06
"||||||||||||-102,6969,$ACCEL,4.56,-0.34,-8.87,$ALT,658.70,-203.90\u0001\r\n"2022-06-04 17:50:07
"||||||||||||-101,6969,$GNRMC,1752,617.825$GNGGA,175003.000,3520.8637,N,11748.5476,W,2,15,0.71,629.8,M,-29.4,M,,*43\r\r\n"2022-06-04 17:50:07
"||||||||||||-101,6969,$ACCEL,4.52,-0.34,-8.87,$ALT,658.60,-203.86\u0001\r\n"2022-06-04 17:50:08
"||||||||||||-101,6969,$GNRMC,175003.,.,.,30D$GNGGA,175004.000,3520.8637,N,11748.5476,W,2,15,0.71,629.8,M,-29.4,M,,*44\r\r\n"2022-06-04 17:50:08
"||||||||||||-101,6969,$ACCEL,4.57,-0.34,-8.87,$ALT,658.63,-203.88\u0005R\r\n"2022-06-04 17:50:09
"||||||||||||-101,6969,$GNRMC,175004.000,A,\r$GNGGA,175005.000,3520.8637,N,11748.5477,W,2,15,0.71,629.8,M,-29.4,M,,*44\r\r\n"2022-06-04 17:50:09
"||||||||||||-101,6969,$ACCEL,4.54,-0.34,-8.90,$ALT,658.83,-203.94.8637,N,11748.5477,W,2,15,0.71,629.8,M,-29.4,M,,*44\r\r\n"2022-06-04 17:50:10
"||||||||||||-102,6969,$GNRMC,175005.000,A,35814.825$GNGGA,175006.000,3520.8637,N,11748.5477,W,2,15,0.71,629.8,M,-29.4,M,,*47\r@B\u000f\r\n"2022-06-04 17:50:10
"||||||||||||-101,6969,$ACCEL,4.54,-0.34,-8.90,$ALT,658.93,-203.97000,3520.8637,N,11748.5477,W,2,15,0.71,629.8,M,-29.4,M,,*47\r@B\u000f\r\n"2022-06-04 17:50:10
"||||||||||||-101,6969,$GNRMC,175006.000,A,3274,,0,,658.93,-203.97000,3520.8637,N,11748.5477,W,2,15,0.71,629.8,M,-29.4,M,,*47\r@B\u000f\r\n"2022-06-04 17:50:10
"||||||||||||-101,6969,$ACCEL,4.56,-0.34,-8.86,$ALT,658.76,-203.92000,3520.8637,N,11748.5477,W,2,15,0.71,629.8,M,-29.4,M,,*47\r@B\u000f\r\n"2022-06-04 17:50:11
"||||||||||||-104,6969,$GNRMC,175007.00,.,50.0D$GNGGA,175008.000,3520.8637,N,11748.5477,W,2,15,0.71,629.7,M,-29.4,M,,*46\r\r\n"2022-06-04 17:50:12
"||||||||||||-103,6969,$ACCEL,4.56,-0.34,-8.88,$ALT,658.66,-203.90\u0001\r\n"2022-06-04 17:50:13
"||||||||||||-102,6969,$GNRMC,175008.00,.,50.6D$GNGGA,175009.000,3520.8637,N,11748.5477,W,2,15,0.71,629.7,M,-29.4,M,,*47\r\r\n"2022-06-04 17:50:13
"||||||||||||-103,6969,$ACCEL,4.54,-0.35,-8.86,$ALT,658.67,-203.90520.8637,N,11748.5477,W,2,15,0.71,629.7,M,-29.4,M,,*47\r\r\n"2022-06-04 17:50:14
"||||||||||||-102,6969,$GNRMC,175009.00,614.825$GNGGA,175010.000,3520.8637,N,11748.5477,W,2,15,0.71,629.7,M.4R0,.,5,30D$GNGGA,175011.000,3520 \r\n"2022-06-04 17:50:15
"||||||||||||-103,6969,$ACCEL,4.53,-0.35,-8.87,$ALT,658.67,-203.90520.8637,N,11748.5477,W,2,15,0.71,629.7,M.4R0,.,5,30D$GNGGA,175011.000,3520 \r\n"2022-06-04 17:50:15
"||||||||||||-103,6969,$GNRMC,175011.000,A,3.,.,30D$GNGGA,175012.000,3520.8637,N,11748.5477,W,2,15,0.71,629.7,M,-29.4,M,,*4D\r,175011.000,3520 \r\n"2022-06-04 17:50:16
"||||||||||||-103,6969,$ACCEL,4.54,-0.33,-8.87,$ALT,658.82,-203.96\u0005R\r\n"2022-06-04 17:50:16
"||||||||||||-104,6969,$GNRMC,175012.00574,,,,\r$GNGGA,175013.000,3520.8637,N,11748.5477,W,2,15,0.71,629.7,M,-29.4,M,,*4C\r\r\n"2022-06-04 17:50:17
"||||||||||||-100,6969,$ACCEL,4.54,-0.35,-8.89,$ALT,658.83,-203.95520.8637,N,11748.5477,W,2,15,0.71,629.7,M,-29.4,M,,*4C\r\r\n"2022-06-04 17:50:17
"||||||||||||-101,6969,$GNRMC,175013.0574,,,,\r$GNGGA,175014.000,3520.8637,N,11748.5477,W,2,15,0.71,629.7,M,-29.4,M,,*4B\r\r\n"2022-06-04 17:50:18
"||||||||||||-101,6969,$ACCEL,4.55,-0.35,-8.86,$ALT,659.13,-204.0620.8637,N,11748.5477,W,2,15,0.71,629.7,M,-29.4,M,,*4B\r\r\n"2022-06-04 17:50:19
"||||||||||||-99,6969,$GNRMC,175014.000,A,3520.8637,N,11748.5477,W,0.01$GNGGA,175015.000,3520.8637,N,11748.5477,W,2,15,0.71,629.7,M,-29.4,M, \r\n"2022-06-04 17:50:19
"||||||||||||-107,6969,$ACCEL,4.58,-0.36,-8.86,$ALT,658.57,-203.88\u0001\r\n"2022-06-04 17:50:20
"||||||||||||-106,6969,$GNRMC,175015.000,A,3520.863$GNGGA,175016.000,3520.8637,N,11748.5477,W,2,15,0.71,629.7,M,-29.4,M,,*49\r \r\n"2022-06-04 17:50:20
"||||||||||||-104,6969,$ACCEL,4.54,-0.36,-8.88,$ALT,658.57,-203.8800,3520.8637,N,11748.5477,W,2,15,0.71,629.7,M,-29.4,M,,*49\r \r\n"2022-06-04 17:50:21
"||||||||||||-112,6969,$GNRMC,175016.000,A,3317$GNGGA,175017.000,3520.8637,N,11748.5477,W,2,15,0.71,629.7,M,-29.4,M,,*48\r*49\r \r\n"2022-06-04 17:50:21
"||||||||||||-98,6969,$ACCEL,4.51,-0.34,-8.89,$ALT,658.52,-203.87\u0001\r\n"2022-06-04 17:50:22
"||||||||||||-99,6969,$GNRMC,175017.000,A,331$GNGGA,175018.000,3520.8637,N,11748.5477,W,2,15,0.71,629.7,M,-29.4,M,,*47\r\r\n"2022-06-04 17:50:22
"||||||||||||-103,6969,$ACCEL,4.56,-0.34,-8.85,$ALT,658.47,-203.85\u0001\r\n"2022-06-04 17:50:23
"||||||||||||-103,6969,$GNRMC,175018.000,A,35814.825$GNGGA,175019.000,3520.8637,N,11748.5477,W,2,15,0.71,629.7,M,-29.4,M,,*46\r@B\u000f\r\n"2022-06-04 17:50:23
"||||||||||||-104,6969,$ACCEL,4.54,-0.34,-8.87,$ALT,658.53,-203.87\u0001\r\n"2022-06-04 17:50:24
"||||||||||||-102,6969,$GNRMC,1750057770,,\r$GNGGA,175020.000,3520.8637,N,11748.5477,W,2,15,0.71,629.7,M,-29.4,M,,*4C\r\r\n"2022-06-04 17:50:24
"||||||||||||-102,6969,$ACCEL,4.53,-0.35,-8.88,$ALT,658.46,-203.85\u0005R\r\n"2022-06-04 17:50:25
"||||||||||||-102,6969,$GNRMC,1750200617.825$GNGGA,175021.000,3520.8637,N,11748.5477,W,2,15,0.71,629.7,M,-29.4,M,,*4D\r\r\n"2022-06-04 17:50:25
"||||||||||||-101,6969,$ACCEL,4.54,-0.35,-8.86,$ALT,658.39,-203.83\u0005R\r\n"2022-06-04 17:50:26
"||||||||||||-100,6969,$GNRMC,175021.000AN.,30D$GNGGA,175022.000,3520.8637,N,11748.5477,W,2,15,0.71,629.7,M,-29.4,M,,*4E\r\r\n"2022-06-04 17:50:26
"||||||||||||-102,6969,$ACCEL,4.52,-0.34,-8.88,$ALT,658.35,-203.82520.8637,N,11748.5477,W,2,15,0.71,629.7,M,-29.4,M,,*4E\r\r\n"2022-06-04 17:50:26
"||||||||||||-102,6969,$GNRMC,175022.00A81,30D$GNGGA,175023.000,3520.8637,N,11748.5477,W,2,15,0.71,629.7,M,-29.4,M,,*4F\r\r\r\n"2022-06-04 17:50:27
"||||||||||||-105,6969,$ACCEL,4.56,-0.34,-8.87,$ALT,658.25,-203.7920.8637,N,11748.5477,W,2,15,0.71,629.7,M,-29.4,M,,*4F\r\r\r\n"2022-06-04 17:50:27
"||||||||||||-104,6969,$GNRMC,175023.0002,8W,,\r$GNGGA,175024.000,3520.8637,N,11748.5477,W,2,15,0.71,629.7,M,-29.4,M,,*48\r\r\n"2022-06-04 17:50:28
"||||||||||||-103,6969,$ACCEL,4.55,-0.34,-8.87,$ALT,658.64,-203.92520.8637,N,11748.5477,W,2,15,0.71,629.7,M,-29.4,M,,*48\r\r\n"2022-06-04 17:50:28
"||||||||||||-102,6969,$GNRMC,175024.000A.,504,$GNGGA,175025.000,3520.8637,N,11748.5477,W,2,15,0.71,629.7,M,-29.4,M,,*49\r\r\n"2022-06-04 17:50:29
"||||||||||||-102,6969,$ACCEL,4.53,-0.34,-8.88,$ALT,658.59,-203.90\u0005R\r\n"2022-06-04 17:50:29
"||||||||||||-102,6969,$GNRMC,175025.000331708*$GNGGA,175026.000,3520.8637,N,11748.5477,W,2,15,0.71,629.7,M,-29.4,M,,*4A\r\r\n"2022-06-04 17:50:30
"||||||||||||-100,6969,$ACCEL,4.53,-0.34,-8.88,$ALT,658.75,-203.95520.8637,N,11748.5477,W,2,15,0.71,629.7,M,-29.4,M,,*4A\r\r\n"2022-06-04 17:50:30
"||||||||||||-99,6969,$GNRMC,175026.002,8,,0,,$ALT,658.75,-203.95520.8637,N,11748.5477,W,2,15,0.71,629.7,M,-29.4,M,,*4A\r\r\n"2022-06-04 17:50:30
"||||||||||||-100,6969,$ACCEL,4.56,-0.34,-8.86,$ALT,658.74,-203.95520.8637,N,11748.5477,W,2,15,0.71,629.7,M,-29.4,M,,*4A\r\r\n"2022-06-04 17:50:31
"||||||||||||-100,6969,$GNGGA,175027.000,3520.8637,N,11748.5477,W,2,15,0.71,629.7,M,-29.4,M,,*4B\r71,629.7,M,-29.4,M,,*4A\r\r\n"2022-06-04 17:50:31
"||||||||||||-99,6969,$ACCEL,4.56,-0.35,-8.89,$ALT,658.80,-203.97\u0001\r\n"2022-06-04 17:50:32
"||||||||||||-99,6969,$GNRMC,175027.00,.,.,30D$GNGGA,175028.000,3520.8637,N,11748.5477,W,2,15,0.71,629.7,M,-29.4,M,,*44\r\r\n"2022-06-04 17:50:32
"||||||||||||-101,6969,$ACCEL,4.56,-0.35,-8.89,$ALT,658.64,-203.90\u0001\r\n"2022-06-04 17:50:32
"||||||||||||-101,6969,$GNRMC,175028.02,8W20,9,$ALT,658.64,-203.90\u0001\r\n"2022-06-04 17:50:32
"||||||||||||-98,6969,$ACCEL,4.56,-0.35,-8.88,$ALT,658.68,-203.93\u0001\r\n"2022-06-04 17:50:33
"||||||||||||-99,6969,$GNGGA,175029.000,3520.8637,N,11748.5477,W,2,15,0.71,629.7,M,-29.4,M,,*45\r\r\n"2022-06-04 17:50:33
"||||||||||||-99,6969,$ACCEL,4.54,-0.35,-8.88,$ALT,658.58,-203.902,15,0.71,629.7,M,-29.4,M,,*45\r\r\n"2022-06-04 17:50:34
"||||||||||||-100,6969,$GNRMC,175029.000N.,34,$GNGGA,175030.000,3520.8637,N,11748.5477,W,2,15,0.71,629.7,M,-M @B\u000f\r\n"2022-06-04 17:50:34
"||||||||||||-102,6969,$ACCEL,4.54,-0.35,-8.88,$ALT,658.62,-203.9220.8637,N,11748.5477,W,2,15,0.71,629.7,M,-M @B\u000f\r\n"2022-06-04 17:50:35
"||||||||||||-104,6969,C0,6170825$GNGGA,175031.000,3520.8637,N,11748.5477,W,2,15,0.71,629.7,M,-29.4,M,,*4C\r\r\n"2022-06-04 17:50:35
"||||||||||||-102,6969,$ACCEL,4.54,-0.34,-8.90,$ALT,658.59,-203.9148.5477,W,2,15,0.71,629.7,M,-29.4,M,,*4C\r\r\n"2022-06-04 17:50:36
"||||||||||||-107,6969,$ACCEL,4.54,-0.34,-8.88,$ALT,658.64,-203.93\u0001\r\n"2022-06-04 17:50:37
"||||||||||||-104,6969,$GNRMC,175033.000,A574,2,,\r$GNGGA,175034.000,3520.8637,N,11748.5477,W,2,15,0.71,629.8,M,-29.4,M,,*46\r\r\n"2022-06-04 17:50:37
"||||||||||||-104,6969,$ACCEL,4.53,-0.35,-8.89,$ALT,658.76,-203.96\u0005R\r\n"2022-06-04 17:50:38
"||||||||||||-104,6969,$GNRMC,175034.000,33771,,\r$GNGGA,175035.000,3520.8637,N,11748.5477,W,2,15,0.71,629.7,M,-29.4,M,,*48\r\u0001\r\n"2022-06-04 17:50:38
"||||||||||||-106,6969,$ACCEL,4.53,-0.35,-8.89,$ALT,658.75,-203.95,3520.8637,N,11748.5477,W,2,15,0.71,629.7,M,-29.4,M,,*48\r\u0001\r\n"2022-06-04 17:50:39
"||||||||||||-106,6969,$GNRMC,175035.000,2,8W,0,ALT,658.75,-203.95,3520.8637,N,11748.5477,W,2,15,0.71,629.7,M,-29.4,M,,*48\r\u0001\r\n"2022-06-04 17:50:39
"||||||||||||-106,6969,$ACCEL,4.67,-0.34,-8.82,$ALT,658.70,-203.94,3520.8637,N,11748.5477,W,2,15,0.71,629.7,M,-29.4,M,,*48\r\u0001\r\n"2022-06-04 17:50:39
"||||||||||||-104,6969,$GNGGA,175036.000,3520.8637,N,11748.5477,W,2,15,0.71,629.8,M,-29.4,M,,*44\r0.71,629.7,M,-29.4,M,,*48\r\u0001\r\n"2022-06-04 17:50:39
"||||||||||||-106,6969,$ACCEL,4.54,-0.36,-8.91,$ALT,658.60,-203.922,15,0.71,629.8,M,-29.4,M,,*44\r0.71,629.7,M,-29.4,M,,*48\r\u0001\r\n"2022-06-04 17:50:40
"||||||||||||-104,6969,$GNRMC,175036.000,A,3520.8637,N,11748.5477,W,$GNGGA,175037.000,3520.8637,N,11748.5477,W,2,15,0.71,629.8,M,-29.4,M,,*45\r\n"2022-06-04 17:50:41
"||||||||||||-108,6969,$ACCEL,4.56,-0.35,-8.86,$ALT,658.72,-203.95W,$GNGGA,175037.000,3520.8637,N,11748.5477,W,2,15,0.71,629.8,M,-29.4,M,,*45\r\n"2022-06-04 17:50:41
"||||||||||||-106,6969,$GNRMC,175037.000,A,3520.86$GNGGA,175038.000,3520.8637,N,11748.5477,W,2,15,0.71,629.7,M,-29.4,M,,*45\r.8,M,-29.4,M,,*45\r\n"2022-06-04 17:50:42
"||||||||||||-102,6969,$ACCEL,4.53,-0.34,-8.87,$ALT,658.76,-203.980,3520.8637,N,11748.5477,W,2,15,0.71,629.7,M,-29.4,M,,*45\r.8,M,-29.4,M,,*45\r\n"2022-06-04 17:50:42
"||||||||||||-102,6969,$GNRMC,175038.000,A,3520.8$GNGGA,175039.000,3520.8637,N,11748.5477,W,2,15,0.71,629.8,M,-29.4,M,,,*45\r.8,M,-29.4,M,,*45\r\n"2022-06-04 17:50:43
"||||||||||||-101,6969,$ACCEL,4.52,-0.34,-8.88,$ALT,658.54,-203.91,3520.8637,N,11748.5477,W,2,15,0.71,629.8,M,-29.4,M,,,*45\r.8,M,-29.4,M,,*45\r\n"2022-06-04 17:50:43
"||||||||||||-102,6969,,.33170828$GNGGA,175040.000,3520.8637,N,11748.5477,W,2,15,0.71,629.7,M,-29.4,M,,*4A\r\r\n"2022-06-04 17:50:43
"||||||||||||-100,6969,$ACCEL,4.56,-0.34,-8.87,$ALT,658.51,-203.89\u0001\r\n"2022-06-04 17:50:44
"||||||||||||-100,6969,$GNRMC,175040.000,A,3.,5,30D$GNGGA,175041.000,3520.8637,N,11748.5477,W,2,15,0.71,629.7,M,-29.4,M,,*4B\r @B\u000f\r\n"2022-06-04 17:50:45
"||||||||||||-102,6969,$ACCEL,4.53,-0.33,-8.89,$ALT,658.56,-203.90\u0001\r\n"2022-06-04 17:50:45
"||||||||||||-102,6969,$GNRMC,17500274,,0,8.89\r\n"2022-06-04 17:50:45
"||||||||||||-102,6969,$ACCEL,4.53,-0.33,-8.89,$ALT,658.53,-203.91\u0005R\r\n"2022-06-04 17:50:45
"||||||||||||-101,6969,$GNGGA,175042.000,3520.8637,N,11748.5477,W,2,15,0.71,629.7,M,-29.4,M,,*48\r\r\n"2022-06-04 17:50:46
"||||||||||||-102,6969,$ACCEL,4.55,-0.34,-8.87,$ALT,658.68,-203.95\u0005R\r\n"2022-06-04 17:50:46
"||||||||||||-102,6969,$GNRMC,175042.0A814.825$GNGGA,175043.000,3520.8637,N,11748.5477,W,2,15,0.71,629.7,M,-29.4,M,,*49\r\r\n"2022-06-04 17:50:47
"||||||||||||-106,6969,$ACCEL,4.55,-0.35,-8.87,$ALT,658.82,-204.00\u0005R\r\n"2022-06-04 17:50:47
"||||||||||||-104,6969,$GNRMC,175043.00A814.86*$GNGGA,175044.000,3520.8637,N,11748.5477,W,2,15,0.71,629.7,M,-29.4,M,,*4E\r\r\n"2022-06-04 17:50:48
"||||||||||||-97,6969,$ACCEL,4.52,-0.35,-8.92,$ALT,658.64,-203.94520.8637,N,11748.5477,W,2,15,0.71,629.7,M,-29.4,M,,*4E\r\r\n"2022-06-04 17:50:48
"||||||||||||-101,6969,$GNRMC,175044.000,A.,50.6*$GNGGA,175045.000,3520.8637,N,11748.5477,W,2,15,0.71,629.7,M,9*N502,8W24,,\u0001\r\n"2022-06-04 17:50:49
"||||||||||||-103,6969,$ACCEL,4.60,-0.35,-8.84,$ALT,658.73,-203.97,3520.8637,N,11748.5477,W,2,15,0.71,629.7,M,9*N502,8W24,,\u0001\r\n"2022-06-04 17:50:49
"||||||||||||-104,6969,$GNGGA,175046.000,3520.8637,N,11748.5477,W,2,15,0.71,629.8,M,-29.4,M,,*43\r0.71,629.7,M,9*N502,8W24,,\u0001\r\n"2022-06-04 17:50:49
"||||||||||||-102,6969,$ACCEL,4.51,-0.36,-8.91,$ALT,658.69,-203.96\u0001\r\n"2022-06-04 17:50:50
"||||||||||||-101,6969,$GNRMC,175046.000,A,0N.,34,$GNGGA,175047.000,3520.8637,N,11748.5477,W,2,15,0.71,629.7,M,-29.4,M,,*4D\r\r\n"2022-06-04 17:50:50
"||||||||||||-101,6969,$ACCEL,4.58,-0.35,-8.87,$ALT,658.81,-204.00\u0005R\r\n"2022-06-04 17:50:51
"||||||||||||-104,6969,$GNRMC,175047.0002,8W24,$GNGGA,175048.000,3520.8637,N,11748.5477,W,2,15,0.71,629.7,M,-29.4,M,,*42\r\r\n"2022-06-04 17:50:51
"||||||||||||-108,6969,$ACCEL,4.53,-0.35,-8.90,$ALT,658.73,-203.97520.8637,N,11748.5477,W,2,15,0.71,629.7,M,-29.4,M,,*42\r\r\n"2022-06-04 17:50:52
"||||||||||||-106,6969,$GNRMC,175048.000N.,34,$GNGGA,175049.000,3520.8637,N,11748.5477,W,2,15,0.71,629.7,M,-29.4,M,,*43\r\r\r\n"2022-06-04 17:50:52
"||||||||||||-105,6969,$ACCEL,4.50,-0.35,-8.89,$ALT,658.80,-204.0020.8637,N,11748.5477,W,2,15,0.71,629.7,M,-29.4,M,,*43\r\r\r\n"2022-06-04 17:50:53
"||||||||||||-105,6969,$GNRMC,175049.00,6170825$GNGGA,175050.000,3520.8637,N,11748.5477,W,2,15,0.71,629.7,M,-29.4,M,,*4B\r\r\n"2022-06-04 17:50:53
"||||||||||||-104,6969,$ACCEL,4.57,-0.36,-8.87,$ALT,658.95,-204.05520.8637,N,11748.5477,W,2,15,0.71,629.7,M,-29.4,M,,*4B\r\r\n"2022-06-04 17:50:54
"||||||||||||-103,6969,$GNRMC,175050.000,A,3814.825$GNGGA,175051.000,3520.8637,N,11748.5477,W,2,15,0.71,629.7,M,-29.4,M,,*4A\r @B\u000f\r\n"2022-06-04 17:50:54
"||||||||||||-106,6969,$ACCEL,4.51,-0.34,-8.89,$ALT,658.75,-203.99\u0001\r\n"2022-06-04 17:50:55
"||||||||||||-106,6969,$GNRMC,175051.0,614.825$GNGGA,175052.000,3520.8637,N,11748.5477,W,2,15,0.71,629.7,M,-29.4,M,,*49\r\r\n"2022-06-04 17:50:55
"||||||||||||-104,6969,$ACCEL,4.54,-0.35,-8.87,$ALT,658.95,-204.0520.8637,N,11748.5477,W,2,15,0.71,629.7,M,-29.4,M,,*49\r\r\n"2022-06-04 17:50:56
"||||||||||||-103,6969,$GNRMC,175052.0,6170825$GNGGA,175053.000,3520.8637,N,11748.5477,W,2,15,0.71,629.7,M,-29.4,M,,*48\r\r\n"2022-06-04 17:50:56
"||||||||||||-103,6969,$ACCEL,4.55,-0.35,-8.87,$ALT,658.87,-204.03\u0001\r\n"2022-06-04 17:50:57
"||||||||||||-104,6969,$GNRMC,175053.0033772827$GNGGA,175054.000,3520.8637,N,11748.5477,W,2,15,0.71,629.7,M,-29.4,M,,*4F\r\r\n"2022-06-04 17:50:57
"||||||||||||-107,6969,$ACCEL,4.53,-0.35,-8.88,$ALT,658.85,-204.02520.8637,N,11748.5477,W,2,15,0.71,629.7,M,-29.4,M,,*4F\r\r\n"2022-06-04 17:50:58
"||||||||||||-104,6969,$GNRMC,175054.033770826$GNGGA,175055.000,3520.8637,N,11748.5477,W,2,15,0.71,629.7,M,-29.4,M,,*4E\r\r\n"2022-06-04 17:50:58
"||||||||||||-108,6969,$ACCEL,4.53,-0.34,-8.88,$ALT,658.84,-204.02\u0005R\r\n"2022-06-04 17:50:59
"||||||||||||-106,6969,$GNRMC,175055.00N.,30D$GNGGA,175056.000,3520.8637,N,11748.5477,W,2,15,0.71,629.7,M,-29.4,M,,*4D\r\r\n"2022-06-04 17:50:59
"||||||||||||-102,6969,$ACCEL,4.53,-0.34,-8.87,$ALT,658.79,-204.000.8637,N,11748.5477,W,2,15,0.71,629.7,M,-29.4,M,,*4D\r\r\n"2022-06-04 17:51:00
"||||||||||||-105,6969,$GNRMC,175056.00033770821$GNGGA,175057.000,3520.8637,N,11748.5477,W,2,15,0.71,629.7,M,-29.4,M,,*4C\r,\u0001\r\n"2022-06-04 17:51:00
"||||||||||||-116,6969,$ACCEL,4.54,-0.34,-8.87,$ALT,658.82,-204.013520.8637,N,11748.5477,W,2,15,0.71,629.7,M,-29.4,M,,*4C\r,\u0001\r\n"2022-06-04 17:51:01
"||||||||||||-108,6969,$GNRMC,175057.0,614.825$GNGGA,175058.000,3520.8637,N,11748.5477,W,2,15,0.71,629.8,M,-29.4,M,,*4C\r\r\n"2022-06-04 17:51:01
"||||||||||||-102,6969,$ACCEL,4.54,-0.34,-8.87,$ALT,658.95,-204.0520.8637,N,11748.5477,W,2,15,0.71,629.8,M,-29.4,M,,*4C\r\r\n"2022-06-04 17:51:02
"||||||||||||-102,6969,$GNRMC,175058.000574,,0,$ALT,658.95,-204.0520.8637,N,11748.5477,W,2,15,0.71,629.8,M,-29.4,M,,*4C\r\r\n"2022-06-04 17:51:02
"||||||||||||-102,6969,$ACCEL,4.54,-0.35,-8.87,$ALT,658.77,-204.0120.8637,N,11748.5477,W,2,15,0.71,629.8,M,-29.4,M,,*4C\r\r\n"2022-06-04 17:51:02
"||||||||||||-101,6969,$GNGGA,175059.000,3520.8637,N,11748.5477,W,2,15,0.71,629.8,M,-29.4,M,,*4D\r\r\n"2022-06-04 17:51:02
"||||||||||||-99,6969,$ACCEL,4.54,-0.35,-8.90,$ALT,658.77,-204.012,15,0.71,629.8,M,-29.4,M,,*4D\r\r\n"2022-06-04 17:51:03
"||||||||||||-99,6969,$GNRMC,175059.033771,2E$GNGGA,175100.000,3520.8637,N,11748.5477,W,2,14,0.71,629.8,M,-29.4,M,,*41\r\r\n"2022-06-04 17:51:03
"||||||||||||-99,6969,$ACCEL,4.54,-0.35,-8.86,$ALT,658.88,-204.0420.8637,N,11748.5477,W,2,14,0.71,629.8,M,-29.4,M,,*41\r\r\n"2022-06-04 17:51:04
"||||||||||||-99,6969,$GNRMC,175100.0574,,,,\r$GNGGA,175101.000,3520.8637,N,11748.5477,W,2,15,0.71,629.7,M,-29.4,M,,*4E\r\r\n"2022-06-04 17:51:04
"||||||||||||-102,6969,$ACCEL,4.55,-0.35,-8.88,$ALT,658.55,-203.94\u0005R\r\n"2022-06-04 17:51:06
"||||||||||||-101,6969,$GNRMC,175101.000N.,24,$GNGGA,175102.000,3520.8637,N,11748.5477,W,2,15,0.71,629.8,M,-29.4R1,0N.,30D$GNGGA,175103.000,3 \r\n"2022-06-04 17:51:06
"||||||||||||-105,6969,$GNRMC,175103.000,A,.,50.0D$GNGGA,175104.000,3520.8637,N,11748.5477,W,2,15,0.71,629.8,M,-29.4,M,,*44\r\r\n"2022-06-04 17:51:07
"||||||||||||-105,6969,$ACCEL,4.55,-0.35,-8.86,$ALT,658.60,-203.96\u0005R\r\n"2022-06-04 17:51:08
"||||||||||||-105,6969,$GNRMC,175104.000,574,,0,\r$GNGGA,175105.000,3520.8637,N,11748.5477,W,2,15,0.71,629.8,M,-29.4,M,,*45\r\r\n"2022-06-04 17:51:08
"||||||||||||-104,6969,$ACCEL,4.54,-0.35,-8.88,$ALT,658.58,-203.96,3520.8637,N,11748.5477,W,2,15,0.71,629.8,M,-29.4,M,,*45\r\r\n"2022-06-04 17:51:09
"||||||||||||-103,6969,$GNRMC,175105.0,.,5030D$GNGGA,175106.000,3520.8637,N,11748.5477,W,2,15,0.71,629.7,M,-29.4,M,,*49\r\r\n"2022-06-04 17:51:09
"||||||||||||-104,6969,$ACCEL,4.55,-0.34,-8.89,$ALT,658.38,-203.8920.8637,N,11748.5477,W,2,15,0.71,629.7,M,-29.4,M,,*49\r\r\n"2022-06-04 17:51:10
"||||||||||||-107,6969,$ACCEL,4.53,-0.35,-8.87,$ALT,658.54,-203.95\u0005R\r\n"2022-06-04 17:51:11
"||||||||||||-111,6969,$GNRMC,175107.000,A,3520.86$GNGGA,175108.000,3520.8637,N,11748.5477,W,2,15,0.71,629.7,M,-29.4,M,,*47\r\r\n"2022-06-04 17:51:11
"||||||||||||-109,6969,$ACCEL,4.53,-0.36,-8.92,$ALT,658.60,-203.960,3520.8637,N,11748.5477,W,2,15,0.71,629.7,M,-29.4,M,,*47\r\r\n"2022-06-04 17:51:12
"||||||||||||-115,6969,$GNRMC,175108.000,A,3520.3$GNGGA,175109.000,3520.8637,N,11748.5477,W,2,15,0.71,629.7,M,-29.4,M,,*46\r\r\r\n"2022-06-04 17:51:12
"||||||||||||-103,6969,$ACCEL,4.55,-0.36,-8.89,$ALT,658.55,-203.95\u0001\r\n"2022-06-04 17:51:13
"||||||||||||-100,6969,$GNRMC,175109.000,A,574$GNGGA,175110.000,3520.8637,N,11748.5477,W,2,15,0.71,629.7,M,-29.4,M,,*4E\r\r\n"2022-06-04 17:51:13
"||||||||||||-105,6969,$ACCEL,4.55,-0.36,-8.89,$ALT,658.54,-203.94\u0001\r\n"2022-06-04 17:51:14
"||||||||||||-105,6969,$GNRMC,175110.000,A,352,8W,0,658.54,-203.94\u0001\r\n"2022-06-04 17:51:14
"||||||||||||-100,6969,$ACCEL,4.53,-0.34,-8.88,$ALT,658.79,-204.03\u0001\r\n"2022-06-04 17:51:14
"||||||||||||-103,6969,$ACCEL,4.45,-0.34,-8.89,$ALT,658.80,-204.04\u0001\r\n"2022-06-04 17:51:15
"||||||||||||-103,6969,$GNRMC,175118,50.6*$GNGGA,175112.000,3520.8637,N,11748.5477,W,2,15,0.71,629.7,M,-29.4,M,,*4C\r\r\n"2022-06-04 17:51:15
"||||||||||||-109,6969,$ACCEL,4.55,-0.35,-8.88,$ALT,658.64,-203.98637,N,11748.5477,W,2,15,0.71,629.7,M,-29.4,M,,*4C\r\r\n"2022-06-04 17:51:16
"||||||||||||-105,6969,$GNRMC,175112.0,.,W24,$GNGGA,175113.000,3520.8637,N,11748.5477,W,2,15,0.71,629.7,M,-29.4,M,,*4D\r\r\n"2022-06-04 17:51:16
"||||||||||||-107,6969,$ACCEL,4.54,-0.34,-8.87,$ALT,658.91,-204.08\u0005R\r\n"2022-06-04 17:51:18
"||||||||||||-111,6969,$GNRMC,175113.000574,822$GNGGA,175114.000,3520.8637,N,11748.5477,W,2,15,0.71,629.7,M,2,$10574,,,,\r$GNGGA,175115.000,35\r\n"2022-06-04 17:51:18
"||||||||||||-111,6969,$ACCEL,4.52,-0.36,-8.87,$ALT,659.02,-204.11520.8637,N,11748.5477,W,2,15,0.71,629.7,M,2,$10574,,,,\r$GNGGA,175115.000,35\r\n"2022-06-04 17:51:19
"||||||||||||-115,6969,$GNRMC,175115.000,A,.,50.6*$GNGGA,175116.000,3520.8637,N,11748.5477,W,2,15,0.71,629.7,M,-29.4,M,,*48\r\r\n"2022-06-04 17:51:19
"||||||||||||-128,6969,$ACCEL,4.51,-0.35,-8.88,$ALT,658.98,-204.10\u0001\r\n"2022-06-04 17:51:20
"||||||||||||-108,6969,$ACCEL,4.52,-0.35,-8.88,$ALT,658.76,-204.03\u0005R\r\n"2022-06-04 17:51:21
"||||||||||||-107,6969,$GNRMC,175117.00574,2,,\r$GNGGA,175118.000,3520.8637,N,11748.5477,W,2,15,0.71,629.7,M,-29.4,M,,*46\r\r\n"2022-06-04 17:51:21
"||||||||||||-115,6969,$ACCEL,4.52,-0.34,-8.89,$ALT,659.31,-204.20520.8637,N,11748.5477,W,2,15,0.71,629.7,M,-29.4,M,,*46\r\r\n"2022-06-04 17:51:22
"||||||||||||-112,6969,$GNRMC,175118.000,A,3520.8637,N,11748.5477,W,0.0$GNGGA,175119.000,3520.8637,N,11748.5477,W,2,15,0.71,629.7,M,-29.4,M,, \r\n"2022-06-04 17:51:22
"||||||||||||-107,6969,$ACCEL,4.56,-0.37,-8.88,$ALT,659.02,-204.12\u0001\r\n"2022-06-04 17:51:23
"||||||||||||-108,6969,$GNRMC,175119.000,A,3520.86$GNGGA,175120.000,3520.8637,N,11748.5477,W,2,15,0.71,629.7,M,-29.4,M,,*4D\r\r\n"2022-06-04 17:51:23
"||||||||||||-106,6969,$ACCEL,4.52,-0.37,-8.89,$ALT,658.98,-204.11\u0001\r\n"2022-06-04 17:51:24
"||||||||||||-104,6969,$GNRMC,175120.000,A,3520N$GNGGA,175121.000,3520.8637,N,11748.5477,W,2,14,0.74,629.7,M,-29.4,M,,*48\r`\r\n"2022-06-04 17:51:24
"||||||||||||-113,6969,$ACCEL,4.53,-0.35,-8.89,$ALT,659.23,-204.193520.8637,N,11748.5477,W,2,14,0.74,629.7,M,-29.4,M,,*48\r`\r\n"2022-06-04 17:51:25
"||||||||||||-111,6969,$GNRMC,175121.000,A,3517$GNGGA,175122.000,3520.8637,N,11748.5477,W,2,15,0.71,629.7,M,-29.4,M,,*4F\r\r`\r\n"2022-06-04 17:51:25
"||||||||||||-113,6969,$ACCEL,4.56,-0.36,-9.05,$ALT,659.15,-204.17520.8637,N,11748.5477,W,2,15,0.71,629.7,M,-29.4,M,,*4F\r\r`\r\n"2022-06-04 17:51:26
"||||||||||||-116,6969,$GNRMC,175122.000,A,3.,W24,$GNGGA,175123.000,3520.8637,N,11748.5477,W,2,14,0.74,629.7,M,-29.4,M,,*4A\r\r\n"2022-06-04 17:51:26
"||||||||||||-128,6969,$ACCEL,4.56,-0.36,-9.05,$ALT,659.13,-204.150,3520.8637,N,11748.5477,W,2,14,0.74,629.7,M,-29.4,M,,*4A\r\r\n"2022-06-04 17:51:26
"||||||||||||-108,6969,$ACCEL,4.52,-0.34,-8.85,$ALT,659.05,-204.140,3520.8637,N,11748.5477,W,2,14,0.74,629.7,M,-29.4,M,,*4A\r\r\n"2022-06-04 17:51:27
"||||||||||||-115,6969,$ACCEL,4.53,-0.36,-8.90,$ALT,658.78,-204.05\u0005R\r\n"2022-06-04 17:51:28
"||||||||||||-123,6969,$GNRMC,175124.033770820$GNGGA,175125.000,3520.8637,N,11748.5477,W,2,14,0.74,629.7,M,-29.4,M,,*4C\r\r\n"2022-06-04 17:51:28
"||||||||||||-107,6969,$ACCEL,4.56,-0.35,-8.94,$ALT,658.76,-204.0520.8637,N,11748.5477,W,2,14,0.74,629.7,M,-29.4,M,,*4C\r\r\n"2022-06-04 17:51:29
"||||||||||||-115,6969,$GNRMC,175125.0A8,50.6*$GNGGA,175126.000,3520.8637,N,11748.5477,W,2,14,0.74,629.7,M,-29.4,M,,*4F\r\r\n"2022-06-04 17:51:29
"||||||||||||-109,6969,$ACCEL,4.56,-0.35,-8.94,$ALT,658.76,-204.0320.8637,N,11748.5477,W,2,14,0.74,629.7,M,-29.4,M,,*4F\r\r\n"2022-06-04 17:51:30
"||||||||||||-113,6969,$GNRMC,175126.002,8W,0,,$ALT,658.76,-20\r\n"2022-06-04 17:51:30
"||||||||||||-108,6969,$ACCEL,4.53,-0.34,-8.89,$ALT,658.75,-204.05\u0001\r\n"2022-06-04 17:51:31
"||||||||||||-105,6969,$GNGGA,175127.000,3520.8637,N,11748.5477,W,2,14,0.74,629.7,M,.*N500N.,24,$GNGGA,175128.000,3520.8637,N,11748.5477,W,2, \r\n"2022-06-04 17:51:31
"||||||||||||-106,6969,$ACCEL,4.56,-0.35,-8.89,$ALT,658.74,-204.042,14,0.74,629.7,M,.*N500N.,24,$GNGGA,175128.000,3520.8637,N,11748.5477,W,2, \r\n"2022-06-04 17:51:32
"||||||||||||-109,6969,$GNRMC,175128.000,A,3574,,,,\r$GNGGA,175129.000,3520.8637,N,11748.5477,W,2,15,0.71,629.7,M,-29.4,M,,*44\r\r\n"2022-06-04 17:51:32
"||||||||||||-123,6969,$ACCEL,4.55,-0.35,-8.87,$ALT,658.47,-203.96\u0001\r\n"2022-06-04 17:51:32
"||||||||||||-125,6969,$GNRMC,175129.0002,8,,0,$ALT,658.47,-20\r\n"2022-06-04 17:51:32
"||||||||||||-112,6969,$ACCEL,4.53,-0.34,-8.91,$ALT,658.42,-203.95\u0001\r\n"2022-06-04 17:51:34
"||||||||||||-112,6969,$GNGGA,175130.000,3520.8637,N,11748.5477,W,2,15,0.71,629.8,M,-29.4,M,,*46$GNGGA,175131.000,3520.8637,N,11748.5477,W,2, \r\n"2022-06-04 17:51:34
"||||||||||||-103,6969,$ACCEL,4.55,-0.36,-8.86,$ALT,658.39,-203.94\u0005R\r\n"2022-06-04 17:51:35
"||||||||||||-102,6969,$GNRMC,175131.000,A,3520.8637,N,11748.5477,W,0.07,23.88,040622,,$GNGGA,175132.000,3520.8636,N,11748.5477,W,2,15,0.71,6\r\n"2022-06-04 17:51:35
"||||||||||||-99,6969,$ACCEL,4.54,-0.34,-8.88,$ALT,658.41,-203.95W,0.07,23.88,040622,,$GNGGA,175132.000,3520.8636,N,11748.5477,W,2,15,0.71,6\r\n"2022-06-04 17:51:36
"||||||||||||-101,6969,$GNRMC,175100N.,34,$GNGGA,175133.000,3520.8636,N,11748.5477,W,2,15,0.71,629.8,M2,$10564,6,,\r$GNGGA,175134.000,3520.863\r\n"2022-06-04 17:51:37
"||||||||||||-101,6969,$ACCEL,4.53,-0.34,-8.91,$ALT,658.62,-204.02\u0001\r\n"2022-06-04 17:51:37
"||||||||||||-103,6969,$GNRMC,175134.000,A,3520.8637,N,11748.5477,$GNGGA,175135.000,3520.8637,N,11748.5477,W,2,15,0.71,629.8,M,-29.4,M,,*46\r\r\n"2022-06-04 17:51:38
"||||||||||||-105,6969,$ACCEL,4.52,-0.35,-8.89,$ALT,658.42,-203.96$GNGGA,175135.000,3520.8637,N,11748.5477,W,2,15,0.71,629.8,M,-29.4,M,,*46\r\r\n"2022-06-04 17:51:40
"||||||||||||-103,6969,$GNRMC,175135.000,A,3520.8637,N,1178W24,$GNGGA,175136.000,3520.8637,N,11748.5477,W,2,15,0.71,629.7,M,-29.4,M,,*4A\r46\r\r\n"2022-06-04 17:51:40
"||||||||||||-100,6969,$ACCEL,4.52,-0.35,-8.89,$ALT,658.47,-203.96GGA,175136.000,3520.8637,N,11748.5477,W,2,15,0.71,629.7,M,-29.4,M,,*4A\r46\r\r\n"2022-06-04 17:51:40
"||||||||||||-100,6969,$GNRMC,1751302,4,,0,.89,$ALT,658.47,-20\r\n"2022-06-04 17:51:40
"||||||||||||-107,6969,$ACCEL,4.55,-0.35,-8.89,$ALT,658.61,-204.01\u0001\r\n"2022-06-04 17:51:41
"||||||||||||-102,6969,$GNRMC,175137.000,A,$GNGGA,175138.000,3520.8637,N,11748.5477,W,2,15,0.71,629.7,M,-29.4,M,,*44\r\r\n"2022-06-04 17:51:42
"||||||||||||-99,6969,$ACCEL,4.53,-0.35,-8.88,$ALT,658.46,-203.96\u0005R\r\n"2022-06-04 17:51:43
"||||||||||||-99,6969,$GNRMC,175138.000,A,3520.8637,N,11748.5477,$GNGGA,175139.000,3520.8637,N,11748.5478,W,2,15,0.71,629.7,M,-29.4,M,,*4A\r\r\n"2022-06-04 17:51:43
"||||||||||||-98,6969,$ACCEL,4.52,-0.34,-8.88,$ALT,658.46,-203.96\u0001\r\n"2022-06-04 17:51:44
"||||||||||||-98,6969,$GNRMC,175139.000,A,3520.8637,N,1150.6*$GNGGA,175140.000,3520.8637,N,11748.5478,W,2,15,0.71,629.7,M.4R500N.,30,$GNGGA, \r\n"2022-06-04 17:51:45
"||||||||||||-101,6969,$ACCEL,4.52,-0.37,-8.75,$ALT,658.36,-203.94\u0005R\r\n"2022-06-04 17:51:46
"||||||||||||-100,6969,$GNRMC,175141.000,A,3.,.,30D$GNGGA,175142.000,3520.8637,N,11748.5478,W,2,15,0.71,629.8,M,-29.4,M,,*49\r \r\n"2022-06-04 17:51:46
"||||||||||||-100,6969,$ACCEL,4.52,-0.37,-8.75,$ALT,658.57,-203.9900,3520.8637,N,11748.5478,W,2,15,0.71,629.8,M,-29.4,M,,*49\r \r\n"2022-06-04 17:51:46
"||||||||||||-100,6969,$GNRMC,175142.0002,8W20,$ALT,658.57,-20\r\n"2022-06-04 17:51:46
"||||||||||||-99,6969,$ACCEL,4.51,-0.33,-8.86,$ALT,658.51,-203.99\u0001\r\n"2022-06-04 17:51:47
"||||||||||||-100,6969,$GNRMC,1751057480,,\r$GNGGA,175144.000,3520.8636,N,11748.5478,W,2,15,0.71,629.8,M,-29.4,M,,*4E\r\r\n"2022-06-04 17:51:48
"||||||||||||-107,6969,$ACCEL,4.53,-0.34,-8.90,$ALT,658.22,-203.90\u0001\r\n"2022-06-04 17:51:49
"||||||||||||-107,6969,$GNRMC,175144.000,A,3520.8636,N,11748.5478,W,0.00,2$GNGGA,175145.000,3520.8636,N,11748.5479,W,2,15,0.71,629.8,M,-29.4, \r\n"2022-06-04 17:51:49
"||||||||||||-99,6969,$ACCEL,4.50,-0.34,-8.76,$ALT,658.10,-203.86\u0005R\r\n"2022-06-04 17:51:50
"||||||||||||-100,6969,$GNRMC,175145.000,A,3520.,.,$GNGGA,175146.000,3520.8636,N,11748.5479,W,2,15,0.71,629.8,M,-29.,G70564,,0,B\u000f\r\n"2022-06-04 17:51:50
"||||||||||||-102,6969,$ACCEL,4.53,-0.34,-8.80,$ALT,658.30,-203.9300,3520.8636,N,11748.5479,W,2,15,0.71,629.8,M,-29.,G70564,,0,B\u000f\r\n"2022-06-04 17:51:51
"||||||||||||-103,6969,$GNGGA,175147.000,3520.8636,N,11748.5479,W,2,15,0.71,629.8,M,-29.4,M,,*4C\r5,0.71,629.8,M,-29.,G70564,,0,B\u000f\r\n"2022-06-04 17:51:51
"||||||||||||-102,6969,$ACCEL,4.53,-0.34,-8.89,$ALT,658.30,-203.94\u0001\r\n"2022-06-04 17:51:52
"||||||||||||-100,6969,$GNRMC,175147.000,A56491,,\r$GNGGA,175148.000,3520.8636,N,11748.5479,W,2,15,0.71,629.8,M,-29.4,M,,*43\r\r\n"2022-06-04 17:51:52
"||||||||||||-101,6969,$ACCEL,4.54,-0.35,-8.84,$ALT,658.24,-203.91\u0005R\r\n"2022-06-04 17:51:53
"||||||||||||-103,6969,$GNRMC,175148.00033791,,\r$GNGGA,175149.000,3520.8636,N,11748.5479,W,2,15,0.71,629.7,M,-29.4,M,,*4D\r,\u0001\r\n"2022-06-04 17:51:53
"||||||||||||-102,6969,$ACCEL,4.52,-0.35,-8.89,$ALT,658.47,-203.993520.8636,N,11748.5479,W,2,15,0.71,629.7,M,-29.4,M,,*4D\r,\u0001\r\n"2022-06-04 17:51:54
"||||||||||||-102,6969,$GNRMC,17514,0N.,30D$GNGGA,175150.000,3520.8636,N,11748.5479,W,2,15,0.71,629.8,M,-29.4,M,,*4A\r,*4D\r,\u0001\r\n"2022-06-04 17:51:54
"||||||||||||-101,6969,$ACCEL,4.52,-0.35,-8.89,$ALT,658.39,-203.978636,N,11748.5479,W,2,15,0.71,629.8,M,-29.4,M,,*4A\r,*4D\r,\u0001\r\n"2022-06-04 17:51:55
"||||||||||||-105,6969,$GNRMC,17515000N.,34,$GNGGA,175151.000,3520.8636,N,11748.5480,W,2,15,0.71,629.8,M,-29.4,M,,*4D\r*4D\r,\u0001\r\n"2022-06-04 17:51:55
"||||||||||||-101,6969,$ACCEL,4.54,-0.35,-8.86,$ALT,658.36,-203.96.8636,N,11748.5480,W,2,15,0.71,629.8,M,-29.4,M,,*4D\r*4D\r,\u0001\r\n"2022-06-04 17:51:55
"||||||||||||-101,6969,$GNRMC,175151.000,A,352,8W,0,658.36,-203.96.8636,N,11748.5480,W,2,15,0.71,629.8,M,-29.4,M,,*4D\r*4D\r,\u0001\r\n"2022-06-04 17:51:55
"||||||||||||-107,6969,$ACCEL,4.55,-0.34,-8.88,$ALT,658.21,-203.91.8636,N,11748.5480,W,2,15,0.71,629.8,M,-29.4,M,,*4D\r*4D\r,\u0001\r\n"2022-06-04 17:51:56
"||||||||||||-101,6969,$ACCEL,4.55,-0.36,-8.86,$ALT,658.24,-203.92\u0001\r\n"2022-06-04 17:51:57
"||||||||||||-100,6969,$GNRMC,175152.0564,,,,\r$GNGGA,175153.000,3520.8636,N,11748.5480,W,2,15,0.71,629.8,M,-29.4,M,,*4F\r\r\n"2022-06-04 17:51:57
"||||||||||||-107,6969,$ACCEL,4.55,-0.36,-8.86,$ALT,658.26,-203.9320.8636,N,11748.5480,W,2,15,0.71,629.8,M,-29.4,M,,*4F\r\r\n"2022-06-04 17:51:58
"||||||||||||-103,6969,$GNRMC,175153.33702,2F$GNGGA,175154.000,3520.8636,N,11748.5480,W,2,15,0.71,629.8,M,-29.4,M,,*48\r\r\r\n"2022-06-04 17:51:58
"||||||||||||-100,6969,$ACCEL,4.54,-0.35,-8.95,$ALT,658.33,-203.950.8636,N,11748.5480,W,2,15,0.71,629.8,M,-29.4,M,,*48\r\r\r\n"2022-06-04 17:51:59
"||||||||||||-99,6969,$GNRMC,175154.0000N8W24,$GNGGA,175155.000,3520.8635,N,11748.5480,W,2,15,0.71,629.8,M,-,$1.33703,,B$GNGGA,175156.000,35\r\n"2022-06-04 17:52:00
"||||||||||||-98,6969,$ACCEL,4.55,-0.35,-8.84,$ALT,658.37,-203.97520.8635,N,11748.5480,W,2,15,0.71,629.8,M,-,$1.33703,,B$GNGGA,175156.000,35\r\n"2022-06-04 17:52:00
"||||||||||||-100,6969,$GNRMC,175156.000,A,0N.,30D$GNGGA,175157.000,3520.8635,N,11748.5480,W,2,15,0.71,629.8,M,-29.4,M,,*48\rGGA,175156.000,35\r\n"2022-06-04 17:52:01
"||||||||||||-99,6969,$ACCEL,4.61,-0.35,-8.88,$ALT,658.34,-203.960,3520.8635,N,11748.5480,W,2,15,0.71,629.8,M,-29.4,M,,*48\rGGA,175156.000,35\r\n"2022-06-04 17:52:01
"||||||||||||-98,6969,$GNRMC,175157.00,614.825$GNGGA,175158.000,3520.8635,N,11748.5480,W,2,15,0.71,629.8,M,-29.4,M,,*47\r48\rGGA,175156.000,35\r\n"2022-06-04 17:52:02
"||||||||||||-98,6969,$ACCEL,4.60,-0.33,-8.82,$ALT,658.38,-203.97520.8635,N,11748.5480,W,2,15,0.71,629.8,M,-29.4,M,,*47\r48\rGGA,175156.000,35\r\n"2022-06-04 17:52:02
"||||||||||||-99,6969,$GNRMC,175158.036180821$GNGGA,175159.000,3520.8635,N,11748.5480,W,2,15,0.71,629.8,M,-29.4,M,,*46\r\r48\rGGA,175156.000,35\r\n"2022-06-04 17:52:03
"||||||||||||-102,6969,$ACCEL,4.62,-0.34,-8.85,$ALT,658.41,-203.99\u0001\r\n"2022-06-04 17:52:04
"||||||||||||-98,6969,$GNRMC,175159.000,A,3520.8635,N,11748.5480,W,0.05,$GNGGA,175200.000,3520.8635,N,11748.5480,W,2,15,0.71,629.8,M,-29.4,M \r\n"2022-06-04 17:52:04
"||||||||||||-107,6969,$ACCEL,4.57,-0.35,-8.94,$ALT,658.48,-204.01\u0001\r\n"2022-06-04 17:52:05
"||||||||||||-103,6969,$GNRMC,175200.000,A,3520.86$GNGGA,175201.000,3520.8635,N,11748.5480,W,2,15,0.71,629.7,M,-29.4,M,,*47\r\r\n"2022-06-04 17:52:05
"||||||||||||-109,6969,$ACCEL,4.59,-0.35,-8.99,$ALT,658.46,-204.010,3520.8635,N,11748.5480,W,2,15,0.71,629.7,M,-29.4,M,,*47\r\r\n"2022-06-04 17:52:06
"||||||||||||-115,6969,$GNRMC,175201.000,A,3520$GNGGA,175202.000,3520.8635,N,11748.5480,W,2,15,0.71,629.7,M,-29.4,M,,*44\r47\r\r\n"2022-06-04 17:52:06
"||||||||||||-108,6969,$ACCEL,4.50,-0.36,-8.81,$ALT,658.32,-203.96\u0001\r\n"2022-06-04 17:52:07
"||||||||||||-107,6969,$GNRMC,175202.000,A,35.$GNGGA,175203.000,3520.8635,N,11748.5480,W,2,15,0.71,629.7,M,-29.4,M,,*45\r\r\n"2022-06-04 17:52:07
"||||||||||||-107,6969,$ACCEL,4.54,-0.35,-8.93,$ALT,658.38,-203.9920.8635,N,11748.5480,W,2,15,0.71,629.7,M,-29.4,M,,*45\r\r\n"2022-06-04 17:52:08
"||||||||||||-103,6969,$GNRMC,175203.000,A,352.N.,30D$GNGGA,175204.000,3520.8635,N,11748.5480,W,2,15,0.71,629.7,M,-29.4,M,,*42\r\r\n"2022-06-04 17:52:08
"||||||||||||-114,6969,$ACCEL,4.54,-0.35,-8.93,$ALT,658.48,-204.02.000,3520.8635,N,11748.5480,W,2,15,0.71,629.7,M,-29.4,M,,*42\r\r\n"2022-06-04 17:52:09
"||||||||||||-113,6969,$GNRMC,1754,614.825$GNGGA,175205.000,3520.8635,N,11748.5480,W,2,15,0.71,629.8,M,-29.4,M,,*4C\r9.4,M,,*42\r\r\n"2022-06-04 17:52:09
"||||||||||||-105,6969,$ACCEL,4.55,-0.35,-8.85,$ALT,658.53,-204.04\u0001\r\n"2022-06-04 17:52:10
"||||||||||||-101,6969,$GNRMC,175205.00055402,,\r$GNGGA,175206.000,3520.8635,N,11748.5480,W,2,15,0.71,629.7,M,-29.4,M,,*40\r`\r\n"2022-06-04 17:52:10
"||||||||||||-99,6969,$ACCEL,4.55,-0.36,-8.89,$ALT,658.63,-204.073520.8635,N,11748.5480,W,2,15,0.71,629.7,M,-29.4,M,,*40\r`\r\n"2022-06-04 17:52:11
"||||||||||||-97,6969,$GNRMC,175206A.,50.6*$GNGGA,175207.000,3520.8635,N,11748.5480,W,2,15,0.71,629.7,M,-29.4,M,,*41\r*40\r`\r\n"2022-06-04 17:52:11
"||||||||||||-106,6969,$ACCEL,4.55,-0.35,-9.01,$ALT,658.41,-204.00\u0001\r\n"2022-06-04 17:52:12
"||||||||||||-100,6969,$GNRMC,175207.00,.,5030D$GNGGA,175208.000,3520.8635,N,11748.5480,W,2,15,0.71,629.7,M,-29.4,M,,*4E\r\r\n"2022-06-04 17:52:12
"||||||||||||-101,6969,$ACCEL,4.49,-0.32,-9.02,$ALT,658.50,-204.03520.8635,N,11748.5480,W,2,15,0.71,629.7,M,-29.4,M,,*4E\r\r\n"2022-06-04 17:52:13
"||||||||||||-102,6969,$GNRMC,175208.00A814.86*$GNGGA,175209.000,3520.8635,N,11748.5480,W,2,15,0.71,629.7,M,-29.4,M,,*4F\r\r\n"2022-06-04 17:52:13
"||||||||||||-100,6969,$ACCEL,4.52,-0.36,-8.94,$ALT,658.78,-204.11520.8635,N,11748.5480,W,2,15,0.71,629.7,M,-29.4,M,,*4F\r\r\n"2022-06-04 17:52:13
"||||||||||||-103,6969,$GNRMC,175209.00,.,5,30D$GNGGA,175210.000,3520.8635,N,11748.5480,W,2,15,0.71,629.7,M,-29.4,M,,*47\r\r\n"2022-06-04 17:52:14
"||||||||||||-100,6969,$ACCEL,4.48,-0.35,-8.87,$ALT,658.36,-203.99520.8635,N,11748.5480,W,2,15,0.71,629.7,M,-29.4,M,,*47\r\r\n"2022-06-04 17:52:14
"||||||||||||-100,6969,$GNRMC,175210.0,614.825$GNGGA,175211.000,3520.8635,N,11748.5480,W,2,15,0.71,629.7,M,-29.4,M,,*46\r\r\n"2022-06-04 17:52:15
"||||||||||||-101,6969,$ACCEL,4.56,-0.34,-8.88,$ALT,658.41,-204.00\u0005R\r\n"2022-06-04 17:52:15
"||||||||||||-100,6969,$GNRMC,175211.00,614.825$GNGGA,175212.000,3520.8635,N,11748.5480,W,2,15,0.71,629.7,M,-29.4,M,,*45\r\r\n"2022-06-04 17:52:16
"||||||||||||-99,6969,$ACCEL,4.52,-0.36,-8.86,$ALT,658.51,-204.04\u0001\r\n"2022-06-04 17:52:16
"||||||||||||-99,6969,$GNRMC,175212.000N.,34,$GNGGA,175213.000,3520.8635,N,11748.5480,W,2,15,0.71,629.7,M,-29.4,M,,*44\r\r\n"2022-06-04 17:52:17
"||||||||||||-100,6969,$ACCEL,4.47,-0.38,-8.78,$ALT,658.70,-204.09\u0005R\r\n"2022-06-04 17:52:17
"||||||||||||-100,6969,$GNRMC,175213.0,.,50.6D$GNGGA,175214.000,3520.8635,N,11748.5480,W,2,15,0.71,629.7,M,-29.4,M,,*43\r\r\n"2022-06-04 17:52:18
"||||||||||||-103,6969,$ACCEL,4.51,-0.38,-8.85,$ALT,658.35,-203.99\u0001\r\n"2022-06-04 17:52:18
"||||||||||||-103,6969,$GNRMC,175214.000N.,30,$GNGGA,175215.000,3520.8635,N,11748.5480,W,2,15,0.71,629.7,M,-29.4,M,,*42\r\r\n"2022-06-04 17:52:19
"||||||||||||-100,6969,$ACCEL,4.60,-0.32,-8.95,$ALT,658.41,-204.0020.8635,N,11748.5480,W,2,15,0.71,629.7,M,-29.4,M,,*42\r\r\n"2022-06-04 17:52:19
"||||||||||||-100,6969,$GNRMC,175215.00A8140.6*$GNGGA,175216.000,3520.8635,N,11748.5480,W,2,15,0.71,629.7,M,-29.4,M,,*41\r\r\n"2022-06-04 17:52:20
"||||||||||||-103,6969,$ACCEL,4.56,-0.32,-9.01,$ALT,658.22,-203.95520.8635,N,11748.5480,W,2,15,0.71,629.7,M,-29.4,M,,*41\r\r\n"2022-06-04 17:52:20
"||||||||||||-105,6969,$GNRMC,175216.0A814.82*$GNGGA,175217.000,3520.8635,N,11748.5480,W,2,15,0.71,629.7,M,-29.4,M,,*40\r\r\r\n"2022-06-04 17:52:21
"||||||||||||-102,6969,$ACCEL,4.56,-0.32,-9.01,$ALT,658.41,-204.00\u0005R\r\n"2022-06-04 17:52:21
"||||||||||||-102,6969,$GNRMC,175217.002,8,,0,,$ALT,658.41,-204.00\u0005R\r\n"2022-06-04 17:52:21
"||||||||||||-102,6969,$ACCEL,4.58,-0.36,-8.90,$ALT,658.77,-204.13\u0005R\r\n"2022-06-04 17:52:22
"||||||||||||-102,6969,$GNGGA,175218.000,3520.8635,N,11748.5480,W,2,15,0.71,629.7,M,-29.4,M,,*4F\r\r\n"2022-06-04 17:52:22
"||||||||||||-101,6969,$ACCEL,4.50,-0.35,-8.90,$ALT,658.13,-203.922,15,0.71,629.7,M,-29.4,M,,*4F\r\r\n"2022-06-04 17:52:23
"||||||||||||-101,6969,$GNRMC,175218.00,.,5030D$GNGGA,175219.000,3520.8635,N,11748.5480,W,2,15,0.71,629.7,M,-29.4,M,,*4E\r\r\n"2022-06-04 17:52:23
"||||||||||||-101,6969,$ACCEL,4.53,-0.35,-8.95,$ALT,658.34,-203.99\u0001\r\n"2022-06-04 17:52:24
"||||||||||||-101,6969,$GNRMC,175219.0000N.,30,$GNGGA,175220.000,3520.8635,N,11748.5480,W,2,15,0.71,629.8,M,-29.4,M,,*4B\r\r\n"2022-06-04 17:52:24
"||||||||||||-99,6969,$ACCEL,4.53,-0.39,-8.87,$ALT,658.29,-203.97520.8635,N,11748.5480,W,2,15,0.71,629.8,M,-29.4,M,,*4B\r\r\n"2022-06-04 17:52:25
"||||||||||||-100,6969,$GNRMC,175220.00A8,50.6*$GNGGA,175221.000,3520.8635,N,11748.5480,W,2,15,0.71,629.8,M,-2,G702,8,,0,\r\n"2022-06-04 17:52:25
"||||||||||||-97,6969,$ACCEL,4.53,-0.35,-8.94,$ALT,658.24,-203.95520.8635,N,11748.5480,W,2,15,0.71,629.8,M,-2,G702,8,,0,\r\n"2022-06-04 17:52:25
"||||||||||||-99,6969,$GNGGA,175222.000,3520.8635,N,11748.5480,W,2,15,0.71,629.8,M,-29.4,M,,*49\r71,629.8,M,-2,G702,8,,0,\r\n"2022-06-04 17:52:26
"||||||||||||-101,6969,$ACCEL,4.53,-0.35,-8.94,$ALT,658.30,-203.97\u0001\r\n"2022-06-04 17:52:26
"||||||||||||-99,6969,$GNRMC,175222.000,A,2,8W,0,T,658.30,-20\r\n"2022-06-04 17:52:26
"||||||||||||-99,6969,$ACCEL,4.59,-0.38,-8.81,$ALT,658.12,-203.92\u0001\r\n"2022-06-04 17:52:27
"||||||||||||-100,6969,$ACCEL,4.76,-0.37,-8.71,$ALT,658.41,-204.01\u0001\r\n"2022-06-04 17:52:27
"||||||||||||-101,6969,$GNRMC,175223.,6180825$GNGGA,175224.000,3520.8635,N,11748.5480,W,2,15,0.71,629.8,M,-29.4,M,,*4F\r\r\n"2022-06-04 17:52:28
"||||||||||||-98,6969,$ACCEL,4.46,-0.33,-9.04,$ALT,658.39,-204.010.8635,N,11748.5480,W,2,15,0.71,629.8,M,-29.4,M,,*4F\r\r\n"2022-06-04 17:52:28
"||||||||||||-101,6969,$GNRMC,175224.00554,,0,\r$GNGGA,175225.000,3520.8635,N,11748.5480,W,2,15,0.71,629.8,M,-29.4,M,,*4E\r\r\n"2022-06-04 17:52:29
"||||||||||||-101,6969,$ACCEL,4.52,-0.39,-9.01,$ALT,658.33,-203.99520.8635,N,11748.5480,W,2,15,0.71,629.8,M,-29.4,M,,*4E\r\r\n"2022-06-04 17:52:30
"||||||||||||-100,6969,$GNRMC,175225.33702,,E$GNGGA,175226.000,3520.8635,N,11748.5480,W,2,15,0.71,629.8,M,-29.4,M4R2,.,.,30D$GNGGA,175227.000 \r\n"2022-06-04 17:52:30
"||||||||||||-102,6969,$ACCEL,4.43,-0.37,-8.85,$ALT,658.01,-203.890.8635,N,11748.5480,W,2,15,0.71,629.8,M,-29.4,M4R2,.,.,30D$GNGGA,175227.000 \r\n"2022-06-04 17:52:31
"||||||||||||-104,6969,$GNRMC,175227.000,A,.,.,30D$GNGGA,175228.000,3520.8635,N,11748.5480,W,2,15,0.71,629.8,M,-29.4,M,,*43\r$GNGGA,175227.000 \r\n"2022-06-04 17:52:31
"||||||||||||-96,6969,$ACCEL,4.56,-0.35,-8.89,$ALT,658.09,-203.910,3520.8635,N,11748.5480,W,2,15,0.71,629.8,M,-29.4,M,,*43\r$GNGGA,175227.000 \r\n"2022-06-04 17:52:32
"||||||||||||-100,6969,$GNRMC,175228.000,8W24,$GNGGA,175229.000,3520.8635,N,11748.5480,W,2,15,0.71,629.8,M,-29.4,M,,*42\r*43\r$GNGGA,175227.000 \r\n"2022-06-04 17:52:32
"||||||||||||-96,6969,$ACCEL,4.55,-0.40,-8.84,$ALT,658.11,-203.92\u0005R\r\n"2022-06-04 17:52:33
"||||||||||||-96,6969,$GNRMC,175229.00,.N.,30D$GNGGA,175230.000,3520.8635,N,11748.5480,W,2,15,0.71,629.8,M,-29.4,M,,*4A\r\r\n"2022-06-04 17:52:33
"||||||||||||-96,6969,$ACCEL,4.54,-0.34,-8.80,$ALT,658.07,-203.91520.8635,N,11748.5480,W,2,15,0.71,629.8,M,-29.4,M,,*4A\r\r\n"2022-06-04 17:52:34
"||||||||||||-93,6969,$GNRMC,175230.000,A,3520.8635,N,11748.5480,W,0.02,$GNGGA,175231.000,3520.8635,N,11748.5480,W,2,15,0.71,629.8,M,-29.4,M\r\n"2022-06-04 17:52:34
"||||||||||||-99,6969,$ACCEL,4.44,-0.38,-8.94,$ALT,658.15,-203.94\u0005R\r\n"2022-06-04 17:52:35
"||||||||||||-99,6969,$GNRMC,175231.000,A,3520.86$GNGGA,175232.000,3520.8635,N,11748.5480,W,2,15,0.71,629.8,M,-29.4,M,,*48\r\r\n"2022-06-04 17:52:35
"||||||||||||-100,6969,$ACCEL,4.42,-0.34,-8.92,$ALT,658.03,-203.900,3520.8635,N,11748.5480,W,2,15,0.71,629.8,M,-29.4,M,,*48\r\r\n"2022-06-04 17:52:36
"||||||||||||-99,6969,$GNRMC,175232.000,A,352$GNGGA,175233.000,3520.8635,N,11748.5480,W,2,15,0.71,629.8,M,-29.4,M,,*49\r*48\r\r\n"2022-06-04 17:52:36
"||||||||||||-99,6969,$ACCEL,4.59,-0.35,-8.87,$ALT,657.99,-203.8920.8635,N,11748.5480,W,2,15,0.71,629.8,M,-29.4,M,,*49\r*48\r\r\n"2022-06-04 17:52:37
"||||||||||||-105,6969,$GNRMC,175233.000,A,3520$GNGGA,175234.000,3520.8635,N,11748.5480,W,2,15,0.71,629.8,M,-29.4,M,,*4E\r48\r\r\n"2022-06-04 17:52:37
"||||||||||||-102,6969,$ACCEL,4.48,-0.34,-8.92,$ALT,657.86,-203.85520.8635,N,11748.5480,W,2,15,0.71,629.8,M,-29.4,M,,*4E\r48\r\r\n"2022-06-04 17:52:38
"||||||||||||-101,6969,$GNRMC,175234.000,A,350N.,30D$GNGGA,175235.000,3520.8635,N,11748.5480,W,2,15,0.71,629.8,M,-29.4,M,,*4F\r\r\n"2022-06-04 17:52:38
"||||||||||||-102,6969,$ACCEL,4.52,-0.34,-8.89,$ALT,658.22,-203.97000,3520.8635,N,11748.5480,W,2,15,0.71,629.8,M,-29.4,M,,*4F\r\r\n"2022-06-04 17:52:39
"||||||||||||-106,6969,$GNRMC,1752,.,50.0D$GNGGA,175236.000,3520.8635,N,11748.5480,W,2,15,0.71,629.8,M,-29.4,M,,*4C\r.4,M,,*4F\r\r\n"2022-06-04 17:52:39
"||||||||||||-102,6969,$ACCEL,4.49,-0.34,-8.92,$ALT,658.05,-203.92635,N,11748.5480,W,2,15,0.71,629.8,M,-29.4,M,,*4C\r.4,M,,*4F\r\r\n"2022-06-04 17:52:40
"||||||||||||-101,6969,$GNRMC,175236.0055701,,\r$GNGGA,175237.000,3520.8635,N,11748.5480,W,2,15,0.71,629.8,M,-29.4,M,,*4D\r,*4F\r\r\n"2022-06-04 17:52:40
"||||||||||||-103,6969,$ACCEL,4.49,-0.34,-8.92,$ALT,657.98,-203.88\u0005R\r\n"2022-06-04 17:52:41
"||||||||||||-102,6969,$GNRMC,175237.002,8,,0,,$ALT,657.98,-203.88\u0005R\r\n"2022-06-04 17:52:41
"||||||||||||-99,6969,$ACCEL,4.50,-0.34,-8.87,$ALT,658.01,-203.91\u0005R\r\n"2022-06-04 17:52:41
"||||||||||||-107,6969,$GNGGA,175238.000,3520.8635,N,11748.5480,W,2,15,0.71,629.8,M,-29.4,M,,*42\r\r\n"2022-06-04 17:52:42
"||||||||||||-101,6969,$ACCEL,4.51,-0.35,-8.89,$ALT,657.95,-203.89\u0001\r\n"2022-06-04 17:52:42
"||||||||||||-100,6969,$GNRMC,175238.055401,,\r$GNGGA,175239.000,3520.8635,N,11748.5480,W,2,15,0.71,629.8,M,-29.4,M,,*43\r\r\n"2022-06-04 17:52:43
"||||||||||||-105,6969,$ACCEL,4.47,-0.36,-8.87,$ALT,658.04,-203.9120.8635,N,11748.5480,W,2,15,0.71,629.8,M,-29.4,M,,*43\r\r\n"2022-06-04 17:52:43
"||||||||||||-104,6969,$GNRMC,175239.00N.,30D$GNGGA,175240.000,3520.8635,N,11748.5480,W,2,15,0.71,629.8,M,-29.4,M,,*4D\r\r\r\n"2022-06-04 17:52:44
"||||||||||||-102,6969,$ACCEL,4.51,-0.34,-8.85,$ALT,657.98,-203.90\u0001\r\n"2022-06-04 17:52:44
"||||||||||||-106,6969,$GNRMC,175240.00A814..6*$GNGGA,175241.000,3520.8635,N,11748.5480,W,2,15,0.71,629.8,M,-2MB\u000f\r\n"2022-06-04 17:52:44
"||||||||||||-102,6969,$ACCEL,4.47,-0.34,-8.93,$ALT,658.08,-203.93520.8635,N,11748.5480,W,2,15,0.71,629.8,M,-2MB\u000f\r\n"2022-06-04 17:52:45
"||||||||||||-101,6969,,.3318082E$GNGGA,175242.000,3520.8635,N,11748.5480,W,2,15,0.71,629.8,M,-29.4,M,,*4F\r,-2MB\u000f\r\n"2022-06-04 17:52:45
"||||||||||||-109,6969,$ACCEL,4.47,-0.34,-8.93,$ALT,657.96,-203.88\u0001\r\n"2022-06-04 17:52:46
"||||||||||||-108,6969,$GNRMC,175242.000,A,32,4,,0,,657.96,-203.88\u0001\r\n"2022-06-04 17:52:46
"||||||||||||-111,6969,$ACCEL,4.53,-0.35,-8.85,$ALT,658.18,-203.96\u0001\r\n"2022-06-04 17:52:46
"||||||||||||-101,6969,$GNRMC,1752430554,,,,\r$GNGGA,175244.000,3520.8635,N,11748.5480,W,2,15,0.71,629.8,M,-29.4,M,,*49\r\r\n"2022-06-04 17:52:47
"||||||||||||-97,6969,$ACCEL,4.52,-0.35,-8.93,$ALT,658.06,-203.930.8635,N,11748.5480,W,2,15,0.71,629.8,M,-29.4,M,,*49\r\r\n"2022-06-04 17:52:48
"||||||||||||-102,6969,$GNRMC,175244.000,0N.,34,$GNGGA,175245.000,3520.8635,N,11748.5480,W,2,15,0.71,629.8,M,-29.4,M,,*48\r`\r\n"2022-06-04 17:52:48
"||||||||||||-104,6969,$ACCEL,4.49,-0.33,-8.90,$ALT,658.23,-203.983520.8635,N,11748.5480,W,2,15,0.71,629.8,M,-29.4,M,,*48\r`\r\n"2022-06-04 17:52:50
"||||||||||||-103,6969,$GNRMC,175245.000,0N.,30,$GNGGA,175246.000,3520.8635,N,11748.5480,W,2,15,0.71,629.9,M,-2.4R2,.,5030D$GNGGA,175247.000, \r\n"2022-06-04 17:52:50
"||||||||||||-100,6969,$ACCEL,4.53,-0.34,-8.94,$ALT,658.20,-203.973520.8635,N,11748.5480,W,2,15,0.71,629.9,M,-2.4R2,.,5030D$GNGGA,175247.000, \r\n"2022-06-04 17:52:51
"||||||||||||-99,6969,$GNRMC,175247.000,A,8,50.6*$GNGGA,175248.000,3520.8635,N,11748.5480,W,2,15,0.71,629.8,M,-29.4,M,,*45\r\r\n"2022-06-04 17:52:51
"||||||||||||-103,6969,$ACCEL,4.54,-0.28,-8.79,$ALT,658.20,-203.980,3520.8635,N,11748.5480,W,2,15,0.71,629.8,M,-29.4,M,,*45\r\r\n"2022-06-04 17:52:52
"||||||||||||-101,6969,$GNRMC,175248.00033704,,\r$GNGGA,175249.000,3520.8635,N,11748.5480,W,2,15,0.71,629.8,M,-29.4,M,,*44\r5\r\r\n"2022-06-04 17:52:52
"||||||||||||-104,6969,$ACCEL,4.50,-0.31,-8.86,$ALT,658.02,-203.923520.8635,N,11748.5480,W,2,15,0.71,629.8,M,-29.4,M,,*44\r5\r\r\n"2022-06-04 17:52:53
"||||||||||||-106,6969,$GNRMC,175249.0053702,,\r$GNGGA,175250.000,3520.8635,N,11748.5480,W,2,15,0.71,629.8,M,-29.4,M,,*4C\r\r\n"2022-06-04 17:52:53
"||||||||||||-107,6969,$ACCEL,4.51,-0.36,-8.92,$ALT,658.21,-203.98520.8635,N,11748.5480,W,2,15,0.71,629.8,M,-29.4,M,,*4C\r\r\n"2022-06-04 17:52:54
"||||||||||||-107,6969,$GNRMC,175250.000,A,3520.8635,N,11748.5480,W,0.0$GNGGA,175251.000,3520.8635,N,11748.5481,W,2,15,0.71,629.8,M,-29.4,M,, \r\n"2022-06-04 17:52:54
"||||||||||||-105,6969,$ACCEL,4.49,-0.34,-8.90,$ALT,658.14,-203.97W,0.0$GNGGA,175251.000,3520.8635,N,11748.5481,W,2,15,0.71,629.8,M,-29.4,M,, \r\n"2022-06-04 17:52:55
"||||||||||||-111,6969,$GNRMC,175251.000,A,3520.86$GNGGA,175252.000,3520.8635,N,11748.5481,W,2,14,0.76,629.8,M,-29.4,M,,*49\r629.8,M,-29.4,M,, \r\n"2022-06-04 17:52:55
"||||||||||||-107,6969,$GNRMC,175252.000,A,3520,$GNGGA,175253.000,3520.8635,N,11748.5481,W,2,15,0.71,629.8,M,-29.4,M,,*4E\r,\u0001\r\n"2022-06-04 17:52:56
"||||||||||||-111,6969,$ACCEL,4.50,-0.36,-8.86,$ALT,658.09,-203.95\u0001\r\n"2022-06-04 17:52:57
"||||||||||||-103,6969,$GNRMC,175253.000,A,35.,$GNGGA,175254.000,3520.8635,N,11748.5480,W,2,15,0.71,629.7,M,-29.4,M,,*47\r\r\n"2022-06-04 17:52:57
"||||||||||||-103,6969,$ACCEL,4.49,-0.39,-8.92,$ALT,658.06,-203.94520.8635,N,11748.5480,W,2,15,0.71,629.7,M,-29.4,M,,*47\r\r\n"2022-06-04 17:52:58
"||||||||||||-105,6969,$GNRMC,175254.000,A,3618082E$GNGGA,175255.000,3520.8635,N,11748.5481,W,2,15,0.71,629.8,M,-29.4,M,,*48\r \r\n"2022-06-04 17:52:58
"||||||||||||-101,6969,$ACCEL,4.56,-0.32,-8.83,$ALT,658.12,-203.96\u0001\r\n"2022-06-04 17:52:59
"||||||||||||-100,6969,$GNRMC,1755A814.82*$GNGGA,175256.000,3520.8635,N,11748.5481,W,2,15,0.71,629.7,M,-29.4,M,,*44\r\r\n"2022-06-04 17:52:59
"||||||||||||-99,6969,$ACCEL,4.56,-0.34,-8.65,$ALT,658.05,-203.94635,N,11748.5481,W,2,15,0.71,629.7,M,-29.4,M,,*44\r\r\n"2022-06-04 17:53:00
"||||||||||||-98,6969,$GNRMC,175256.003371082B$GNGGA,175257.000,3520.8635,N,11748.5481,W,2,15,0.71,629.7,M,-29.4,M,,*45\r\r\n"2022-06-04 17:53:00
"||||||||||||-95,6969,$ACCEL,4.54,-0.29,-8.73,$ALT,657.80,-203.86520.8635,N,11748.5481,W,2,15,0.71,629.7,M,-29.4,M,,*45\r\r\n"2022-06-04 17:53:01
"||||||||||||-95,6969,$GNRMC,175257.033712,2A$GNGGA,175258.000,3520.8635,N,11748.5481,W,2,15,0.71,629.7,M,-29.4,M,,*4A\r\r\r\n"2022-06-04 17:53:01
"||||||||||||-96,6969,$ACCEL,4.47,-0.25,-8.89,$ALT,658.03,-203.9420.8635,N,11748.5481,W,2,15,0.71,629.7,M,-29.4,M,,*4A\r\r\r\n"2022-06-04 17:53:02
"||||||||||||-96,6969,$GNRMC,175258.00A8140.6*$GNGGA,175259.000,3520.8635,N,11748.5481,W,2,15,0.71,629.7,M,-29.4,M,,*4B\r\r\n"2022-06-04 17:53:02
"||||||||||||-93,6969,$ACCEL,4.48,-0.30,-9.16,$ALT,658.13,-203.97520.8635,N,11748.5481,W,2,15,0.71,629.7,M,-29.4,M,,*4B\r\r\n"2022-06-04 17:53:03
"||||||||||||-93,6969,$GNRMC,175259.055413,,\r$GNGGA,175300.000,3520.8635,N,11748.5481,W,2,15,0.71,629.8,M,-29.4,M,,*49\r\r\n"2022-06-04 17:53:03
"||||||||||||-95,6969,$ACCEL,4.48,-0.30,-9.16,$ALT,658.09,-203.96\u0001\r\n"2022-06-04 17:53:04
"||||||||||||-98,6969,$GNRMC,175300.000N8W24,$GNGGA,175301.000,3520.8635,N,11748.5481,W,2,15,0.71,629.8,M,-29.4,M,,*48\r\r\n"2022-06-04 17:53:04
"||||||||||||-96,6969,$ACCEL,4.49,-0.31,-8.95,$ALT,658.23,-204.01\u0001\r\n"2022-06-04 17:53:05
"||||||||||||-96,6969,$GNRMC,175301.0003371082E$GNGGA,175302.000,3520.8635,N,11748.5481,W,2,15,0.71,629.7,M,-29.4,M,,*44\r`\r\n"2022-06-04 17:53:05
"||||||||||||-96,6969,$ACCEL,4.53,-0.32,-8.91,$ALT,658.16,-203.98\u0001\r\n"2022-06-04 17:53:06
"||||||||||||-95,6969,$GNRMC,175302.000N.,34,$GNGGA,175303.000,3520.8635,N,11748.5481,W,2,15,0.71,629.8,M,-29.4,M,,*4A\r\r\n"2022-06-04 17:53:06
"||||||||||||-96,6969,$ACCEL,4.52,-0.34,-9.12,$ALT,658.28,-204.03\u0001\r\n"2022-06-04 17:53:07
"||||||||||||-95,6969,$GNRMC,175303.A814.82*$GNGGA,175304.000,3520.8635,N,11748.5481,W,2,15,0.71,629.7,M,-29.4,M,,*42\r\r\n"2022-06-04 17:53:07
"||||||||||||-96,6969,$ACCEL,4.54,-0.33,-8.90,$ALT,658.27,-204.020.8635,N,11748.5481,W,2,15,0.71,629.7,M,-29.4,M,,*42\r\r\n"2022-06-04 17:53:08
"||||||||||||-96,6969,$GNRMC,175304.00033711,,\r$GNGGA,175305.000,3520.8635,N,11748.5481,W,2,15,0.71,629.7,M,-29.4,M,,*43\r`\r\n"2022-06-04 17:53:08
"||||||||||||-95,6969,$ACCEL,4.60,-0.33,-8.86,$ALT,658.14,-203.993520.8635,N,11748.5481,W,2,15,0.71,629.7,M,-29.4,M,,*43\r`\r\n"2022-06-04 17:53:09
"||||||||||||-97,6969,$GNRMC,175305.00A814.825$GNGGA,175306.000,3520.8635,N,11748.5481,W,2,15,0.71,629.7,M,-29.4,M,,*40\r\r`\r\n"2022-06-04 17:53:09
"||||||||||||-99,6969,$ACCEL,4.54,-0.35,-8.89,$ALT,658.20,-204.00520.8635,N,11748.5481,W,2,15,0.71,629.7,M,-29.4,M,,*40\r\r`\r\n"2022-06-04 17:53:10
"||||||||||||-96,6969,$GNRMC,17530600N8W24,$GNGGA,175307.000,3520.8635,N,11748.5481,W,2,15,0.71,629.7,M,-29.4,M,,*41\r40\r\r`\r\n"2022-06-04 17:53:10
"||||||||||||-98,6969,$ACCEL,4.54,-0.34,-8.84,$ALT,658.14,-203.99\u0001\r\n"2022-06-04 17:53:11
"||||||||||||-98,6969,$GNRMC,175307.000,A.,50.6*$GNGGA,175308.000,3520.8635,N,11748.5481,W,2,15,0.71,629.7,M,-29.4,M,,*4E\r\r\n"2022-06-04 17:53:11
"||||||||||||-99,6969,$ACCEL,4.51,-0.32,-8.93,$ALT,658.24,-204.02\u0001\r\n"2022-06-04 17:53:12
"||||||||||||-101,6969,$GNRMC,175308.0033710820$GNGGA,175309.000,3520.8635,N,11748.5481,W,2,15,0.71,629.7,M,-29.4,M,,*4F\r\r\n"2022-06-04 17:53:12
"||||||||||||-97,6969,$ACCEL,4.54,-0.34,-8.83,$ALT,658.22,-204.02520.8635,N,11748.5481,W,2,15,0.71,629.7,M,-29.4,M,,*4F\r\r\n"2022-06-04 17:53:13
"||||||||||||-96,6969,$GNRMC,175309.0,814.825$GNGGA,175310.000,3520.8635,N,11748.5481,W,2,15,0.71,629.7,M,-29.4,M,,*47\r\r\n"2022-06-04 17:53:13
"||||||||||||-97,6969,$ACCEL,4.51,-0.34,-8.86,$ALT,658.18,-204.00\u0005R\r\n"2022-06-04 17:53:14
"||||||||||||-96,6969,$GNRMC,175310.000,8W24,$GNGGA,175311.000,3520.8635,N,11748.5481,W,2,15,0.71,629.7,M,-29.4,M,,*46\r\r\n"2022-06-04 17:53:14
"||||||||||||-97,6969,$ACCEL,4.56,-0.35,-8.87,$ALT,657.89,-203.9120.8635,N,11748.5481,W,2,15,0.71,629.7,M,-29.4,M,,*46\r\r\n"2022-06-04 17:53:15
"||||||||||||-96,6969,$GNRMC,175311.00,614.825$GNGGA,175312.000,3520.8635,N,11748.5481,W,2,15,0.71,629.7,M,-29.4,M,,*45\r\r\n"2022-06-04 17:53:15
"||||||||||||-96,6969,$ACCEL,4.56,-0.34,-8.84,$ALT,658.11,-203.99520.8635,N,11748.5481,W,2,15,0.71,629.7,M,-29.4,M,,*45\r\r\n"2022-06-04 17:53:16
"||||||||||||-95,6969,$GNRMC,175312.,.,.,30D$GNGGA,175313.000,3520.8635,N,11748.5481,W,2,15,0.71,629.7,M,-29.4,M,,*44\r\r\n"2022-06-04 17:53:16
"||||||||||||-97,6969,$ACCEL,4.54,-0.34,-8.93,$ALT,658.01,-203.96\u0001\r\n"2022-06-04 17:53:17
"||||||||||||-96,6969,$GNRMC,175313.00033712,,B$GNGGA,175314.000,3520.8635,N,11748.5481,W,2,14,0.71,629.7,M,-29.4,M,,*42\r`\r\n"2022-06-04 17:53:17
"||||||||||||-96,6969,$ACCEL,4.53,-0.35,-8.88,$ALT,657.98,-203.95\u0001\r\n"2022-06-04 17:53:18
"||||||||||||-97,6969,$GNRMC,175314.0,618082F$GNGGA,175315.000,3520.8635,N,11748.5481,W,2,14,0.72,629.7,M,-29.4,M,,*40\r\r\n"2022-06-04 17:53:18
"||||||||||||-99,6969,$ACCEL,4.54,-0.36,-8.88,$ALT,658.28,-204.05\u0001\r\n"2022-06-04 17:53:19
"||||||||||||-98,6969,$GNRMC,175315.0,.,5030D$GNGGA,175316.000,3520.8635,N,11748.5481,W,2,14,0.72,629.7,M,-29.4,M,,*43\r\r\n"2022-06-04 17:53:19
