"Feather LoRa RX Test!\r\n"2022-04-09 16:00:01
"LoRa radio init OK!\r\n"2022-04-09 16:00:01
"Set Freq to: 915.00\r\n"2022-04-09 16:00:01
"||||||||||||-41,6969,$GNRMC,160000.000,A,3429.7264,N,11657.5585,W,0.01,285.84,0$GNGGA,160001.000,3429.7264,N,11657.5585,W,2,14,0.67,867.2,M \r\n"2022-04-09 16:00:03
"||||||||||||-41,6969,$ACCEL,-1.10,7.46,-5.85,$ALT,865.67,-257.85W,0.01,285.84,0$GNGGA,160001.000,3429.7264,N,11657.5585,W,2,14,0.67,867.2,M \r\n"2022-04-09 16:00:03
"||||||||||||-42,6969,$GNRMC,160001.000,A,32$GNGGA,160002.000,3429.7264,N,11657.5585,W,2,14,0.67,867.3,M,-31.0,M,,*45\r85,W,2,14,0.67,867.2,M \r\n"2022-04-09 16:00:04
"||||||||||||-42,6969,$ACCEL,-1.11,7.45,-5.87,$ALT,865.50,-257.819.7264,N,11657.5585,W,2,14,0.67,867.3,M,-31.0,M,,*45\r85,W,2,14,0.67,867.2,M \r\n"2022-04-09 16:00:05
"||||||||||||-42,6969,$GNRMC,160002.000,A,342$GNGGA,160003.000,3429.7265,N,11657.5585,W,2,14,0.67,867.5,M,-31.0,M,,*43$102,7W2,,\r$GNGGA,1600\r\n"2022-04-09 16:00:05
"||||||||||||-42,6969,$ACCEL,-1.11,7.45,-5.86,$ALT,865.56,-257.82\u0001\r\n"2022-04-09 16:00:06
"||||||||||||-42,6969,$GNRMC,160004.000,A,342715050D$GNGGA,160005.000,3429.7265,N,11657.5586,W,2,14,0.67,867.6,M,-31.0,M,,*45\rB\u000f\r\n"2022-04-09 16:00:06
"||||||||||||-42,6969,$ACCEL,-1.11,7.45,-5.87,$ALT,865.61,-257.84.000,3429.7265,N,11657.5586,W,2,14,0.67,867.6,M,-31.0,M,,*45\rB\u000f\r\n"2022-04-09 16:00:07
"||||||||||||-41,6969,$GNRMC,16000,.,5089,$GNGGA,160006.000,3429.7265,N,11657.5587,W,2,14,0.67,867.7,M,-31.0,M,,*46\r\r\n"2022-04-09 16:00:07
"||||||||||||-42,6969,$ACCEL,-1.12,7.46,-5.86,$ALT,865.70,-257.877265,N,11657.5587,W,2,14,0.67,867.7,M,-31.0,M,,*46\r\r\n"2022-04-09 16:00:08
"||||||||||||-42,6969,$GNRMC,160006.000,2,7W,,,\r$GNGGA,160007.000,3429.7265,N,11657.5587,W,2,14,0.67,867.7,M,-31.0,M,,*47\r\r\n"2022-04-09 16:00:08
"||||||||||||-41,6969,$ACCEL,-1.12,7.46,-5.86,$ALT,865.56,-257.82,3429.7265,N,11657.5587,W,2,14,0.67,867.7,M,-31.0,M,,*47\r\r\n"2022-04-09 16:00:09
"||||||||||||-41,6969,$GNRMC,160007.000,A,3429.7265,N,11657.5587,W,0.0$GNGGA,160008.000,3429.7265,N,11657.5587,W,2,14,0.67,867.8,M,-31.0,M,, \r\n"2022-04-09 16:00:09
"||||||||||||-41,6969,$ACCEL,-1.10,7.45,-5.88,$ALT,865.68,-257.85\u0005R\r\n"2022-04-09 16:00:11
"||||||||||||-40,6969,$GNRMC,160008.000,A,3429.7265,$GNGGA,160009.000,3429.7264,N,11657.5587,W,2,14,0.67,867.8,M,-31.0,M,,*47\r\r\n"2022-04-09 16:00:11
"||||||||||||-42,6969,$ACCEL,-1.11,7.46,-5.87,$ALT,865.61,-257.84.000,3429.7264,N,11657.5587,W,2,14,0.67,867.8,M,-31.0,M,,*47\r\r\n"2022-04-09 16:00:12
"||||||||||||-42,6969,$GNRMC,160009.000,A,$GNGGA,160010.000,3429.7264,N,11657.5587,W,2,14,0.67,867.7,M,-31.0,M,,*40\r\r\n"2022-04-09 16:00:12
"||||||||||||-42,6969,$ACCEL,-1.11,7.44,-5.86,$ALT,865.64,-257.857264,N,11657.5587,W,2,14,0.67,867.7,M,-31.0,M,,*40\r\r\n"2022-04-09 16:00:13
"||||||||||||-43,6969,$GNRMC,160010.000,A,3429.7$GNGGA,160011.000,3429.7264,N,11657.5587,W,2,14,0.67,867.7,M,-31.0,M,,*41\r\r\n"2022-04-09 16:00:13
"||||||||||||-41,6969,$ACCEL,-1.12,7.45,-5.86,$ALT,865.68,-257.86\u0001\r\n"2022-04-09 16:00:14
"||||||||||||-42,6969,$GNRMC,160011.000,A,3429.7264,5050D$GNGGA,160012.000,3429.7264,N,11657.5586,W,2,14,0.67,867.7,M,-31.0,M,,*43\r\r\n"2022-04-09 16:00:15
"||||||||||||-42,6969,$ACCEL,-1.11,7.46,-5.85,$ALT,865.66,-257.8660012.000,3429.7264,N,11657.5586,W,2,14,0.67,867.7,M,-31.0,M,,*43\r\r\n"2022-04-09 16:00:15
"||||||||||||-42,6969,$GNRMC,16001.,218084*$GNGGA,160013.000,3429.7264,N,11657.5586,W,2,14,0.67,867.7,M,-31.0,M,,*42\r\r\n"2022-04-09 16:00:15
"||||||||||||-42,6969,$ACCEL,-1.11,7.46,-5.85,$ALT,865.63,-257.84\u0001\r\n"2022-04-09 16:00:16
"||||||||||||-42,6969,$GNRMC,160013.009N.W20,,$ALT,865.63,-257.84\u0001\r\n"2022-04-09 16:00:16
"||||||||||||-42,6969,$ACCEL,-1.10,7.45,-5.85,$ALT,865.57,-257.83\u0001\r\n"2022-04-09 16:00:16
"||||||||||||-42,6969,$ACCEL,-1.11,7.45,-5.87,$ALT,865.48,-257.83\u0005R\r\n"2022-04-09 16:00:17
"||||||||||||-42,6969,$GNRMC,160014.000,2,7W20,\r$GNGGA,160015.000,3429.7264,N,11657.5586,W,2,14,0.67,867.8,M,-31.0,M,,*4B\r\r\n"2022-04-09 16:00:18
"||||||||||||-42,6969,$ACCEL,-1.10,7.46,-5.85,$ALT,865.52,-257.82,3429.7264,N,11657.5586,W,2,14,0.67,867.8,M,-31.0,M,,*4B\r\r\n"2022-04-09 16:00:18
"||||||||||||-42,6969,$GNRMC,160015.0036660826$GNGGA,160016.000,3429.7265,N,11657.5586,W,2,14,0.67,867.8,M,-31.0,M,,*49\r\r\n"2022-04-09 16:00:19
"||||||||||||-42,6969,$ACCEL,-1.12,7.46,-5.86,$ALT,865.67,-257.86\u0001\r\n"2022-04-09 16:00:20
"||||||||||||-42,6969,$GNRMC,160016.0,215..4*$GNGGA,160017.000,3429.7265,N,11657.5586,W,2,14,0.67,867.7,M,,\r,7,2180.4*$GNGGA,160018.000,3429 \r\n"2022-04-09 16:00:20
"||||||||||||-43,6969,$ACCEL,-1.10,7.45,-5.86,$ALT,865.66,-257.86\u0001\r\n"2022-04-09 16:00:21
"||||||||||||-42,6969,$GNRMC,160018.000,A,3426661826$GNGGA,160019.000,3429.7265,N,11657.5586,W,2,14,0.67,867.6,M,-31.0,M,,*48\rB\u000f\r\n"2022-04-09 16:00:21
"||||||||||||-43,6969,$ACCEL,-1.11,7.46,-5.85,$ALT,865.58,-257.83.000,3429.7265,N,11657.5586,W,2,14,0.67,867.6,M,-31.0,M,,*48\rB\u000f\r\n"2022-04-09 16:00:22
"||||||||||||-42,6969,$GNRMC,160019.000455,,427$GNGGA,160020.000,3429.7265,N,11657.5587,W,2,14,0.67,867.6,M,-31.0,M,,*43\r,*48\rB\u000f\r\n"2022-04-09 16:00:22
"||||||||||||-42,6969,$ACCEL,-1.12,7.45,-5.85,$ALT,865.54,-257.833429.7265,N,11657.5587,W,2,14,0.67,867.6,M,-31.0,M,,*43\r,*48\rB\u000f\r\n"2022-04-09 16:00:23
"||||||||||||-42,6969,$GNRMC,160020.002,7,,,,\r$GNGGA,160021.000,3429.7265,N,11657.5587,W,2,14,0.67,867.7,M,-31.0,M,,*43\r\r\n"2022-04-09 16:00:23
"||||||||||||-42,6969,$ACCEL,-1.11,7.45,-5.85,$ALT,865.44,-257.80\u0001\r\n"2022-04-09 16:00:24
"||||||||||||-42,6969,$GNRMC,160021.000,A,3429.7265,N,11657.5587,W,$GNGGA,160022.000,3429.7266,N,11657.5587,W,2,14,0.67,867.7,M,-31.0,M,,*43 \r\n"2022-04-09 16:00:24
"||||||||||||-42,6969,$ACCEL,-1.12,7.45,-5.88,$ALT,865.63,-257.86\u0005R\r\n"2022-04-09 16:00:25
"||||||||||||-43,6969,$GNRMC,160022.000,A,3429.7266,$GNGGA,160023.000,3429.7266,N,11657.5587,W,2,14,0.67,867.7,M,-31.0,M,,*42\r\r\n"2022-04-09 16:00:25
"||||||||||||-43,6969,$ACCEL,-1.11,7.43,-5.86,$ALT,865.48,-257.81.000,3429.7266,N,11657.5587,W,2,14,0.67,867.7,M,-31.0,M,,*42\r\r\n"2022-04-09 16:00:26
"||||||||||||-43,6969,$GNRMC,160023.000,A,3429.$GNGGA,160024.000,3429.7266,N,11657.5587,W,2,14,0.67,867.7,M,-31.0,M,,*45\r,*42\r\r\n"2022-04-09 16:00:26
"||||||||||||-42,6969,$ACCEL,-1.11,7.45,-5.87,$ALT,865.50,-257.823429.7266,N,11657.5587,W,2,14,0.67,867.7,M,-31.0,M,,*45\r,*42\r\r\n"2022-04-09 16:00:27
"||||||||||||-42,6969,$GNRMC,160024.000,A,3429$GNGGA,160025.000,3429.7266,N,11657.5587,W,2,14,0.67,867.7,M,-31.0,M,,*44\r\r,*42\r\r\n"2022-04-09 16:00:27
"||||||||||||-41,6969,$ACCEL,-1.12,7.46,-5.86,$ALT,865.47,-257.81429.7266,N,11657.5587,W,2,14,0.67,867.7,M,-31.0,M,,*44\r\r,*42\r\r\n"2022-04-09 16:00:28
"||||||||||||-42,6969,$GNRMC,160025.000,A,3429.72615050D$GNGGA,160026.000,3429.7267,N,11657.5588,W,2,14,0.67,867.7,M,-31.0,M,,*49\r\r\n"2022-04-09 16:00:28
"||||||||||||-42,6969,$ACCEL,-1.12,7.46,-5.86,$ALT,865.58,-257.84\u0001\r\n"2022-04-09 16:00:29
"||||||||||||-41,6969,$GNRMC,16002609,7W20,86,$ALT,865.58,-257.84\u0001\r\n"2022-04-09 16:00:29
"||||||||||||-42,6969,$ACCEL,-1.11,7.45,-5.86,$ALT,865.57,-257.84\u0001\r\n"2022-04-09 16:00:29
"||||||||||||-42,6969,$ACCEL,-1.13,7.46,-5.88,$ALT,865.48,-257.81\u0001\r\n"2022-04-09 16:00:30
"||||||||||||-42,6969,$GNRMC,160027.0A715..0D$GNGGA,160028.000,3429.7266,N,11657.5588,W,2,14,0.67,867.5,M,-31.0,M,,*44\r\r\n"2022-04-09 16:00:30
"||||||||||||-42,6969,$ACCEL,-1.10,7.45,-5.86,$ALT,865.65,-257.8629.7266,N,11657.5588,W,2,14,0.67,867.5,M,-31.0,M,,*44\r\r\n"2022-04-09 16:00:31
"||||||||||||-42,6969,$GNRMC,160028.000,2,5,,,,\r$GNGGA,160029.000,3429.7266,N,11657.5588,W,2,14,0.67,867.3,M,-31.0,M,,*43\r\r\n"2022-04-09 16:00:31
"||||||||||||-42,6969,$ACCEL,-1.11,7.45,-5.86,$ALT,865.48,-257.81\u0001\r\n"2022-04-09 16:00:33
"||||||||||||-41,6969,$GNRMC,160029.04658342B$GNGGA,160030.000,3429.7265,N,11657.5589,W,2,14,0.67,867.3,M,,\rM3A715050D$GNGGA,160031.000,3429 \r\n"2022-04-09 16:00:33
"||||||||||||-42,6969,$GNRMC,160033.00046604426$GNGGA,160034.000,3429.7263,N,11657.5590,W,2,14,0.67,867.3,M,-31.0,M,,*43\r`\r\n"2022-04-09 16:00:36
"||||||||||||-43,6969,$ACCEL,-1.11,7.46,-5.87,$ALT,865.57,-257.853429.7263,N,11657.5590,W,2,14,0.67,867.3,M,-31.0,M,,*43\r`\r\n"2022-04-09 16:00:37
"||||||||||||-42,6969,$GNRMC,160034.000,A,3429.7263,N,11657.5590,W,$GNGGA,160035.000,3429.7263,N,11657.5591,W,2,14,0.67,867.4,M,-31.0,M,,*44\r\n"2022-04-09 16:00:37
"||||||||||||-42,6969,$ACCEL,-1.12,7.46,-5.87,$ALT,865.46,-257.82\u0005R\r\n"2022-04-09 16:00:38
"||||||||||||-42,6969,$GNRMC,160035.000,A,3429.7263,N,$GNGGA,160036.000,3429.7263,N,11657.5590,W,2,14,0.67,867.4,M,-31.0,M,,*46\r\r\n"2022-04-09 16:00:38
"||||||||||||-42,6969,$ACCEL,-1.11,7.45,-5.87,$ALT,865.52,-257.8436.000,3429.7263,N,11657.5590,W,2,14,0.67,867.4,M,-31.0,M,,*46\r\r\n"2022-04-09 16:00:39
"||||||||||||-41,6969,$GNRMC,160036.000,A,34$GNGGA,160037.000,3429.7263,N,11657.5590,W,2,14,0.67,867.4,M,-31.0,M,,*47\r.0,M,,*46\r\r\n"2022-04-09 16:00:39
"||||||||||||-42,6969,$ACCEL,-1.11,7.45,-5.87,$ALT,865.35,-257.799.7263,N,11657.5590,W,2,14,0.67,867.4,M,-31.0,M,,*47\r.0,M,,*46\r\r\n"2022-04-09 16:00:40
"||||||||||||-42,6969,$GNRMC,160037.000,A,3429.$GNGGA,160038.000,3429.7263,N,11657.5590,W,2,14,0.67,867.4,M,-31.0,M,,*48\rM,,*46\r\r\n"2022-04-09 16:00:40
"||||||||||||-43,6969,$ACCEL,-1.12,7.45,-5.87,$ALT,865.58,-257.85\u0001\r\n"2022-04-09 16:00:41
"||||||||||||-42,6969,$GNRMC,160038.000,A,3429.7263N.,80,,-257.85\u0001\r\n"2022-04-09 16:00:41
"||||||||||||-43,6969,$ACCEL,-1.12,7.45,-5.87,$ALT,865.66,-257.89\u0001\r\n"2022-04-09 16:00:41
"||||||||||||-42,6969,$GNRMC,16000225,,,,B$GNGGA,160040.000,3429.7262,N,11657.5589,W,2,14,0.67,867.4,M,-31.0,M,,*4E\r\r\n"2022-04-09 16:00:42
"||||||||||||-41,6969,$ACCEL,-1.11,7.45,-5.87,$ALT,865.38,-257.807262,N,11657.5589,W,2,14,0.67,867.4,M,-31.0,M,,*4E\r\r\n"2022-04-09 16:00:43
"||||||||||||-42,6969,$ACCEL,-1.11,7.44,-5.86,$ALT,865.30,-257.77\u0001\r\n"2022-04-09 16:00:44
"||||||||||||-41,6969,$GNRMC,160041.000,9,7W20,\r$GNGGA,160042.000,3429.7262,N,11657.5589,W,2,14,0.67,867.4-M \u0001\r\n"2022-04-09 16:00:44
"||||||||||||-42,6969,$ACCEL,-1.11,7.45,-5.86,$ALT,865.45,-257.81,3429.7262,N,11657.5589,W,2,14,0.67,867.4-M \u0001\r\n"2022-04-09 16:00:45
"||||||||||||-41,6969,,.36680826$GNGGA,160043.000,3429.7262,N,11657.5589,W,2,14,0.67,867.4,M,-31.0,M,,*4D\r\r\n"2022-04-09 16:00:45
"||||||||||||-42,6969,$ACCEL,-1.11,7.45,-5.86,$ALT,865.49,-257.8357.5589,W,2,14,0.67,867.4,M,-31.0,M,,*4D\r\r\n"2022-04-09 16:00:45
"||||||||||||-42,6969,$GNRMC,160043.000,A,349N7W20,865.49,-257.8357.5589,W,2,14,0.67,867.4,M,-31.0,M,,*4D\r\r\n"2022-04-09 16:00:46
"||||||||||||-42,6969,$ACCEL,-1.11,7.44,-5.87,$ALT,865.45,-257.8357.5589,W,2,14,0.67,867.4,M,-31.0,M,,*4D\r\r\n"2022-04-09 16:00:46
"||||||||||||-42,6969,$GNRMC,160044.00036690826$GNGGA,160045.000,3429.7262,N,11657.5588,W,2,14,0.67,867.3,M,-31.0,M,,*4D\r`\r\n"2022-04-09 16:00:47
"||||||||||||-43,6969,$ACCEL,-1.11,7.46,-5.86,$ALT,865.33,-257.793429.7262,N,11657.5588,W,2,14,0.67,867.3,M,-31.0,M,,*4D\r`\r\n"2022-04-09 16:00:48
"||||||||||||-42,6969,$GNRMC,160045.000,A.,5059,$GNGGA,160046.000,3429.7262,N,11657.5588,W,2,14,0.67,867.2,M,-31.0,M,,*4F\r\r\n"2022-04-09 16:00:48
"||||||||||||-42,6969,$ACCEL,-1.12,7.44,-5.86,$ALT,865.41,-257.82,3429.7262,N,11657.5588,W,2,14,0.67,867.2,M,-31.0,M,,*4F\r\r\n"2022-04-09 16:00:49
"||||||||||||-42,6969,$GNRMC,160046.000,A.,5059,$GNGGA,160047.000,3429.7262,N,11657.5588,W,2,14,0.67,867.2,M,-31M0,M,,*4F\r\r\n"2022-04-09 16:00:49
"||||||||||||-42,6969,$ACCEL,-1.12,7.45,-5.85,$ALT,865.58,-257.87,3429.7262,N,11657.5588,W,2,14,0.67,867.2,M,-31M0,M,,*4F\r\r\n"2022-04-09 16:00:50
"||||||||||||-42,6969,,.36180826$GNGGA,160048.000,3429.7262,N,11657.5588,W,2,14,0.67,867.2,M,-31.0,M,,*41\r\r\n"2022-04-09 16:00:50
"||||||||||||-42,6969,$ACCEL,-1.12,7.45,-5.86,$ALT,865.34,-257.79\u0005R\r\n"2022-04-09 16:00:51
"||||||||||||-43,6969,$GNRMC,160048.000,A,349N7089,$GNGGA,160049.000,3429.7262,N,11657.5588,W,2,14,0.67,867.1,M,-31.0,M,,*43\r\r\n"2022-04-09 16:00:51
"||||||||||||-42,6969,$ACCEL,-1.11,7.45,-5.86,$ALT,865.30,-257.79\u0005R\r\n"2022-04-09 16:00:52
"||||||||||||-42,6969,$GNRMC,160049.000,.,5..4D$GNGGA,160050.000,3429.7262,N,11657.5588,W,2,14,0.67,867.2,M,-31.0,M,,*48\r,\u0001\r\n"2022-04-09 16:00:52
"||||||||||||-42,6969,$ACCEL,-1.11,7.45,-5.86,$ALT,865.38,-257.81\u0005R\r\n"2022-04-09 16:00:52
"||||||||||||-42,6969,$GNRMC,160050.0002,7W89,$ALT,865.38,-257.81\u0005R\r\n"2022-04-09 16:00:53
"||||||||||||-43,6969,$ACCEL,-1.10,7.44,-5.86,$ALT,865.38,-257.82\u0005R\r\n"2022-04-09 16:00:53
"||||||||||||-42,6969,$GNGGA,160051.000,3429.7262,N,11657.5587,W,2,14,0.67,867.2,M,-31.0,M,,*46\r\r\n"2022-04-09 16:00:53
"||||||||||||-42,6969,$ACCEL,-1.11,7.45,-5.85,$ALT,865.57,-257.882,14,0.67,867.2,M,-31.0,M,,*46\r\r\n"2022-04-09 16:00:54
"||||||||||||-42,6969,$GNRMC,160051.000,426W,,,\r$GNGGA,160052.000,3429.7262,N,11657.5587,W,2,14,0.67,867.2,M,-31.0,M,,*45\r\r\n"2022-04-09 16:00:54
"||||||||||||-42,6969,$ACCEL,-1.11,7.46,-5.86,$ALT,865.32,-257.81,3429.7262,N,11657.5587,W,2,14,0.67,867.2,M,-31.0,M,,*45\r\r\n"2022-04-09 16:00:55
"||||||||||||-43,6969,$GNRMC,160052.000,A9,5089,$GNGGA,160053.000,3429.7262,N,11657.5586,W,2,14,0.67,867.2,M,-31.0,M,,*45\r\r\n"2022-04-09 16:00:55
"||||||||||||-42,6969,$ACCEL,-1.11,7.46,-5.86,$ALT,865.42,-257.82\u0005R\r\n"2022-04-09 16:00:56
"||||||||||||-43,6969,$GNRMC,160053.00425W20,,$ALT,865.42,-257.82\u0005R\r\n"2022-04-09 16:00:56
"||||||||||||-42,6969,$ACCEL,-1.11,7.45,-5.86,$ALT,865.44,-257.84\u0005R\r\n"2022-04-09 16:00:57
"||||||||||||-41,6969,$GNGGA,160054.000,3429.7262,N,11657.5586,W,2,14,0.67,867.2,M,-02M5,.,5050,$GNGGA,160055.000,3429.7262,N,11657.5585,W,2\r\n"2022-04-09 16:00:57
"||||||||||||-42,6969,$ACCEL,-1.11,7.44,-5.87,$ALT,865.44,-257.842,14,0.67,867.2,M,-02M5,.,5050,$GNGGA,160055.000,3429.7262,N,11657.5585,W,2\r\n"2022-04-09 16:00:58
"||||||||||||-42,6969,$GNRMC,160055.000,A,3426655426$GNGGA,160056.000,3429.7262,N,11657.5585,W,2,14,0.67,867.2,M,-31.0,M,,*43\rB\u000f\r\n"2022-04-09 16:00:58
"||||||||||||-42,6969,$ACCEL,-1.12,7.45,-5.85,$ALT,865.21,-257.77\u0001\r\n"2022-04-09 16:00:59
"||||||||||||-41,6969,$GNRMC,160056.00,2180.4*$GNGGA,160057.000,3429.7262,N,11657.5584,W,2,14,0.67,867.2,M,-31.0,M,,*..4*$GNGGA,160058.000,3 \r\n"2022-04-09 16:01:00
"||||||||||||-42,6969,$ACCEL,-1.12,7.45,-5.87,$ALT,865.40,-257.84\u0001\r\n"2022-04-09 16:01:01
"||||||||||||-41,6969,$GNRMC,160058.000,A,3429.7263,N,11657.5584,W,0.07,285.84,090422,0$GNGGA,160059.000,3429.7263,N,11657.5584,W,2,14,0.67, \r\n"2022-04-09 16:01:01
"||||||||||||-41,6969,$ACCEL,-1.12,7.45,-5.87,$ALT,865.38,-257.82W,0.07,285.84,090422,0$GNGGA,160059.000,3429.7263,N,11657.5584,W,2,14,0.67, \r\n"2022-04-09 16:01:01
"||||||||||||-42,6969,$GNRMC,1600509N7W20,.87\r\n"2022-04-09 16:01:01
"||||||||||||-43,6969,$ACCEL,-1.11,7.45,-5.86,$ALT,865.43,-257.84\u0005R\r\n"2022-04-09 16:01:02
"||||||||||||-41,6969,$GNGGA,160100.000,3429.7263,N,11657.5584,W,2,14,0.67,867.1,M,-31.0,M,,*42\r\r\n"2022-04-09 16:01:02
"||||||||||||-42,6969,$ACCEL,-1.11,7.45,-5.86,$ALT,865.25,-257.792,14,0.67,867.1,M,-31.0,M,,*42\r\r\n"2022-04-09 16:01:03
"||||||||||||-42,6969,$GNRMC,160100.0A.,5050D$GNGGA,160101.000,3429.7263,N,11657.5584,W,2,14,0.67,867.1,M,-31.0,M,,*43\r\r\n"2022-04-09 16:01:03
"||||||||||||-42,6969,$ACCEL,-1.11,7.44,-5.87,$ALT,865.32,-257.8129.7263,N,11657.5584,W,2,14,0.67,867.1,M,-31.0,M,,*43\r\r\n"2022-04-09 16:01:04
"||||||||||||-42,6969,$GNRMC,160101.015.50D$GNGGA,160102.000,3429.7263,N,11657.5584,W,2,14,0.67,867.1,M,-31.0,M,,*40\r3\r\r\n"2022-04-09 16:01:04
"||||||||||||-42,6969,$ACCEL,-1.12,7.46,-5.86,$ALT,865.25,-257.79.7263,N,11657.5584,W,2,14,0.67,867.1,M,-31.0,M,,*40\r3\r\r\n"2022-04-09 16:01:05
"||||||||||||-43,6969,$GNRMC,160106.000,2186426$GNGGA,160107.000,3429.7263,N,11657.5583,W,2,14,0.67,867.1,M,-31.0,M,,*42\r`\r\n"2022-04-09 16:01:09
"||||||||||||-42,6969,$ACCEL,-1.12,7.45,-5.88,$ALT,865.29,-257.81\u0001\r\n"2022-04-09 16:01:10
"||||||||||||-42,6969,$GNRMC,16010.36680826$GNGGA,160108.000,3429.7264,N,11657.5584,W,2,14,0.67,867.1,M,-31.0,M,,*4D\r\r\n"2022-04-09 16:01:10
"||||||||||||-42,6969,$ACCEL,-1.12,7.44,-5.87,$ALT,865.30,-257.82.7264,N,11657.5584,W,2,14,0.67,867.1,M,-31.0,M,,*4D\r\r\n"2022-04-09 16:01:11
"||||||||||||-42,6969,$GNRMC,160108.000,A,.,5084D$GNGGA,160109.000,3429.7264,N,11657.5584,W,2,14,0.67,867.1,M,-31.0,M,,*4C\r\r\n"2022-04-09 16:01:11
"||||||||||||-42,6969,$ACCEL,-1.11,7.45,-5.88,$ALT,865.41,-257.850,3429.7264,N,11657.5584,W,2,14,0.67,867.1,M,-31.0,M,,*4C\r\r\n"2022-04-09 16:01:12
"||||||||||||-42,6969,$GNRMC,160109.0036646823$GNGGA,160110.000,3429.7264,N,11657.5584,W,2,14,0.67,867.1,M,-31.0,M,,*44\r4C\r\r\n"2022-04-09 16:01:12
"||||||||||||-42,6969,$ACCEL,-1.11,7.45,-5.87,$ALT,865.32,-257.82\u0005R\r\n"2022-04-09 16:01:13
"||||||||||||-42,6969,$GNRMC,160110.00245,,,,\r$GNGGA,160111.000,3429.7264,N,11657.5584,W,2,14,0.67,867.0,M,-31.0,M,,*44\r\r\n"2022-04-09 16:01:13
"||||||||||||-42,6969,$ACCEL,-1.11,7.45,-5.85,$ALT,865.39,-257.84\u0005R\r\n"2022-04-09 16:01:14
"||||||||||||-42,6969,$GNRMC,160111.00,715..4D$GNGGA,160112.000,3429.7264,N,11657.5584,W,2,14,0.67,867.0,M,-31.0,M,,*47\r\r\n"2022-04-09 16:01:14
"||||||||||||-42,6969,$ACCEL,-1.12,7.44,-5.86,$ALT,865.30,-257.82429.7264,N,11657.5584,W,2,14,0.67,867.0,M,-31.0,M,,*47\r\r\n"2022-04-09 16:01:15
"||||||||||||-41,6969,$GNRMC,160112.000,A,9N.,80D$GNGGA,160113.000,3429.7265,N,11657.5585,W,2,14,0.67,867.0,M,-31.0,M,,*46\r\r\n"2022-04-09 16:01:15
"||||||||||||-42,6969,$ACCEL,-1.12,7.44,-5.86,$ALT,865.26,-257.810,3429.7265,N,11657.5585,W,2,14,0.67,867.0,M,-31.0,M,,*46\r\r\n"2022-04-09 16:01:16
"||||||||||||-43,6969,$GNRMC,160113.02,7W2,,\r$GNGGA,160114.000,3429.7265,N,11657.5585,W,2,14,0.67,867.0,M,-31.0,M,,*41\r*46\r\r\n"2022-04-09 16:01:16
"||||||||||||-43,6969,$ACCEL,-1.11,7.45,-5.87,$ALT,865.40,-257.8629.7265,N,11657.5585,W,2,14,0.67,867.0,M,-31.0,M,,*41\r*46\r\r\n"2022-04-09 16:01:17
"||||||||||||-42,6969,$GNRMC,160114.00455,,429$GNGGA,160115.000,3429.7264,N,11657.5585,W,2,14,0.67,867.0,M,-31.0,M,,*41\r46\r\r\n"2022-04-09 16:01:17
"||||||||||||-42,6969,$ACCEL,-1.11,7.46,-5.85,$ALT,865.36,-257.84429.7264,N,11657.5585,W,2,14,0.67,867.0,M,-31.0,M,,*41\r46\r\r\n"2022-04-09 16:01:18
"||||||||||||-42,6969,$GNRMC,160115.00A715050D$GNGGA,160116.000,3429.7265,N,11657.5585,W,2,14,0.67,867.0,M,-31.0,M,,*43\r\r\n"2022-04-09 16:01:18
"||||||||||||-42,6969,$ACCEL,-1.11,7.45,-5.86,$ALT,865.32,-257.83429.7265,N,11657.5585,W,2,14,0.67,867.0,M,-31.0,M,,*43\r\r\n"2022-04-09 16:01:19
"||||||||||||-42,6969,$GNRMC,160116.000255,,,,\r$GNGGA,160117.000,3429.7265,N,11657.5586,W,2,14,0.67,867.0,M,-31.0,M,,*41\r,\u0001\r\n"2022-04-09 16:01:19
"||||||||||||-42,6969,$ACCEL,-1.12,7.45,-5.86,$ALT,865.25,-257.813429.7265,N,11657.5586,W,2,14,0.67,867.0,M,-31.0,M,,*41\r,\u0001\r\n"2022-04-09 16:01:20
"||||||||||||-42,6969,$GNRMC,160117.0045660428$GNGGA,160118.000,3429.7265,N,11657.5586,W,2,14,0.67,867.1,M,-31.0,M,,*4F\r\r,\u0001\r\n"2022-04-09 16:01:20
"||||||||||||-42,6969,$ACCEL,-1.10,7.45,-5.87,$ALT,865.35,-257.84429.7265,N,11657.5586,W,2,14,0.67,867.1,M,-31.0,M,,*4F\r\r,\u0001\r\n"2022-04-09 16:01:21
"||||||||||||-42,6969,$GNRMC,160118.0003218082*$GNGGA,160119.000,3429.7265,N,11657.5585,W,2,14,0.67,867.1,M,-31.0,M,,*4D\r,\u0001\r\n"2022-04-09 16:01:21
"||||||||||||-42,6969,$ACCEL,-1.12,7.45,-5.86,$ALT,865.32,-257.833429.7265,N,11657.5585,W,2,14,0.67,867.1,M,-31.0,M,,*4D\r,\u0001\r\n"2022-04-09 16:01:22
"||||||||||||-42,6969,$GNRMC,160119.000,46656426$GNGGA,160120.000,3429.7265,N,11657.5585,W,2,14,0.67,867.2,M,-31.0,M,,*44\r\u0001\r\n"2022-04-09 16:01:22
"||||||||||||-42,6969,$ACCEL,-1.12,7.44,-5.87,$ALT,865.26,-257.81\u0001\r\n"2022-04-09 16:01:23
"||||||||||||-41,6969,$GNRMC,160120.,.,5,89,$GNGGA,160121.000,3429.7265,N,11657.5585,W,2,14,0.67,867.2,M,-31.0,M,,*45\r\r\n"2022-04-09 16:01:23
"||||||||||||-43,6969,$ACCEL,-1.11,7.44,-5.86,$ALT,865.23,-257.80\u0001\r\n"2022-04-09 16:01:24
"||||||||||||-42,6969,$GNRMC,160121.00A715..0D$GNGGA,160122.000,3429.7265,N,11657.5585,W,2,14,0.67,867.2,M,-31.0,M,,*46\r\r\n"2022-04-09 16:01:24
"||||||||||||-42,6969,$ACCEL,-1.11,7.44,-5.86,$ALT,865.30,-257.81429.7265,N,11657.5585,W,2,14,0.67,867.2,M,-31.0,M,,*46\r\r\n"2022-04-09 16:01:24
"||||||||||||-42,6969,$GNRMC,160122.000,9N.W20,ALT,865.30,-25\r\n"2022-04-09 16:01:24
"||||||||||||-42,6969,$ACCEL,-1.12,7.45,-5.86,$ALT,865.33,-257.83\u0001\r\n"2022-04-09 16:01:25
"||||||||||||-41,6969,$ACCEL,-1.11,7.45,-5.85,$ALT,865.28,-257.83\u0001\r\n"2022-04-09 16:01:26
"||||||||||||-42,6969,$GNRMC,160123.00465,,,2B$GNGGA,160124.000,3429.7266,N,11657.5586,W,2,14,0.67,867.3,M,-31.0,M,,*41\r\r\n"2022-04-09 16:01:26
"||||||||||||-42,6969,$ACCEL,-1.12,7.45,-5.86,$ALT,865.30,-257.83\u0001\r\n"2022-04-09 16:01:27
"||||||||||||-42,6969,$GNRMC,160124.00A715050D$GNGGA,160125.000,3429.7266,N,11657.5586,W,2,14,0.67,867.3,M,-31.0,M,,*40\r\r\n"2022-04-09 16:01:27
"||||||||||||-42,6969,$ACCEL,-1.12,7.45,-5.87,$ALT,865.23,-257.81429.7266,N,11657.5586,W,2,14,0.67,867.3,M,-31.0,M,,*40\r\r\n"2022-04-09 16:01:28
"||||||||||||-42,6969,$GNRMC,160125.000,3218082*$GNGGA,160126.000,3429.7266,N,11657.5586,W,2,14,0.67,867.3,M,,\rC6A715..0D$GNGGA,160127.000,3 \r\n"2022-04-09 16:01:29
"||||||||||||-42,6969,$ACCEL,-1.11,7.46,-5.86,$ALT,865.13,-257.78,3429.7266,N,11657.5586,W,2,14,0.67,867.3,M,,\rC6A715..0D$GNGGA,160127.000,3 \r\n"2022-04-09 16:01:29
"||||||||||||-42,6969,$GNRMC,160127.000,A,34.,5059,$GNGGA,160128.000,3429.7266,N,11657.5586,W,2,14,0.67,867.3,M,-31.0,M,,*4D\r@B\u000f\r\n"2022-04-09 16:01:30
"||||||||||||-42,6969,$ACCEL,-1.11,7.45,-5.86,$ALT,865.18,-257.79000,3429.7266,N,11657.5586,W,2,14,0.67,867.3,M,-31.0,M,,*4D\r@B\u000f\r\n"2022-04-09 16:01:30
"||||||||||||-41,6969,$GNRMC,160128.0002,7W20,\r$GNGGA,160129.000,3429.7266,N,11657.5586,W,2,14,0.67,867.3,M,-31.0,M,,*4C\r,\u0001\r\n"2022-04-09 16:01:31
"||||||||||||-42,6969,$ACCEL,-1.11,7.45,-5.87,$ALT,865.32,-257.843429.7266,N,11657.5586,W,2,14,0.67,867.3,M,-31.0,M,,*4C\r,\u0001\r\n"2022-04-09 16:01:31
"||||||||||||-42,6969,$GNRMC,160129.00,215..4*$GNGGA,160130.000,3429.7266,N,11657.5586,W,2,14,0.67,867.3,M,-31.0,M,,*44\r\r,\u0001\r\n"2022-04-09 16:01:32
"||||||||||||-42,6969,$ACCEL,-1.13,7.44,-5.88,$ALT,865.23,-257.82\u0001\r\n"2022-04-09 16:01:33
"||||||||||||-42,6969,$GNRMC,160130.000,A,3429.7266,N,11657.5586,W,0$GNGGA,160131.000,3429.7266,N,11657.5585,W,2,14,0.67,867.4,M,-31.0,M,,*4 \r\n"2022-04-09 16:01:33
"||||||||||||-42,6969,$ACCEL,-1.12,7.45,-5.87,$ALT,865.19,-257.81\u0001\r\n"2022-04-09 16:01:34
"||||||||||||-43,6969,$GNRMC,160131.000,A,3429.7266$GNGGA,160132.000,3429.7265,N,11657.5585,W,2,14,0.67,867.4,M,-31.0,M,,*41\r@B\u000f\r\n"2022-04-09 16:01:34
"||||||||||||-43,6969,$ACCEL,-1.11,7.44,-5.87,$ALT,865.22,-257.81\u0001\r\n"2022-04-09 16:01:35
"||||||||||||-42,6969,$GNRMC,160132.000,A,3429.$GNGGA,160133.000,3429.7265,N,11657.5584,W,2,14,0.67,867.4,M,-31.0,M,,*41\r`\r\n"2022-04-09 16:01:35
"||||||||||||-42,6969,$ACCEL,-1.11,7.45,-5.88,$ALT,865.23,-257.833429.7265,N,11657.5584,W,2,14,0.67,867.4,M,-31.0,M,,*41\r`\r\n"2022-04-09 16:01:36
"||||||||||||-41,6969,$GNRMC,160133.000,A,3429$GNGGA,160134.000,3429.7264,N,11657.5584,W,2,14,0.67,867.5,M,-31.0,M,,*46\r\r`\r\n"2022-04-09 16:01:36
"||||||||||||-42,6969,$ACCEL,-1.11,7.45,-5.87,$ALT,865.32,-257.85\u0001\r\n"2022-04-09 16:01:37
"||||||||||||-41,6969,$GNRMC,160134.000,A,3429.726180822$GNGGA,160135.000,3429.7264,N,11657.5583,W,2,14,0.67,867.5,M,-31.0,M,,*40\r\u0001\r\n"2022-04-09 16:01:37
"||||||||||||-41,6969,$ACCEL,-1.12,7.45,-5.87,$ALT,865.17,-257.80\u0001\r\n"2022-04-09 16:01:38
"||||||||||||-42,6969,$GNRMC,16013.36180826$GNGGA,160136.000,3429.7264,N,11657.5583,W,2,14,0.67,867.6,M,-31.0,M,,*40\r\r\n"2022-04-09 16:01:38
"||||||||||||-42,6969,$ACCEL,-1.12,7.45,-5.87,$ALT,865.31,-257.85.7264,N,11657.5583,W,2,14,0.67,867.6,M,-31.0,M,,*40\r\r\n"2022-04-09 16:01:39
"||||||||||||-42,6969,$GNRMC,160136.00,218082*$GNGGA,160137.000,3429.7264,N,11657.5583,W,2,14,0.67,867.6,M,-31.0,M,,*41\r\r\n"2022-04-09 16:01:39
"||||||||||||-41,6969,$ACCEL,-1.12,7.44,-5.88,$ALT,865.22,-257.82429.7264,N,11657.5583,W,2,14,0.67,867.6,M,-31.0,M,,*41\r\r\n"2022-04-09 16:01:40
"||||||||||||-42,6969,$GNRMC,160137.00,.,.,89,$GNGGA,160138.000,3429.7264,N,11657.5582,W,2,14,0.67,867.6,M,-31.0,M,,*4F\r\r\n"2022-04-09 16:01:40
"||||||||||||-42,6969,$ACCEL,-1.11,7.44,-5.87,$ALT,865.17,-257.81429.7264,N,11657.5582,W,2,14,0.67,867.6,M,-31.0,M,,*4F\r\r\n"2022-04-09 16:01:41
"||||||||||||-43,6969,$GNRMC,160138.000,A715..0D$GNGGA,160139.000,3429.7263,N,11657.5582,W,2,14,0.66,867.6,M,-31.0,M,,*48\r\u0001\r\n"2022-04-09 16:01:41
"||||||||||||-42,6969,$ACCEL,-1.12,7.45,-5.88,$ALT,865.22,-257.83\u0001\r\n"2022-04-09 16:01:42
"||||||||||||-42,6969,$GNRMC,16013902,7W,,,\r$GNGGA,160140.000,3429.7263,N,11657.5582,W,2,14,0.67,867.7,M,-31.0,M,,*46\r\r\n"2022-04-09 16:01:42
"||||||||||||-42,6969,$ACCEL,-1.12,7.45,-5.87,$ALT,865.07,-257.799.7263,N,11657.5582,W,2,14,0.67,867.7,M,-31.0,M,,*46\r\r\n"2022-04-09 16:01:43
"||||||||||||-42,6969,$GNRMC,160140.00,218084*$GNGGA,160141.000,3429.7263,N,11657.5582,W,2,14,0.67,867.7,M,-31.0,M,,*47\r\r\n"2022-04-09 16:01:43
"||||||||||||-43,6969,$ACCEL,-1.11,7.44,-5.87,$ALT,865.22,-257.83\u0001\r\n"2022-04-09 16:01:44
"||||||||||||-42,6969,$GNRMC,160141.000,715..4D$GNGGA,160142.000,3429.7264,N,11657.5582,W,2,14,0.67,867.7,M,-31.0,M,,*43\r,\u0001\r\n"2022-04-09 16:01:44
"||||||||||||-42,6969,$ACCEL,-1.11,7.44,-5.87,$ALT,865.22,-257.83\u0005R\r\n"2022-04-09 16:01:44
"||||||||||||-42,6969,$GNRMC,160142.0009N.,20,$ALT,865.22,-25\r\n"2022-04-09 16:01:44
"||||||||||||-43,6969,$ACCEL,-1.12,7.46,-5.86,$ALT,865.10,-257.80\u0001\r\n"2022-04-09 16:01:45
"||||||||||||-42,6969,$GNGGA,160143.000,3429.7264,N,11657.5583,W,2,14,0.66,867.8,M,-31.0,M,,*4D\r\r\n"2022-04-09 16:01:45
"||||||||||||-42,6969,$ACCEL,-1.12,7.45,-5.86,$ALT,865.30,-257.86\u0005R\r\n"2022-04-09 16:01:46
"||||||||||||-42,6969,$GNRMC,160143.000A715050D$GNGGA,160144.000,3429.7264,N,11657.5583,W,2,14,0.66,867.8,M,-31.0,M,,*4A\r,\u0001\r\n"2022-04-09 16:01:46
"||||||||||||-41,6969,$ACCEL,-1.12,7.45,-5.86,$ALT,865.31,-257.863429.7264,N,11657.5583,W,2,14,0.66,867.8,M,-31.0,M,,*4A\r,\u0001\r\n"2022-04-09 16:01:47
"||||||||||||-41,6969,$GNRMC,160144.00A7,5050D$GNGGA,160145.000,3429.7264,N,11657.5583,W,2,14,0.67,867.8,M,-31.0,M,,*4A\r\r\n"2022-04-09 16:01:47
"||||||||||||-42,6969,$ACCEL,-1.12,7.45,-5.86,$ALT,865.15,-257.81\u0001\r\n"2022-04-09 16:01:48
"||||||||||||-42,6969,$GNRMC,160145.00A715.50D$GNGGA,160146.000,3429.7264,N,11657.5583,W,2,14,0.67,867.8,M,-,$1.36639826$GNGGA,160147.000,34\r\n"2022-04-09 16:01:48
"||||||||||||-42,6969,$ACCEL,-1.11,7.44,-5.85,$ALT,865.36,-257.88429.7264,N,11657.5583,W,2,14,0.67,867.8,M,-,$1.36639826$GNGGA,160147.000,34\r\n"2022-04-09 16:01:49
"||||||||||||-42,6969,$ACCEL,-1.12,7.45,-5.85,$ALT,865.32,-257.86\u0005R\r\n"2022-04-09 16:01:51
"||||||||||||-42,6969,$GNRMC,160149.003218182*$GNGGA,160150.000,3429.7265,N,11657.5584,W,2,14,0.67,867.8,M,-31.0,M,,*48\r\r\n"2022-04-09 16:01:52
"||||||||||||-41,6969,$ACCEL,-1.11,7.45,-5.87,$ALT,865.20,-257.83\u0001\r\n"2022-04-09 16:01:53
"||||||||||||-41,6969,$GNRMC,160150.000,A,3429.7265,N,11657.5584,W,$GNGGA,160151.000,3429.7265,N,11657.5585,W,2,14,0.66,867.8,M,-31.0,M,,*49 \r\n"2022-04-09 16:01:53
"||||||||||||-41,6969,$ACCEL,-1.12,7.45,-5.87,$ALT,865.23,-257.84W,$GNGGA,160151.000,3429.7265,N,11657.5585,W,2,14,0.66,867.8,M,-31.0,M,,*49 \r\n"2022-04-09 16:01:54
"||||||||||||-41,6969,$GNRMC,160151.000,A,3429.7265,$GNGGA,160152.000,3429.7265,N,11657.5585,W,2,14,0.67,867.8,M,-31.0,M,,*4B\rR009N.,20,,*49 \r\n"2022-04-09 16:01:54
"||||||||||||-40,6969,$ACCEL,-1.12,7.44,-5.86,$ALT,865.32,-257.87\u0001\r\n"2022-04-09 16:01:55
"||||||||||||-41,6969,$GNRMC,160153.000,A,34292181.4*$GNGGA,160154.000,3429.7265,N,11657.5586,W,2,14,0.66,867.8,M,-31.0,M,,*4F\r\u000f\r\n"2022-04-09 16:01:56
"||||||||||||-43,6969,$ACCEL,-1.11,7.45,-5.86,$ALT,865.33,-257.874.000,3429.7265,N,11657.5586,W,2,14,0.66,867.8,M,-31.0,M,,*4F\r\u000f\r\n"2022-04-09 16:01:57
"||||||||||||-43,6969,$GNRMC,160154.A715.50D$GNGGA,160155.000,3429.7265,N,11657.5586,W,2,14,0.66,867.8,M,-31.0,M,,*4E\r\r\n"2022-04-09 16:01:57
"||||||||||||-43,6969,$ACCEL,-1.11,7.45,-5.86,$ALT,865.34,-257.88\u0001\r\n"2022-04-09 16:01:57
"||||||||||||-42,6969,$GNRMC,1601509N7W20,.86,$ALT,865.34,-257.88\u0001\r\n"2022-04-09 16:01:57
"||||||||||||-42,6969,$ACCEL,-1.11,7.46,-5.86,$ALT,865.22,-257.85\u0001\r\n"2022-04-09 16:01:58
"||||||||||||-42,6969,$GNRMC,160156,9N.,89,86\r\n"2022-04-09 16:01:58
"||||||||||||-42,6969,$ACCEL,-1.11,7.46,-5.86,$ALT,865.26,-257.86\u0001\r\n"2022-04-09 16:01:59
"||||||||||||-42,6969,$ACCEL,-1.13,7.45,-5.86,$ALT,865.29,-257.88\u0001\r\n"2022-04-09 16:02:00
"||||||||||||-42,6969,$GNRMC,160157.000,A,346669426$GNGGA,160158.000,3429.7265,N,11657.5586,W,2,14,0.66,867.8,M,-31.0,M,,*43\r@B\u000f\r\n"2022-04-09 16:02:00
"||||||||||||-42,6969,$ACCEL,-1.12,7.44,-5.87,$ALT,865.25,-257.87\u0001\r\n"2022-04-09 16:02:01
"||||||||||||-41,6969,$GNRMC,160158.0,2180.4*$GNGGA,160159.000,3429.7265,N,11657.5585,W,2,14,0.66,867.9,M,-300M5A7,5050D$GNGGA,160200.000,34 \r\n"2022-04-09 16:02:02
"||||||||||||-42,6969,$ACCEL,-1.12,7.44,-5.88,$ALT,865.26,-257.8729.7265,N,11657.5585,W,2,14,0.66,867.9,M,-300M5A7,5050D$GNGGA,160200.000,34 \r\n"2022-04-09 16:02:02
"||||||||||||-42,6969,$ACCEL,-1.12,7.44,-5.88,$ALT,865.19,-257.85\u0001\r\n"2022-04-09 16:02:03
"||||||||||||-42,6969,$GNRMC,160201.000,A,2,7W20,\r$GNGGA,160202.000,3429.7266,N,11657.5585,W,2,14,0.66,867.8,M,-31.0,M,,*4F\r @B\u000f\r\n"2022-04-09 16:02:03
"||||||||||||-42,6969,$ACCEL,-1.12,7.44,-5.88,$ALT,865.24,-257.8500,3429.7266,N,11657.5585,W,2,14,0.66,867.8,M,-31.0,M,,*4F\r @B\u000f\r\n"2022-04-09 16:02:04
"||||||||||||-43,6969,$GNRMC,160202.09N7W20,8,$ALT,865.24,-257.8500,3429.7266,N,11657.5585,W,2,14,0.66,867.8,M,-31.0,M,,*4F\r @B\u000f\r\n"2022-04-09 16:02:04
"||||||||||||-42,6969,$ACCEL,-1.11,7.45,-5.86,$ALT,865.32,-257.8800,3429.7266,N,11657.5585,W,2,14,0.66,867.8,M,-31.0,M,,*4F\r @B\u000f\r\n"2022-04-09 16:02:04
"||||||||||||-42,6969,$GNRMC,160203.000,A,3429.7266,N,11657.5585,W,0.07,285.84,090422,,\r$GNGGA,160204.000,3429.7266,N,11657.5585,W,2,14,0.66 \r\n"2022-04-09 16:02:06
"||||||||||||-42,6969,$ACCEL,-1.11,7.45,-5.87,$ALT,865.34,-257.90W,0.07,285.84,090422,,\r$GNGGA,160204.000,3429.7266,N,11657.5585,W,2,14,0.66 \r\n"2022-04-09 16:02:07
"||||||||||||-43,6969,$GNRMC,$GNGGA,160205.000,3429.7266,N,11657.5585,W,2,14,0.66,867.8,M,-31.0,M,,*48\r00,3429.7266,N,11657.5585,W,2,14,0.66 \r\n"2022-04-09 16:02:07
"||||||||||||-42,6969,$ACCEL,-1.10,7.45,-5.87,$ALT,865.26,-257.87\u0001\r\n"2022-04-09 16:02:08
"||||||||||||-42,6969,$GNRMC,160205.000,A,3429.726$GNGGA,160206.000,3429.7266,N,11657.5586,W,2,14,0.66,867.8,M,-31.0,M,,*48\r @B\u000f\r\n"2022-04-09 16:02:08
"||||||||||||-42,6969,$ACCEL,-1.12,7.45,-5.88,$ALT,865.39,-257.9100,3429.7266,N,11657.5586,W,2,14,0.66,867.8,M,-31.0,M,,*48\r @B\u000f\r\n"2022-04-09 16:02:08
"||||||||||||-42,6969,$GN60465,,420$GNGGA,160207.000,3429.7266,N,11657.5586,W,2,14,0.66,867.8,M,-31.0,M,,*49\rM,-31.0,M,,*48\r @B\u000f\r\n"2022-04-09 16:02:09
"||||||||||||-43,6969,$ACCEL,-1.11,7.44,-5.87,$ALT,865.44,-257.91\u0005R\r\n"2022-04-09 16:02:09
"||||||||||||-42,6969,$GNRMC,160207.000,A,349N.,80,865.44,-257.91\u0005R\r\n"2022-04-09 16:02:09
"||||||||||||-42,6969,$ACCEL,-1.11,7.44,-5.87,$ALT,865.29,-257.87\u0005R\r\n"2022-04-09 16:02:10
"||||||||||||-42,6969,$GNRMC,1602.36680826$GNGGA,160209.000,3429.7267,N,11657.5587,W,2,14,0.66,867.8,M,-31.0,M,,*47\r\r\n"2022-04-09 16:02:11
"||||||||||||-43,6969,$ACCEL,-1.13,7.45,-5.87,$ALT,865.26,-257.86\u0001\r\n"2022-04-09 16:02:12
"||||||||||||-42,6969,$GNRMC,160209.000,A,475,1426$GNGGA,160210.000,3429.7268,N,11657.5587,W,2,14,0.66,867.8,M,-31.0,M,,*40\r @B\u000f\r\n"2022-04-09 16:02:12
"||||||||||||-42,6969,$ACCEL,-1.11,7.44,-5.87,$ALT,865.38,-257.91\u0001\r\n"2022-04-09 16:02:13
"||||||||||||-42,6969,$GNRMC,160210.00285,,,,1$GNGGA,160211.000,3429.7268,N,11657.5588,W,2,14,0.66,867.9,M,-3.4R2,.N.,89,$GNGGA,160212.000,3 \r\n"2022-04-09 16:02:13
"||||||||||||-42,6969,$ACCEL,-1.11,7.44,-5.84,$ALT,865.37,-257.90\u0001\r\n"2022-04-09 16:02:14
"||||||||||||-42,6969,$GNRMC,160212.000,A,342.,5,89,$GNGGA,160213.000,3429.7269,N,11657.5589,W,2,14,0.66,867.9,M,-31.0,M,,*4D\rB\u000f\r\n"2022-04-09 16:02:14
"||||||||||||-42,6969,$ACCEL,-1.11,7.44,-5.84,$ALT,865.32,-257.89.000,3429.7269,N,11657.5589,W,2,14,0.66,867.9,M,-31.0,M,,*4D\rB\u000f\r\n"2022-04-09 16:02:15
"||||||||||||-43,6969,$GNRMC,160213.000,A9N.W20,B\u0001\r\n"2022-04-09 16:02:15
"||||||||||||-42,6969,$ACCEL,-1.12,7.44,-5.86,$ALT,865.32,-257.89\u0005R\r\n"2022-04-09 16:02:15
"||||||||||||-42,6969,$GNRMC,160214.09,7W20,\r$GNGGA,160215.000,3429.7269,N,11657.5589,W,2,14,0.66,868.1,M,-31.0,M,,*4C\r\r\n"2022-04-09 16:02:16
"||||||||||||-43,6969,$ACCEL,-1.12,7.45,-5.86,$ALT,865.25,-257.8729.7269,N,11657.5589,W,2,14,0.66,868.1,M,-31.0,M,,*4C\r\r\n"2022-04-09 16:02:17
"||||||||||||-42,6969,$GNRMC,160215.000,A,3429.7269,N,11657.5589,W$GNGGA,160216.000,3429.7269,N,11657.5589,W,2,14,0.66,868.1,M,-31.0,M,,*4F\r \r\n"2022-04-09 16:02:18
"||||||||||||-43,6969,$ACCEL,-1.12,7.47,-5.87,$ALT,865.46,-257.94W$GNGGA,160216.000,3429.7269,N,11657.5589,W,2,14,0.66,868.1,M,-31.0,M,,*4F\r \r\n"2022-04-09 16:02:19
"||||||||||||-41,6969,$GNRMC,160216.000,A,3429.7269,$GNGGA,160217.000,3429.7270,N,11657.5590,W,2,14,0.66,868.2,M,-31.0,M,,*4D\rR2,.,.,89,$GNG \r\n"2022-04-09 16:02:19
"||||||||||||-42,6969,$ACCEL,-1.11,7.46,-5.86,$ALT,865.39,-257.92.000,3429.7270,N,11657.5590,W,2,14,0.66,868.2,M,-31.0,M,,*4D\rR2,.,.,89,$GNG \r\n"2022-04-09 16:02:20
"||||||||||||-42,6969,$GNRMC,160218.000,A,34205,,423$GNGGA,160219.000,3429.7270,N,11657.5591,W,2,14,0.66,868.2,M,-31.0,M,,*42\rB\u000f\r\n"2022-04-09 16:02:20
"||||||||||||-42,6969,$ACCEL,-1.12,7.45,-5.86,$ALT,865.42,-257.93\u0005R\r\n"2022-04-09 16:02:21
"||||||||||||-43,6969,$GNRMC,160219.000,A715050D$GNGGA,160220.000,3429.7270,N,11657.5591,W,2,14,0.66,868.2,M,-31.0,M,,*48\r\u0001\r\n"2022-04-09 16:02:21
"||||||||||||-43,6969,$ACCEL,-1.11,7.45,-5.86,$ALT,865.26,-257.89,3429.7270,N,11657.5591,W,2,14,0.66,868.2,M,-31.0,M,,*48\r\u0001\r\n"2022-04-09 16:02:22
"||||||||||||-41,6969,$GNRMC,160204051642A$GNGGA,160221.000,3429.7271,N,11657.5590,W,2,14,0.66,868.3,M,-31.0,M,,*48\r\r\n"2022-04-09 16:02:22
"||||||||||||-42,6969,$ACCEL,-1.12,7.45,-5.85,$ALT,865.28,-257.89\u0005R\r\n"2022-04-09 16:02:23
"||||||||||||-42,6969,$GNRMC,160221.000,A,3429.7271,N,11657.5590,W,0.0$GNGGA,160222.000,3429.7271,N,11657.5590,W,2,14,0.66,868.3,M,-31.0,M,,\r\n"2022-04-09 16:02:23
"||||||||||||-42,6969,$ACCEL,-1.10,7.46,-5.85,$ALT,865.38,-257.92W,0.0$GNGGA,160222.000,3429.7271,N,11657.5590,W,2,14,0.66,868.3,M,-31.0,M,,\r\n"2022-04-09 16:02:24
"||||||||||||-43,6969,$GNRMC,160222.000,A,3429.7271,$GNGGA,160223.000,3429.7271,N,11657.5590,W,2,14,0.66,868.3,M,-31.0,M,,*4A\rB\u000f\r\n"2022-04-09 16:02:25
"||||||||||||-42,6969,$ACCEL,-1.11,7.45,-5.87,$ALT,865.38,-257.92.000,3429.7271,N,11657.5590,W,2,14,0.66,868.3,M,-31.0,M,,*4A\rB\u000f\r\n"2022-04-09 16:02:25
"||||||||||||-43,6969,$GNRMC,160223.000,A,342971$GNGGA,160224.000,3429.7271,N,11657.5589,W,2,14,0.66,868.3,M,-31.0,M,,*45\r*4A\rB\u000f\r\n"2022-04-09 16:02:26
"||||||||||||-41,6969,$ACCEL,-1.11,7.45,-5.86,$ALT,865.38,-257.92\u0001\r\n"2022-04-09 16:02:26
"||||||||||||-42,6969,$GNRMC,160224.000,A,$GNGGA,160225.000,3429.7271,N,11657.5589,W,2,14,0.66,868.2,M,-31.0,M,,*45\r\r\n"2022-04-09 16:02:26
"||||||||||||-42,6969,$ACCEL,-1.11,7.44,-5.87,$ALT,865.33,-257.91\u0001\r\n"2022-04-09 16:02:27
"||||||||||||-43,6969,$GNRMC,160225.000,A,3429.7271,5,,421$GNGGA,160226.000,3429.7271,N,11657.5589,W,2,14,0.66,868.2,M,-31.0,M,,*46\r\r\n"2022-04-09 16:02:28
"||||||||||||-42,6969,$ACCEL,-1.12,7.46,-5.86,$ALT,865.27,-257.89\u0001\r\n"2022-04-09 16:02:28
"||||||||||||-41,6969,$GNRMC,16022,.,5059,$GNGGA,160227.000,3429.7271,N,11657.5588,W,2,14,0.66,868.2,M,-31.0,M,,*46\r\r\n"2022-04-09 16:02:29
"||||||||||||-41,6969,$ACCEL,-1.12,7.45,-5.87,$ALT,865.22,-257.867271,N,11657.5588,W,2,14,0.66,868.2,M,-31.0,M,,*46\r\r\n"2022-04-09 16:02:29
"||||||||||||-42,6969,$GNRMC,160227.009N7W20,,$ALT,865.22,-25\r\n"2022-04-09 16:02:29
"||||||||||||-42,6969,$ACCEL,-1.12,7.45,-5.87,$ALT,865.33,-257.91\u0001\r\n"2022-04-09 16:02:29
"||||||||||||-42,6969,$ACCEL,-1.11,7.45,-5.86,$ALT,865.35,-257.91\u0001\r\n"2022-04-09 16:02:31
"||||||||||||-42,6969,$GNRMC,160228.0009N.,20,$ALT,865.35,-257.91\u0001\r\n"2022-04-09 16:02:31
"||||||||||||-42,6969,$ACCEL,-1.11,7.45,-5.86,$ALT,865.26,-257.90\u0001\r\n"2022-04-09 16:02:32
"||||||||||||-43,6969,$GNRMC,160229.00037685426$GNGGA,160230.000,3429.7271,N,11657.5587,W,2,14,0.66,868.0,M,-31.0,M,,*4D\r`\r\n"2022-04-09 16:02:33
"||||||||||||-42,6969,$ACCEL,-1.12,7.45,-5.87,$ALT,865.42,-257.943429.7271,N,11657.5587,W,2,14,0.66,868.0,M,-31.0,M,,*4D\r`\r\n"2022-04-09 16:02:34
"||||||||||||-42,6969,$GNRMC,160230.,.,5059,$GNGGA,160231.000,3429.7271,N,11657.5588,W,2,14,0.66,868.0,M,-31.M1.0,M,,*4D\r`\r\n"2022-04-09 16:02:34
"||||||||||||-42,6969,$ACCEL,-1.11,7.44,-5.86,$ALT,865.32,-257.91\u0001\r\n"2022-04-09 16:02:34
"||||||||||||-42,6969,,.37680826$GNGGA,160232.000,3429.7272,N,11657.5588,W,2,14,0.66,868.0,M,-31.0,M,,*43\r\r\n"2022-04-09 16:02:35
"||||||||||||-42,6969,$ACCEL,-1.11,7.44,-5.86,$ALT,865.42,-257.9357.5588,W,2,14,0.66,868.0,M,-31.0,M,,*43\r\r\n"2022-04-09 16:02:35
"||||||||||||-44,6969,89,CEL,-1.11,7.44,-5.86,$ALT,865.42,-25\r\n"2022-04-09 16:02:35
"||||||||||||-42,6969,$ACCEL,-1.12,7.46,-5.87,$ALT,865.38,-257.93\u0005R\r\n"2022-04-09 16:02:35
"||||||||||||-41,6969,$GNGGA,160233.000,3429.7272,N,11657.5588,W,2,14,0.66,868.0,M,-31.0,M,,*42\r\r\n"2022-04-09 16:02:36
"||||||||||||-42,6969,$ACCEL,-1.12,7.45,-5.85,$ALT,865.37,-257.932,14,0.66,868.0,M,-31.0,M,,*42\r\r\n"2022-04-09 16:02:36
"||||||||||||-43,6969,$GNRMC,160233.000,A,34218082*$GNGGA,160234.000,3429.7272,N,11657.5588,W,2,14,0.66,868.1,M,-31.0,M,,*44\r\r\n"2022-04-09 16:02:37
"||||||||||||-42,6969,$ACCEL,-1.11,7.46,-5.87,$ALT,865.18,-257.87000,3429.7272,N,11657.5588,W,2,14,0.66,868.1,M,-31.0,M,,*44\r\r\n"2022-04-09 16:02:37
"||||||||||||-41,6969,$GNRMC,160234.000,A,715..4D$GNGGA,160235.000,3429.7271,N,11657.5588,W,2,14,0.66,868.1,M,-31.0,M,,*46\r4\r\r\n"2022-04-09 16:02:38
"||||||||||||-42,6969,$ACCEL,-1.11,7.46,-5.86,$ALT,865.49,-257.970,3429.7271,N,11657.5588,W,2,14,0.66,868.1,M,-31.0,M,,*46\r4\r\r\n"2022-04-09 16:02:39
"||||||||||||-42,6969,$GNRMC,160235.0047689426$GNGGA,160236.000,3429.7271,N,11657.5588,W,2,14,0.66,868.1,M,-31.0,M,,*N0,.,5089,$GNGGA,160237 \r\n"2022-04-09 16:02:39
"||||||||||||-41,6969,$ACCEL,-1.11,7.49,-5.90,$ALT,865.19,-257.88\u0001\r\n"2022-04-09 16:02:40
"||||||||||||-41,6969,$GNRMC,160237.000,A,3427698826$GNGGA,160238.000,3429.7270,N,11657.5589,W,2,14,0.66,868.1,M,-31.0,M,,*4B\rB\u000f\r\n"2022-04-09 16:02:40
"||||||||||||-41,6969,$ACCEL,-1.11,7.49,-5.90,$ALT,865.31,-257.91.000,3429.7270,N,11657.5589,W,2,14,0.66,868.1,M,-31.0,M,,*4B\rB\u000f\r\n"2022-04-09 16:02:40
"||||||||||||-42,6969,$GNRMC,160238.009N.W20,,$ALT,865.31,-257.91.000,3429.7270,N,11657.5589,W,2,14,0.66,868.1,M,-31.0,M,,*4B\rB\u000f\r\n"2022-04-09 16:02:41
"||||||||||||-41,6969,$ACCEL,-1.11,7.49,-5.89,$ALT,865.47,-257.96\u0001\r\n"2022-04-09 16:02:41
"||||||||||||-41,6969,$ACCEL,-1.11,7.45,-5.86,$ALT,865.25,-257.90\u0005R\r\n"2022-04-09 16:02:42
"||||||||||||-41,6969,$GNRMC,160239.0037680826$GNGGA,160240.000,3429.7270,N,11657.5589,W,2,14,0.66,868.1,M,-31.0,M,,*44\r\r\n"2022-04-09 16:02:42
"||||||||||||-41,6969,$ACCEL,-1.11,7.45,-5.86,$ALT,865.45,-257.96429.7270,N,11657.5589,W,2,14,0.66,868.1,M,-31.0,M,,*44\r\r\n"2022-04-09 16:02:43
"||||||||||||-40,6969,$GNRMC,160240.000,A,3429.7270,N,11657.5589,W,0$GNGGA,160241.000,3429.7270,N,11657.5589,W,2,14,0.66,868.2,M,-31.0,M,,*4 \r\n"2022-04-09 16:02:43
"||||||||||||-41,6969,$ACCEL,-1.10,7.45,-5.85,$ALT,865.28,-257.91\u0001\r\n"2022-04-09 16:02:45
"||||||||||||-41,6969,$GNRMC,160241.000,A,3429.7270,$GNGGA,160242.000,3429.7270,N,11657.5589,W,2,14,0.66,868.1,M,-31.0,M,,*46$1047697426$GNG \r\n"2022-04-09 16:02:45
"||||||||||||-41,6969,$ACCEL,-1.10,7.45,-5.86,$ALT,865.41,-257.94\u0001\r\n"2022-04-09 16:02:46
"||||||||||||-41,6969,$GNRMC,160243.000,A,34218082*$GNGGA,160244.000,3429.7270,N,11657.5589,W,2,14,0.66,868.1,M,-31.0,M,,*40\r@B\u000f\r\n"2022-04-09 16:02:46
"||||||||||||-41,6969,$ACCEL,-1.10,7.45,-5.86,$ALT,865.41,-257.93\u0001\r\n"2022-04-09 16:02:46
"||||||||||||-40,6969,$GNRMC,160244.0009N.,80,$ALT,865.41,-257.93\u0001\r\n"2022-04-09 16:02:47
"||||||||||||-40,6969,$ACCEL,-1.11,7.45,-5.85,$ALT,865.41,-257.95\u0001\r\n"2022-04-09 16:02:47
"||||||||||||-38,6969,$GNRMC,16020205,,,,4$GNGGA,160246.000,3429.7270,N,11657.5587,W,2,14,0.66,868.1,M,-31.0,M,,*4C\r\r\n"2022-04-09 16:02:48
"||||||||||||-40,6969,$ACCEL,-1.11,7.45,-5.86,$ALT,865.40,-257.94\u0001\r\n"2022-04-09 16:02:49
"||||||||||||-40,6969,$GNRMC,160246.000,A,3429.7270,N,11657.5587,W,0.02,$GNGGA,160247.000,3429.7269,N,11657.5587,W,2,14,0.66,868.0,M,-31.0,M \r\n"2022-04-09 16:02:49
"||||||||||||-42,6969,$ACCEL,-1.11,7.45,-5.87,$ALT,865.28,-257.92W,0.02,$GNGGA,160247.000,3429.7269,N,11657.5587,W,2,14,0.66,868.0,M,-31.0,M \r\n"2022-04-09 16:02:51
"||||||||||||-41,6969,$GNRMC,160247.000,A,3429.7269$GNGGA,160248.000,3429.7269,N,11657.5587,W,2,14,0.66,868.0,M,-31.0,M,,\rC8,715..4D$GNGGA,1 \r\n"2022-04-09 16:02:51
"||||||||||||-41,6969,$ACCEL,-1.11,7.45,-5.85,$ALT,865.29,-257.92\u0001\r\n"2022-04-09 16:02:52
"||||||||||||-41,6969,$GNRMC,160249.000,A,34715..0D$GNGGA,160250.000,3429.7269,N,11657.5586,W,2,14,0.66,868.1,M,-31.0,M,,*42\r\r\n"2022-04-09 16:02:52
"||||||||||||-42,6969,$ACCEL,-1.10,7.46,-5.86,$ALT,865.43,-257.96\u0001\r\n"2022-04-09 16:02:53
"||||||||||||-41,6969,$GNRMC,160250.000,A.,5050,$GNGGA,160251.000,3429.7269,N,11657.5586,W,2,14,0.66,868.1,M,-31.0,M,,*43\r\r\n"2022-04-09 16:02:53
"||||||||||||-41,6969,$ACCEL,-1.12,7.45,-5.85,$ALT,865.47,-257.96,3429.7269,N,11657.5586,W,2,14,0.66,868.1,M,-31.0,M,,*43\r\r\n"2022-04-09 16:02:54
"||||||||||||-40,6969,$GNRMC,160202,7W,,,\r$GNGGA,160252.000,3429.7268,N,11657.5586,W,2,14,0.66,868.1,M,-31.0,M,,*41\r,,*43\r\r\n"2022-04-09 16:02:54
"||||||||||||-41,6969,$ACCEL,-1.12,7.44,-5.87,$ALT,865.29,-257.91\u0001\r\n"2022-04-09 16:02:55
"||||||||||||-41,6969,$GNRMC,160252.000,A,3429.7268,N,11657.5586,W,0.01$GNGGA,160253.000,3429.7269,N,11657.5586,W,2,14,0.66,868.1,M,-31.0,M, \r\n"2022-04-09 16:02:55
"||||||||||||-41,6969,$ACCEL,-1.11,7.45,-5.86,$ALT,865.38,-257.94W,0.01$GNGGA,160253.000,3429.7269,N,11657.5586,W,2,14,0.66,868.1,M,-31.0,M, \r\n"2022-04-09 16:02:56
"||||||||||||-41,6969,$GNRMC,160253.000,A,3429.7269$GNGGA,160254.000,3429.7269,N,11657.5587,W,2,14,0.66,868.1,M,-31.0,M,,*47\r@B\u000f\r\n"2022-04-09 16:02:56
"||||||||||||-41,6969,$ACCEL,-1.11,7.45,-5.86,$ALT,865.39,-257.95000,3429.7269,N,11657.5587,W,2,14,0.66,868.1,M,-31.0,M,,*47\r@B\u000f\r\n"2022-04-09 16:02:57
"||||||||||||-41,6969,$GNRMC,160254.000,A,3429.7$GNGGA,160255.000,3429.7269,N,11657.5587,W,2,14,0.66,868.1,M,-31.0,M,,*46\r47\r@B\u000f\r\n"2022-04-09 16:02:57
"||||||||||||-41,6969,$ACCEL,-1.11,7.44,-5.86,$ALT,865.43,-257.96,3429.7269,N,11657.5587,W,2,14,0.66,868.1,M,-31.0,M,,*46\r47\r@B\u000f\r\n"2022-04-09 16:02:58
"||||||||||||-41,6969,$GNRMC,160255.000,A,$GNGGA,160256.000,3429.7269,N,11657.5587,W,2,14,0.66,868.1,M,-31.0,M,,*45\r,,*46\r47\r@B\u000f\r\n"2022-04-09 16:02:58
"||||||||||||-41,6969,$ACCEL,-1.11,7.45,-5.87,$ALT,865.32,-257.937269,N,11657.5587,W,2,14,0.66,868.1,M,-31.0,M,,*45\r,,*46\r47\r@B\u000f\r\n"2022-04-09 16:02:59
"||||||||||||-41,6969,$GNRMC,160256.000,A,3429.7269,N,7,,,,\r$GNGGA,160257.000,3429.7269,N,11657.5587,W,2,14,0.66,868.1,M,-31.0,M,,*44\r\r\n"2022-04-09 16:02:59
"||||||||||||-41,6969,$ACCEL,-1.11,7.45,-5.84,$ALT,865.42,-257.96A,160257.000,3429.7269,N,11657.5587,W,2,14,0.66,868.1,M,-31.0,M,,*44\r\r\n"2022-04-09 16:03:00
"||||||||||||-41,6969,$GNRMC,1602049571422$GNGGA,160258.000,3429.7269,N,11657.5586,W,2,14,0.66,868.1,M,-31.0,M,,*4A\r.1,M,-31.0,M,,*44\r\r\n"2022-04-09 16:03:00
"||||||||||||-41,6969,$ACCEL,-1.10,7.46,-5.86,$ALT,865.38,-257.947269,N,11657.5586,W,2,14,0.66,868.1,M,-31.0,M,,*4A\r.1,M,-31.0,M,,*44\r\r\n"2022-04-09 16:03:01
"||||||||||||-41,6969,$GNRMC,160258.00,2180.4*$GNGGA,160259.000,3429.7269,N,11657.5587,W,2,14,0.66,868.1,M,-31.0,M,,*4A\r,-31.0,M,,*44\r\r\n"2022-04-09 16:03:01
"||||||||||||-41,6969,$ACCEL,-1.10,7.45,-5.86,$ALT,865.49,-257.98429.7269,N,11657.5587,W,2,14,0.66,868.1,M,-31.0,M,,*4A\r,-31.0,M,,*44\r\r\n"2022-04-09 16:03:02
"||||||||||||-42,6969,$GNRMC,160259.0036180826$GNGGA,160300.000,3429.7269,N,11657.5587,W,2,14,0.66,868.2,M,-31.0,M,,*44\r\r\n"2022-04-09 16:03:02
"||||||||||||-41,6969,$ACCEL,-1.11,7.45,-5.86,$ALT,865.39,-257.95429.7269,N,11657.5587,W,2,14,0.66,868.2,M,-31.0,M,,*44\r\r\n"2022-04-09 16:03:03
"||||||||||||-40,6969,$GNRMC,160300.000,A495,,421$GNGGA,160301.000,3429.7269,N,11657.5587,W,2,14,0.66,868.2,M,-31.0,M,,*45\r\r\n"2022-04-09 16:03:03
"||||||||||||-41,6969,$ACCEL,-1.10,7.46,-5.86,$ALT,865.42,-257.960,3429.7269,N,11657.5587,W,2,14,0.66,868.2,M,-31.0,M,,*45\r\r\n"2022-04-09 16:03:04
"||||||||||||-41,6969,$GNRMC,160300495,1420$GNGGA,160302.000,3429.7269,N,11657.5587,W,2,14,0.66,868.2,M,-31.0,M,,*46\r,,*45\r\r\n"2022-04-09 16:03:04
"||||||||||||-41,6969,$ACCEL,-1.11,7.46,-5.86,$ALT,865.37,-257.95.7269,N,11657.5587,W,2,14,0.66,868.2,M,-31.0,M,,*46\r,,*45\r\r\n"2022-04-09 16:03:05
"||||||||||||-41,6969,$GNRMC,160302.00,.,5089,$GNGGA,160303.000,3429.7269,N,11657.5587,W,2,14,0.66,868.2,M,-31.0,M,,*47\r\r\n"2022-04-09 16:03:05
"||||||||||||-41,6969,$ACCEL,-1.11,7.46,-5.87,$ALT,865.39,-257.96429.7269,N,11657.5587,W,2,14,0.66,868.2,M,-31.0,M,,*47\r\r\n"2022-04-09 16:03:06
"||||||||||||-41,6969,$GNRMC,160303.000A.,5050,$GNGGA,160304.000,3429.7269,N,11657.5588,W,2,14,0.66,868.1,M,-31.0,M,,*4C\r,\u0001\r\n"2022-04-09 16:03:06
"||||||||||||-41,6969,$ACCEL,-1.10,7.44,-5.85,$ALT,865.36,-257.953429.7269,N,11657.5588,W,2,14,0.66,868.1,M,-31.0,M,,*4C\r,\u0001\r\n"2022-04-09 16:03:07
"||||||||||||-40,6969,$GNRMC,160304.0002,7W,,,\r$GNGGA,160305.000,3429.7268,N,11657.5587,W,2,14,0.66,868.0,M,-31.0,M,,*42\r,\u0001\r\n"2022-04-09 16:03:07
"||||||||||||-41,6969,$ACCEL,-1.12,7.46,-5.86,$ALT,865.43,-257.983429.7268,N,11657.5587,W,2,14,0.66,868.0,M,-31.0,M,,*42\r,\u0001\r\n"2022-04-09 16:03:08
"||||||||||||-41,6969,$GNRMC,160305.00A715.50D$GNGGA,160306.000,3429.7268,N,11657.5588,W,2,14,0.66,868.0,M,-31.0,M,,*4E\r\r,\u0001\r\n"2022-04-09 16:03:08
"||||||||||||-41,6969,$ACCEL,-1.11,7.46,-5.85,$ALT,865.45,-257.98\u0005R\r\n"2022-04-09 16:03:09
"||||||||||||-41,6969,$GNRMC,160306.000485,,429$GNGGA,160307.000,3429.7268,N,11657.5588,W,2,14,0.66,868.0,M,-31.0,M,,*4F\r`\r\n"2022-04-09 16:03:09
"||||||||||||-41,6969,$ACCEL,-1.11,7.44,-5.86,$ALT,865.35,-257.943429.7268,N,11657.5588,W,2,14,0.66,868.0,M,-31.0,M,,*4F\r`\r\n"2022-04-09 16:03:10
"||||||||||||-41,6969,$GNRMC,160307.0003218082*$GNGGA,160308.000,3429.7268,N,11657.5588,W,2,14,0.66,867.9,M,-31.0,M,,*46\r`\r\n"2022-04-09 16:03:10
"||||||||||||-41,6969,$ACCEL,-1.11,7.45,-5.85,$ALT,865.39,-257.963429.7268,N,11657.5588,W,2,14,0.66,867.9,M,-31.0,M,,*46\r`\r\n"2022-04-09 16:03:11
"||||||||||||-41,6969,$GNRMC,160308.00485,,427$GNGGA,160309.000,3429.7268,N,11657.5588,W,2,14,0.66,867.8,M,-31.0,M,,*46\r\r`\r\n"2022-04-09 16:03:11
"||||||||||||-41,6969,$ACCEL,-1.11,7.45,-5.86,$ALT,865.55,-258.01429.7268,N,11657.5588,W,2,14,0.66,867.8,M,-31.0,M,,*46\r\r`\r\n"2022-04-09 16:03:12
"||||||||||||-40,6969,$GNRMC,160309.00,.,5050,$GNGGA,160310.000,3429.7269,N,11657.5588,W,2,14,0.66,867.8,M,-31.0,M,,*4F\r\r`\r\n"2022-04-09 16:03:12
"||||||||||||-41,6969,$ACCEL,-1.11,7.45,-5.85,$ALT,865.20,-257.91429.7269,N,11657.5588,W,2,14,0.66,867.8,M,-31.0,M,,*4F\r\r`\r\n"2022-04-09 16:03:13
"||||||||||||-41,6969,$GNRMC,160310.00A715..0D$GNGGA,160311.000,3429.7269,N,11657.5589,W,2,14,0.66,867.8,M,-31.0,M,,*4F\r\r`\r\n"2022-04-09 16:03:13
"||||||||||||-40,6969,$ACCEL,-1.11,7.46,-5.85,$ALT,865.42,-257.97429.7269,N,11657.5589,W,2,14,0.66,867.8,M,-31.0,M,,*4F\r\r`\r\n"2022-04-09 16:03:14
"||||||||||||-41,6969,$GNRMC,160311.00A7,5050D$GNGGA,160312.000,3429.7268,N,11657.5588,W,2,14,0.66,867.8,M,-31.0,M,,*4C\r\r`\r\n"2022-04-09 16:03:14
"||||||||||||-41,6969,$ACCEL,-1.12,7.46,-5.86,$ALT,865.40,-257.97429.7268,N,11657.5588,W,2,14,0.66,867.8,M,-31.0,M,,*4C\r\r`\r\n"2022-04-09 16:03:15
"||||||||||||-40,6969,$GNRMC,160312.000,A485,,42C$GNGGA,160313.000,3429.7268,N,11657.5589,W,2,14,0.66,867.8,M,-31.0,M,,*4C\r\r\n"2022-04-09 16:03:15
"||||||||||||-41,6969,$ACCEL,-1.11,7.45,-5.86,$ALT,865.58,-258.02\u0001\r\n"2022-04-09 16:03:16
"||||||||||||-41,6969,$GNRMC,160313.02,5,,,,\r$GNGGA,160314.000,3429.7268,N,11657.5589,W,2,14,0.66,867.8,M,-31.0,M,,*4B\r\r\n"2022-04-09 16:03:16
"||||||||||||-40,6969,$ACCEL,-1.10,7.46,-5.86,$ALT,865.48,-257.99\u0001\r\n"2022-04-09 16:03:17
"||||||||||||-41,6969,$GNRMC,160314.00,218..4*$GNGGA,160315.000,3429.7268,N,11657.5590,W,2,14,0.66,867.8,M,-31.0,M,,*42\r\r\n"2022-04-09 16:03:17
"||||||||||||-40,6969,$ACCEL,-1.10,7.45,-5.85,$ALT,865.43,-257.98429.7268,N,11657.5590,W,2,14,0.66,867.8,M,-31.0,M,,*42\r\r\n"2022-04-09 16:03:18
"||||||||||||-39,6969,$GNRMC,160315.000,A48502421$GNGGA,160316.000,3429.7268,N,11657.5590,W,2,14,0.66,867.8,M,-31.0,M,,*41\r\r\n"2022-04-09 16:03:18
"||||||||||||-41,6969,$ACCEL,-1.11,7.46,-5.84,$ALT,865.40,-257.970,3429.7268,N,11657.5590,W,2,14,0.66,867.8,M,-31.0,M,,*41\r\r\n"2022-04-09 16:03:19
"||||||||||||-40,6969,$GNRMC,160316.,2190.4*$GNGGA,160317.000,3429.7268,N,11657.5591,W,2,14,0.66,867.9,M,-31.0,M,,*40\r\r\n"2022-04-09 16:03:19
"||||||||||||-40,6969,$ACCEL,-1.10,7.45,-5.86,$ALT,865.41,-257.979.7268,N,11657.5591,W,2,14,0.66,867.9,M,-31.0,M,,*40\r\r\n"2022-04-09 16:03:20
"||||||||||||-41,6969,$GNRMC,160317.00A715..4D$GNGGA,160318.000,3429.7268,N,11657.5591,W,2,14,0.66,867.9,M,-31.0,M,,*4F\r\r\n"2022-04-09 16:03:20
"||||||||||||-41,6969,$ACCEL,-1.11,7.45,-5.86,$ALT,865.34,-257.95\u0005R\r\n"2022-04-09 16:03:21
"||||||||||||-41,6969,$GNRMC,160318.000A715050D$GNGGA,160319.000,3429.7268,N,11657.5591,W,2,14,0.66,867.9,M,-31.0,M,,*4E\r,\u0001\r\n"2022-04-09 16:03:21
"||||||||||||-41,6969,$ACCEL,-1.12,7.45,-5.87,$ALT,865.41,-257.983429.7268,N,11657.5591,W,2,14,0.66,867.9,M,-31.0,M,,*4E\r,\u0001\r\n"2022-04-09 16:03:22
"||||||||||||-41,6969,$GNRMC,160319.000A715..4D$GNGGA,160320.000,3429.7268,N,11657.5591,W,2,14,0.66,867.8,M,-31.0,M,,*45\r,\u0001\r\n"2022-04-09 16:03:22
"||||||||||||-41,6969,$ACCEL,-1.12,7.46,-5.86,$ALT,865.43,-257.98\u0001\r\n"2022-04-09 16:03:23
"||||||||||||-41,6969,$GNRMC,160320.0,.,5089,$GNGGA,160321.000,3429.7268,N,11657.5590,W,2,14,0.66,867.9,M,-31.0,M,,*44\r\r\n"2022-04-09 16:03:23
"||||||||||||-41,6969,$ACCEL,-1.10,7.46,-5.86,$ALT,865.47,-257.99\u0001\r\n"2022-04-09 16:03:24
"||||||||||||-41,6969,$GNRMC,160321.000,,219084*$GNGGA,160322.000,3429.7268,N,11657.5591,W,2,14,0.66,867.9,M,-31.0,M,,*46\r\r\n"2022-04-09 16:03:24
"||||||||||||-41,6969,$ACCEL,-1.11,7.45,-5.87,$ALT,865.53,-258.02,3429.7268,N,11657.5591,W,2,14,0.66,867.9,M,-31.0,M,,*46\r\r\n"2022-04-09 16:03:25
"||||||||||||-41,6969,$GNRMC,160322.00036613426$GNGGA,160323.000,3429.7268,N,11657.5591,W,2,14,0.66,867.9,M,-31.0,M,,*47\r\r\r\n"2022-04-09 16:03:25
"||||||||||||-41,6969,$ACCEL,-1.11,7.46,-5.86,$ALT,865.45,-258.003429.7268,N,11657.5591,W,2,14,0.66,867.9,M,-31.0,M,,*47\r\r\r\n"2022-04-09 16:03:26
"||||||||||||-41,6969,$GNRMC,160323.00,219..4*$GNGGA,160324.000,3429.7268,N,11657.5591,W,2,14,0.66,867.9,M,-31.0,M,,*40\r\r\r\r\n"2022-04-09 16:03:26
"||||||||||||-40,6969,$ACCEL,-1.11,7.45,-5.86,$ALT,865.56,-258.02429.7268,N,11657.5591,W,2,14,0.66,867.9,M,-31.0,M,,*40\r\r\r\r\n"2022-04-09 16:03:27
"||||||||||||-41,6969,$GNRMC,160324.00A715050D$GNGGA,160325.000,3429.7268,N,11657.5590,W,2,14,0.66,867.9,M,-31.0,M,,*40\r\r\r\r\n"2022-04-09 16:03:27
"||||||||||||-40,6969,$ACCEL,-1.10,7.45,-5.85,$ALT,865.63,-258.05\u0001\r\n"2022-04-09 16:03:28
"||||||||||||-40,6969,$GNRMC,160325.000A.,5050D$GNGGA,160326.000,3429.7268,N,11657.5590,W,2,14,0.66,867.9,M,-31.0,M,,*43\r`\r\n"2022-04-09 16:03:28
"||||||||||||-41,6969,$ACCEL,-1.11,7.45,-5.86,$ALT,865.53,-258.02\u0001\r\n"2022-04-09 16:03:29
"||||||||||||-41,6969,$GNRMC,160326.000A715050D$GNGGA,160327.000,3429.7268,N,11657.5590,W,2,14,0.66,867.9,M,-31.0,M,,*42\r`\r\n"2022-04-09 16:03:29
"||||||||||||-40,6969,$ACCEL,-1.12,7.44,-5.87,$ALT,865.51,-258.013429.7268,N,11657.5590,W,2,14,0.66,867.9,M,-31.0,M,,*42\r`\r\n"2022-04-09 16:03:30
"||||||||||||-41,6969,$GNRMC,160327.00A.,5050D$GNGGA,160328.000,3429.7268,N,11657.5589,W,2,14,0.66,867.8,M,-31.0,M,,*44\r\r`\r\n"2022-04-09 16:03:30
"||||||||||||-41,6969,$ACCEL,-1.12,7.44,-5.87,$ALT,865.42,-257.99429.7268,N,11657.5589,W,2,14,0.66,867.8,M,-31.0,M,,*44\r\r`\r\n"2022-04-09 16:03:31
"||||||||||||-41,6969,$GNRMC,160328.000,2180.4*$GNGGA,160329.000,3429.7268,N,11657.5589,W,2,14,0.66,867.8,M,-31.0,M,,*45\r`\r\n"2022-04-09 16:03:31
"||||||||||||-41,6969,$ACCEL,-1.12,7.44,-5.87,$ALT,865.45,-257.993429.7268,N,11657.5589,W,2,14,0.66,867.8,M,-31.0,M,,*45\r`\r\n"2022-04-09 16:03:31
"||||||||||||-41,6969,$GNRMC,160329.00,9N.,89,$ALT,865.45,-257.993429.7268,N,11657.5589,W,2,14,0.66,867.8,M,-31.0,M,,*45\r`\r\n"2022-04-09 16:03:31
"||||||||||||-41,6969,$ACCEL,-1.12,7.45,-5.86,$ALT,865.45,-257.993429.7268,N,11657.5589,W,2,14,0.66,867.8,M,-31.0,M,,*45\r`\r\n"2022-04-09 16:03:32
"||||||||||||-40,6969,$GNGGA,160330.000,3429.7268,N,11657.5589,W,2,14,0.66,867.7,M,-31.0,M,,*42\r.66,867.8,M,-31.0,M,,*45\r`\r\n"2022-04-09 16:03:32
"||||||||||||-41,6969,$ACCEL,-1.12,7.45,-5.86,$ALT,865.54,-258.01\u0005R\r\n"2022-04-09 16:03:33
"||||||||||||-41,6969,$GNRMC,160330.0A715050D$GNGGA,160331.000,3429.7268,N,11657.5589,W,2,14,0.66,867.5,M,-31.0,M,,*41\r\r\n"2022-04-09 16:03:33
"||||||||||||-40,6969,$ACCEL,-1.12,7.45,-5.86,$ALT,865.43,-257.98\u0001\r\n"2022-04-09 16:03:33
"||||||||||||-41,6969,$GNRMC,160331.0009N7W20,$ALT,865.43,-25\r\n"2022-04-09 16:03:33
"||||||||||||-42,6969,$ACCEL,-1.12,7.45,-5.87,$ALT,865.42,-257.98\u0001\r\n"2022-04-09 16:03:34
"||||||||||||-43,6969,$GNGGA,160332.000,3429.7267,N,11657.5589,W,2,14,0.66,867.5,M,-31.0,M,,*4D\r\r\n"2022-04-09 16:03:34
"||||||||||||-43,6969,$ACCEL,-1.13,7.45,-5.88,$ALT,865.46,-258.00\u0001\r\n"2022-04-09 16:03:35
"||||||||||||-43,6969,$GNRMC,160332.02,7W2,,\r$GNGGA,160333.000,3429.7267,N,11657.5589,W,2,14,0.66,867.5,M,-M \u0001\r\n"2022-04-09 16:03:35
"||||||||||||-42,6969,$ACCEL,-1.10,7.45,-5.86,$ALT,865.50,-258.0029.7267,N,11657.5589,W,2,14,0.66,867.5,M,-M \u0001\r\n"2022-04-09 16:03:36
"||||||||||||-42,6969,C3,218..4*$GNGGA,160334.000,3429.7267,N,11657.5589,W,2,14,0.66,867.4,M,-31.0,M,,*4A\r-M \u0001\r\n"2022-04-09 16:03:36
"||||||||||||-42,6969,$ACCEL,-1.10,7.45,-5.86,$ALT,865.51,-258.00\u0001\r\n"2022-04-09 16:03:36
"||||||||||||-42,6969,$GNRMC,160334.000,A,3429N.,89,65.51,-258.00\u0001\r\n"2022-04-09 16:03:36
"||||||||||||-43,6969,$ACCEL,-1.11,7.44,-5.87,$ALT,865.46,-258.00\u0001\r\n"2022-04-09 16:03:38
"||||||||||||-42,6969,$GNGGA,160335.000,3429.7267,N,11657.5588,W,2,14,0.66,867.3,M,-31.0,M,,*1426$GNGGA,160336.000,3429.7267,N,11657.5588,W, \r\n"2022-04-09 16:03:38
"||||||||||||-44,6969,$ACCEL,-1.12,7.45,-5.87,$ALT,865.40,-257.982,14,0.66,867.3,M,-31.0,M,,*1426$GNGGA,160336.000,3429.7267,N,11657.5588,W, \r\n"2022-04-09 16:03:39
"||||||||||||-42,6969,$GNRMC,160336.000,A,34715050D$GNGGA,160337.000,3429.7267,N,11657.5589,W,2,14,0.66,867.5,M,-31.0,M,,*48\r\r\n"2022-04-09 16:03:39
"||||||||||||-44,6969,$ACCEL,-1.11,7.44,-5.87,$ALT,865.44,-257.99000,3429.7267,N,11657.5589,W,2,14,0.66,867.5,M,-31.0,M,,*48\r\r\n"2022-04-09 16:03:40
"||||||||||||-43,6969,$GNRMC,160337.000,A.,5,89D$GNGGA,160338.000,3429.7267,N,11657.5589,W,2,14,0.66,867.5,M,-31.0,M,4669142A$GNGGA,160339.0\r\n"2022-04-09 16:03:40
"||||||||||||-44,6969,$ACCEL,-1.10,7.44,-5.87,$ALT,865.48,-258.00,3429.7267,N,11657.5589,W,2,14,0.66,867.5,M,-31.0,M,4669142A$GNGGA,160339.0\r\n"2022-04-09 16:03:42
"||||||||||||-44,6969,$GNRMC,160339.000,A,3429.7266,N,11657.5589,W,0.01,285.84,09042,\r$GNGGA,160340.000,3429.7266,N,11657.5590,W,2,14,0.66,8\r\n"2022-04-09 16:03:42
"||||||||||||-44,6969,$ACCEL,-1.12,7.45,-5.87,$ALT,865.52,-258.02\u0001\r\n"2022-04-09 16:03:43
"||||||||||||-44,6969,$GNRMC,16034,.,5059,$GNGGA,160341.000,3429.7266,N,11657.5590,W,2,14,0.66,867.8,M,-31.0,M,,*4D\r\r\n"2022-04-09 16:03:43
"||||||||||||-44,6969,$ACCEL,-1.11,7.45,-5.87,$ALT,865.52,-258.027266,N,11657.5590,W,2,14,0.66,867.8,M,-31.0,M,,*4D\r\r\n"2022-04-09 16:03:44
"||||||||||||-44,6969,$GNRMC,160341.000,465,,42E$GNGGA,160342.000,3429.7267,N,11657.5590,W,2,14,0.66,867.9,M,-31.0,M,,*4E\r\r\n"2022-04-09 16:03:44
"||||||||||||-43,6969,$ACCEL,-1.11,7.45,-5.87,$ALT,865.45,-258.00\u0005R\r\n"2022-04-09 16:03:44
"||||||||||||-44,6969,$GNRMC,160342.690826$GNGGA,160343.000,3429.7267,N,11657.5589,W,2,14,0.66,867.9,M,-31.0,M,,*47\r\r\n"2022-04-09 16:03:45
"||||||||||||-44,6969,$ACCEL,-1.12,7.45,-5.86,$ALT,865.50,-258.027267,N,11657.5589,W,2,14,0.66,867.9,M,-31.0,M,,*47\r\r\n"2022-04-09 16:03:46
"||||||||||||-44,6969,$GNRMC,160343.000,A,3429.7267,N,11657.5589,W,0.02,285.84,0$GNGGA,160344.000,3429.7268,N,11657.5589,W,2,14,0.66,868.0,M\r\n"2022-04-09 16:03:46
"||||||||||||-44,6969,$ACCEL,-1.11,7.45,-5.87,$ALT,865.58,-258.04W,0.02,285.84,0$GNGGA,160344.000,3429.7268,N,11657.5589,W,2,14,0.66,868.0,M\r\n"2022-04-09 16:03:47
"||||||||||||-44,6969,$GNRMC,160344.000,A,$GNGGA,160345.000,3429.7268,N,11657.5589,W,2,14,0.66,868.0,M,-31.0,M,,*48\r5589,W,2,14,0.66,868.0,M\r\n"2022-04-09 16:03:47
"||||||||||||-44,6969,$ACCEL,-1.11,7.45,-5.86,$ALT,865.38,-257.98\u0005R\r\n"2022-04-09 16:03:48
"||||||||||||-44,6969,$GNRMC,160345.000,A,3429.7$GNGGA,160346.000,3429.7268,N,11657.5588,W,2,14,0.66,868.0,M,-31.0,M,,*4A\r\u0001\r\n"2022-04-09 16:03:48
"||||||||||||-44,6969,$ACCEL,-1.12,7.45,-5.86,$ALT,865.59,-258.04,3429.7268,N,11657.5588,W,2,14,0.66,868.0,M,-31.0,M,,*4A\r\u0001\r\n"2022-04-09 16:03:49
"||||||||||||-44,6969,$GNRMC,160346.000,A,$GNGGA,160347.000,3429.7267,N,11657.5588,W,2,14,0.66,868.0,M,-31.0,M,,*44\r,,*4A\r\u0001\r\n"2022-04-09 16:03:49
"||||||||||||-43,6969,$ACCEL,-1.11,7.44,-5.85,$ALT,865.58,-258.057267,N,11657.5588,W,2,14,0.66,868.0,M,-31.0,M,,*44\r,,*4A\r\u0001\r\n"2022-04-09 16:03:50
"||||||||||||-43,6969,$GNRMC,160347.000,A,3429.7267,N,15..4*$GNGGA,160348.000,3429.7268,N,11657.5587,W,2,14,0.66,867.9,M,-31.0,M,,*4D\r\r\n"2022-04-09 16:03:50
"||||||||||||-42,6969,$ACCEL,-1.11,7.43,-5.86,$ALT,865.54,-258.03\u0001\r\n"2022-04-09 16:03:51
"||||||||||||-43,6969,$GNRMC,160348.36680826$GNGGA,160349.000,3429.7268,N,11657.5587,W,2,14,0.66,867.9,M,-31.0,M,,*4C\r\r\n"2022-04-09 16:03:51
"||||||||||||-43,6969,$ACCEL,-1.11,7.45,-5.87,$ALT,865.57,-258.04\u0005R\r\n"2022-04-09 16:03:52
"||||||||||||-43,6969,$GNRMC,160349.000A715..0D$GNGGA,160350.000,3429.7268,N,11657.5587,W,2,14,0.66,867.9,M,-31.0,M,,*44\r,\u0001\r\n"2022-04-09 16:03:52
"||||||||||||-44,6969,$ACCEL,-1.11,7.45,-5.87,$ALT,865.58,-258.03\u0001\r\n"2022-04-09 16:03:52
"||||||||||||-44,6969,$GNRMC,160350.0009N.W20,$ALT,865.58,-25\r\n"2022-04-09 16:03:52
"||||||||||||-44,6969,$ACCEL,-1.11,7.46,-5.86,$ALT,865.55,-258.04\u0001\r\n"2022-04-09 16:03:53
"||||||||||||-43,6969,$GNGGA,160351.000,3429.7267,N,11657.5587,W,2,14,0.66,867.9,M,-31.0,M,,*4A\r\r\n"2022-04-09 16:03:53
"||||||||||||-47,6969,$ACCEL,-1.11,7.44,-5.86,$ALT,865.57,-258.042,14,0.66,867.9,M,-31.0,M,,*4A\r\r\n"2022-04-09 16:03:54
"||||||||||||-49,6969,$GNRMC,160351.000,.,5059,$GNGGA,160352.000,3429.7267,N,11657.5586,W,2,14,0.66,867.8,M,-31.0,M,,*49\r`\r\n"2022-04-09 16:03:54
"||||||||||||-53,6969,$ACCEL,-1.12,7.45,-5.86,$ALT,865.49,-258.013429.7267,N,11657.5586,W,2,14,0.66,867.8,M,-31.0,M,,*49\r`\r\n"2022-04-09 16:03:55
"||||||||||||-49,6969,$GNRMC,1603520475,442C$GNGGA,160353.000,3429.7267,N,11657.5586,W,2,14,0.66,867.7,M,-31.0,M,,*47\r\r\n"2022-04-09 16:03:55
"||||||||||||-49,6969,$ACCEL,-1.12,7.44,-5.85,$ALT,865.53,-258.04\u0001\r\n"2022-04-09 16:03:56
