"Feather LoRa RX Test!\r\n"2022-06-04 16:46:59
"LoRa radio init OK!\r\n"2022-06-04 16:46:59
"Set Freq to: 915.00\r\n"2022-06-04 16:46:59
"||||||||||||-54,6969,$GNGGA,164656.000,3520.8173,N,11748.4958,W,2,12,0.76,615.1,M,M\r\n"2022-06-04 16:47:00
"||||||||||||-57,6969,$ACCEL,-4.96,-0.48,8.54,$ALT,658.29,-198.472,12,0.76,615.1,M,M\r\n"2022-06-04 16:47:01
"||||||||||||-54,6969,,.37151626$GNGGA,164657.000,3520.8173,N,11748.4960,W,2,12,0.76,615.1,M,-29.4,M,,*4E\r\r\n"2022-06-04 16:47:01
"||||||||||||-61,6969,$ACCEL,-4.87,-0.52,8.73,$ALT,657.95,-198.3748.4960,W,2,12,0.76,615.1,M,-29.4,M,,*4E\r\r\n"2022-06-04 16:47:02
"||||||||||||-61,6969,$GNRMC,164657.000,A.,4050,$GNGGA,164658.000,3520.8171,N,11748.4958,W,2,12,0.76,615.1,M,-29.4,M,,*48\r\u0001\r\n"2022-06-04 16:47:02
"||||||||||||-57,6969,$ACCEL,-4.94,-0.47,8.59,$ALT,658.16,-198.43\u0001\r\n"2022-06-04 16:47:02
"||||||||||||-54,6969,$GNRMC,164658.0000N.,30,$ALT,658.16,-198.43\u0001\r\n"2022-06-04 16:47:02
"||||||||||||-49,6969,$ACCEL,-4.94,-0.47,8.59,$ALT,658.16,-198.43\u0001\r\n"2022-06-04 16:47:03
"||||||||||||-54,6969,$GNRMC,164700.000,A,3520819..6*$GNGGA,164701.000,3520.8171,N,11748.4956,W,2,12,0.76,615.0,M,-29.4,M,,*4A\r\u000f\r\n"2022-06-04 16:47:05
"||||||||||||-50,6969,$ACCEL,-5.38,-0.38,8.43,$ALT,657.79,-198.331.000,3520.8171,N,11748.4956,W,2,12,0.76,615.0,M,-29.4,M,,*4A\r\u000f\r\n"2022-06-04 16:47:06
"||||||||||||-50,6969,$GNRMC,164701.000,A,37750626$GNGGA,164702.000,3520.8169,N,11748.4959,W,2,12,0.76,615.0,M,-29..31150626$GNGGA,164703.00\r\n"2022-06-04 16:47:06
"||||||||||||-61,6969,$ACCEL,-5.38,-0.68,8.26,$ALT,658.49,-198.54\u0001\r\n"2022-06-04 16:47:07
"||||||||||||-58,6969,$GNRMC,164703.000,A564,,,,7$GNGGA,164704.000,3520.8160,N,11748.4959,W,2,12,0.76,614.9,M,-29.4,M,,*48\r\r\n"2022-06-04 16:47:07
"||||||||||||-56,6969,$ACCEL,-5.17,-0.54,7.50,$ALT,658.36,-198.500,3520.8160,N,11748.4959,W,2,12,0.76,614.9,M,-29.4,M,,*48\r\r\n"2022-06-04 16:47:08
"||||||||||||-54,6969,$GNRMC,164704.000,A,356795626$GNGGA,164705.000,3520.8157,N,11748.4961,W,2,12,0.76,614.9,M,-29.4,M,,*46\r\r\n"2022-06-04 16:47:08
"||||||||||||-54,6969,$ACCEL,-5.65,-0.47,8.23,$ALT,658.46,-198.53000,3520.8157,N,11748.4961,W,2,12,0.76,614.9,M,-29.4,M,,*46\r\r\n"2022-06-04 16:47:09
"||||||||||||-55,6969,$GNRMC,16470A819..0D$GNGGA,164706.000,3520.8154,N,11748.4963,W,2,12,0.76,615.0,M,-29.4,M,,*4C\r4,M,,*46\r\r\n"2022-06-04 16:47:09
"||||||||||||-52,6969,$ACCEL,-5.57,-0.25,8.03,$ALT,658.17,-198.448154,N,11748.4963,W,2,12,0.76,615.0,M,-29.4,M,,*4C\r4,M,,*46\r\r\n"2022-06-04 16:47:10
"||||||||||||-50,6969,$GNRMC,164706.000,A,3520.8154,N,11748.4963,W,0.0$GNGGA,164707.000,3520.8154,N,11748.4965,W,2,12,0.76,615.0,M,-29.4,M,,\r\n"2022-06-04 16:47:11
"||||||||||||-52,6969,$ACCEL,-5.64,-0.53,7.92,$ALT,658.23,-198.47\u0001\r\n"2022-06-04 16:47:11
"||||||||||||-53,6969,$GNRMC,164707.000,A,3520.81$GNGGA,164708.000,3520.8154,N,11748.4966,W,2,12,0.76,614.9,M,-29.4,M,,*4F\r\r\n"2022-06-04 16:47:12
"||||||||||||-57,6969,$ACCEL,-5.32,-0.42,8.28,$ALT,658.36,-198.510,3520.8154,N,11748.4966,W,2,12,0.76,614.9,M,-29.4,M,,*4F\r\r\n"2022-06-04 16:47:12
"||||||||||||-55,6969,$GNRMC,164708.000,A,3520.N.,3$GNGGA,164709.000,3520.8153,N,11748.4967,W,2,12,0.76,614.9,M,-29.4,M,,*48\r@B\u000f\r\n"2022-06-04 16:47:13
"||||||||||||-51,6969,$ACCEL,-5.22,-0.44,8.25,$ALT,658.39,-198.51000,3520.8153,N,11748.4967,W,2,12,0.76,614.9,M,-29.4,M,,*48\r@B\u000f\r\n"2022-06-04 16:47:13
"||||||||||||-50,6969,$GNRMC,164709.,11606$GNGGA,164710.000,3520.8152,N,11748.4968,W,2,12,0.76,614.9,M,-29.4,M,,*4E\r4,M,,*48\r@B\u000f\r\n"2022-06-04 16:47:14
"||||||||||||-47,6969,$ACCEL,-1.08,-0.34,9.83,$ALT,658.42,-198.52\u0001\r\n"2022-06-04 16:47:14
"||||||||||||-45,6969,$GNRMC,164710.000,A,32,8W3,,\r$GNGGA,164711.000,3520.8151,N,11748.4968,W,2,12,0.76,614.8,M,-29.4,M,,*4D\r@B\u000f\r\n"2022-06-04 16:47:15
"||||||||||||-47,6969,$ACCEL,-1.01,-0.35,9.90,$ALT,657.85,-198.35\u0001\r\n"2022-06-04 16:47:15
"||||||||||||-45,6969,$GNRMC,1641,119..6*$GNGGA,164712.000,3520.8150,N,11748.4969,W,2,12,0.76,614.7,M,-29.4,M,,*41\r\r\n"2022-06-04 16:47:16
"||||||||||||-45,6969,$ACCEL,-0.97,-0.41,9.84,$ALT,658.20,-198.46\u0001\r\n"2022-06-04 16:47:16
"||||||||||||-45,6969,$GNRMC,164712.0035794526$GNGGA,164713.000,3520.8151,N,11748.4969,W,2,12,0.76,614.7,M,-29.4,M,,*41\r\r\n"2022-06-04 16:47:17
"||||||||||||-45,6969,$ACCEL,5.20,-0.22,8.40,$ALT,657.62,-198.283520.8151,N,11748.4969,W,2,12,0.76,614.7,M,-29.4,M,,*41\r\r\n"2022-06-04 16:47:17
"||||||||||||-45,6969,$GNRMC,16470514,,,20$GNGGA,164714.000,3520.8152,N,11748.4966,W,2,12,0.76,614.7,M,-29.4,M,,*4A\r*41\r\r\n"2022-06-04 16:47:18
"||||||||||||-43,6969,$ACCEL,5.20,-0.22,8.40,$ALT,657.60,-198.27\r\n"2022-06-04 16:47:18
"||||||||||||-44,6969,$GNRMC,164714.000,A2,8W30,T,657.60,-198.27\r\n"2022-06-04 16:47:18
"||||||||||||-44,6969,$ACCEL,9.23,0.22,2.94,$ALT,657.61,-198.287\r\n"2022-06-04 16:47:19
"||||||||||||-47,6969,$GNGGA,164715.000,3520.8153,N,11748.4963,W,2,12,0.76,614.7,M,-29.4,M,,*4F\r\r\n"2022-06-04 16:47:19
"||||||||||||-48,6969,$ACCEL,9.94,0.03,0.34,$ALT,657.19,-198.16W,2,12,0.76,614.7,M,-29.4,M,,*4F\r\r\n"2022-06-04 16:47:20
"||||||||||||-47,6969,$GNRMC,164715.35730626$GNGGA,164716.000,3520.8153,N,11748.4961,W,2,12,0.76,614.8,M,-29.4,M,,*41\r\r\n"2022-06-04 16:47:20
"||||||||||||-48,6969,$ACCEL,9.83,0.06,-0.55,$ALT,657.71,-198.32B\u0001\r\n"2022-06-04 16:47:21
"||||||||||||-45,6969,$GNRMC,164716.000534,,,2E$GNGGA,164717.000,3520.8154,N,11748.4961,W,2,12,0.76,614.8,M,-29.4,M,,*47\r,\u0001\r\n"2022-06-04 16:47:21
"||||||||||||-47,6969,$ACCEL,9.17,0.14,-4.04,$ALT,657.95,-198.39B\u0001\r\n"2022-06-04 16:47:22
"||||||||||||-45,6969,$GNRMC,164717.0A8,4050D$GNGGA,164718.000,3520.8155,N,11748.4962,W,2,12,0.76,614.9,M,-4BM7,.,450,\r\n"2022-06-04 16:47:22
"||||||||||||-45,6969,$ACCEL,9.15,0.10,-3.88,$ALT,657.55,-198.26520.8155,N,11748.4962,W,2,12,0.76,614.9,M,-4BM7,.,450,\r\n"2022-06-04 16:47:22
"||||||||||||-44,6969,$ACCEL,9.47,0.02,0.66,$ALT,658.23,-198.49\r\n"2022-06-04 16:47:23
"||||||||||||-42,6969,$GNRMC,164719.000,A,3119..6*$GNGGA,164720.000,3520.8154,N,11748.4964,W,2,12,0.76,615.0,M,-29.4,M,,*4F\r @B\u000f\r\n"2022-06-04 16:47:24
"||||||||||||-42,6969,$ACCEL,9.47,0.02,0.66,$ALT,657.79,-198.34.000,3520.8154,N,11748.4964,W,2,12,0.76,615.0,M,-29.4,M,,*4F\r @B\u000f\r\n"2022-06-04 16:47:24
"||||||||||||-43,6969,$GNRMC,164720.00,..,50,ALT,657.79,-198.34.000,3520.8154,N,11748.4964,W,2,12,0.76,615.0,M,-29.4,M,,*4F\r @B\u000f\r\n"2022-06-04 16:47:24
"||||||||||||-44,6969,$ACCEL,8.57,-0.08,5.09,$ALT,657.96,-198.40\r\n"2022-06-04 16:47:24
"||||||||||||-43,6969,$GNGGA,164721.000,3520.8153,N,11748.4964,W,2,12,0.76,615.0,M,-29.4,M,,*49\r\r\n"2022-06-04 16:47:25
"||||||||||||-48,6969,$ACCEL,8.57,-0.11,5.07,$ALT,658.02,-198.41,2,12,0.76,615.0,M,-29.4,M,,*49\r\r\n"2022-06-04 16:47:25
"||||||||||||-47,6969,$GNRMC,164721.02,8W52B$GNGGA,164722.000,3520.8152,N,11748.4967,W,2,12,0.76,615.1,M,-29.4,M,,*49\r\r\n"2022-06-04 16:47:26
"||||||||||||-48,6969,$ACCEL,9.07,-0.09,3.79,$ALT,658.43,-198.53B\u0001\r\n"2022-06-04 16:47:26
"||||||||||||-48,6969,$GNRMC,164722.000,A,11..6*$GNGGA,164723.000,3520.8153,N,11748.4967,W,2,12,0.76,615.0,M,-29.4,M,,*48\r\r\n"2022-06-04 16:47:27
"||||||||||||-48,6969,$ACCEL,9.07,-0.09,3.79,$ALT,658.28,-198.490,3520.8153,N,11748.4967,W,2,12,0.76,615.0,M,-29.4,M,,*48\r\r\n"2022-06-04 16:47:27
"||||||||||||-49,6969,$GNRMC,164723.000,A,..W30,B\u0001\r\n"2022-06-04 16:47:27
"||||||||||||-44,6969,$ACCEL,7.94,0.19,-5.84,$ALT,658.51,-198.56\r\n"2022-06-04 16:47:28
"||||||||||||-43,6969,$GNGGA,164724.000,3520.8154,N,11748.4970,W,2,12,0.76,615.0,M,.4R7,.N.,54,$GNGGA,164725.000,3520.8152,N,11748.4970,W,2, \r\n"2022-06-04 16:47:28
"||||||||||||-48,6969,$ACCEL,5.96,0.16,-7.98,$ALT,658.79,-198.65,2,12,0.76,615.0,M,.4R7,.N.,54,$GNGGA,164725.000,3520.8152,N,11748.4970,W,2, \r\n"2022-06-04 16:47:29
"||||||||||||-48,6969,$GNRMC,164725.000,A,3520.24,,52E$GNGGA,164726.000,3520.8153,N,11748.4970,W,2,12,0.76,615.0,M,-29.4,M,,*4B\r48.4970,W,2, \r\n"2022-06-04 16:47:29
"||||||||||||-48,6969,$ACCEL,4.70,0.02,-8.71,$ALT,659.00,-198.71B\u0001\r\n"2022-06-04 16:47:30
"||||||||||||-50,6969,$GNRMC,16472602,8,,,,\r$GNGGA,164727.000,3520.8154,N,11748.4972,W,2,12,0.76,615.0,M,-29.4,M,,*4\r\n"2022-06-04 16:47:30
"||||||||||||-47,6969,$ACCEL,4.70,0.02,-8.71,$ALT,658.77,-198.65B\u0001\r\n"2022-06-04 16:47:31
"||||||||||||-47,6969,$ACCEL,4.36,0.07,-8.96,$ALT,658.74,-198.65B\u0001\r\n"2022-06-04 16:47:32
"||||||||||||-42,6969,$GNGGA,164729.000,3520.8153,N,11748.4971,W,2,12,0.76,614.8,M,-29.4,M,,*4C\r\r\n"2022-06-04 16:47:33
"||||||||||||-41,6969,$ACCEL,4.53,0.16,-8.90,$ALT,658.77,-198.65,2,12,0.76,614.8,M,-29.4,M,,*4C\r\r\n"2022-06-04 16:47:33
"||||||||||||-41,6969,$GNRMC,1647.35170626$GNGGA,164730.000,3520.8153,N,11748.4970,W,2,12,0.76,614.6,M,-29.4,M,,*4B\r\r\n"2022-06-04 16:47:34
"||||||||||||-42,6969,$ACCEL,4.53,0.16,-8.90,$ALT,658.64,-198.60.8153,N,11748.4970,W,2,12,0.76,614.6,M,-29.4,M,,*4B\r\r\n"2022-06-04 16:47:34
"||||||||||||-43,6969,$GNRMC,164730.00N.,54,,$ALT,658.64,-198.60.8153,N,11748.4970,W,2,12,0.76,614.6,M,-29.4,M,,*4B\r\r\n"2022-06-04 16:47:34
"||||||||||||-41,6969,$ACCEL,6.98,0.17,-7.08,$ALT,658.58,-198.60B\u0001\r\n"2022-06-04 16:47:35
"||||||||||||-50,6969,$ACCEL,7.07,0.14,-7.05,$ALT,657.82,-198.37\r\n"2022-06-04 16:47:36
"||||||||||||-47,6969,$GNRMC,164731.0,0$GNGGA,164732.000,3520.8152,N,11748.4970,W,2,12,0.76,614.2,M,-294R7,.,4,54,$GNGGA,164733.000,3520.815 \r\n"2022-06-04 16:47:36
"||||||||||||-54,6969,$ACCEL,6.96,0.04,-6.88,$ALT,656.16,-197.8652,N,11748.4970,W,2,12,0.76,614.2,M,-294R7,.,4,54,$GNGGA,164733.000,3520.815 \r\n"2022-06-04 16:47:37
"||||||||||||-51,6969,$GNRMC,164733.000,A,3117..6*$GNGGA,164734.000,3520.8150,N,11748.4971,W,2,12,0.76,614.2,M,-29.4,M,,*49\r733.000,3520.815 \r\n"2022-06-04 16:47:37
"||||||||||||-43,6969,$GNRMC,164735.000,1170.6*$GNGGA,164736.000,3520.8149,N,11748.4973,W,2,12,0.76,614.3,M,-29.4,M,,*40\r`\r\n"2022-06-04 16:47:39
"||||||||||||-47,6969,$ACCEL,7.17,0.11,-6.99,$ALT,657.36,-198.23B\u0001\r\n"2022-06-04 16:47:40
"||||||||||||-45,6969,$GNRMC,164736.000,A,3520.8149,N,11748.4973,W,0.00,355.65,0406,\r\n"2022-06-04 16:47:40
"||||||||||||-47,6969,$ACCEL,7.17,0.11,-6.99,$ALT,657.81,-198.37,W,0.00,355.65,0406,\r\n"2022-06-04 16:47:40
"||||||||||||-47,6969,$GNGGA,164737.000,3520.8148,N,11748.4974,W,2,12,0.76,614.4,M,-29.4,M,,*40\r\r\n"2022-06-04 16:47:41
"||||||||||||-45,6969,$ACCEL,7.16,0.09,-6.97,$ALT,657.30,-198.21,2,12,0.76,614.4,M,-29.4,M,,*40\r\r\n"2022-06-04 16:47:41
"||||||||||||-44,6969,$GNRMC,16473.34170626$GNGGA,164738.000,3520.8147,N,11748.4975,W,2,12,0.76,614.6,M,-29.4,M,,*43\r\r\n"2022-06-04 16:47:42
"||||||||||||-42,6969,$ACCEL,7.15,0.10,-6.95,$ALT,657.72,-198.340.8147,N,11748.4975,W,2,12,0.76,614.6,M,-29.4,M,,*43\r\r\n"2022-06-04 16:47:42
"||||||||||||-40,6969,$GNRMC,16478,11$GNGGA,164739.000,3520.8149,N,11748.4975,W,2,12,0.76,614.6,M,-29.4,M,,*4C\r,,*43\r\r\n"2022-06-04 16:47:42
"||||||||||||-44,6969,$ACCEL,7.15,0.11,-6.96,$ALT,657.50,-198.29B\u0001\r\n"2022-06-04 16:47:44
"||||||||||||-42,6969,$GNRMC,164739.000,A,3520.$GNGGA,164740.000,3520.8149,N,11748.4976,W,2,12,0.76,614.7,M,-29,G602,4,,,,\r$GNGGA,164741.000 \r\n"2022-06-04 16:47:44
"||||||||||||-45,6969,$ACCEL,7.15,0.11,-6.96,$ALT,656.51,-197.98,3520.8149,N,11748.4976,W,2,12,0.76,614.7,M,-29,G602,4,,,,\r$GNGGA,164741.000 \r\n"2022-06-04 16:47:44
"||||||||||||-45,6969,$GNRMC,164741.000,A,30N.W30,656.51,-197.98,3520.8149,N,11748.4976,W,2,12,0.76,614.7,M,-29,G602,4,,,,\r$GNGGA,164741.000 \r\n"2022-06-04 16:47:44
"||||||||||||-44,6969,$ACCEL,7.16,0.10,-6.96,$ALT,657.04,-198.14,3520.8149,N,11748.4976,W,2,12,0.76,614.7,M,-29,G602,4,,,,\r$GNGGA,164741.000 \r\n"2022-06-04 16:47:45
"||||||||||||-43,6969,$GNGGA,164742.000,3520.8150,N,11748.4977,W,2,12,0.76,614.6,M,-29.4,M,,*4A\r.76,614.7,M,-29,G602,4,,,,\r$GNGGA,164741.000 \r\n"2022-06-04 16:47:45
"||||||||||||-44,6969,$ACCEL,7.15,0.10,-6.97,$ALT,656.78,-198.07,2,12,0.76,614.6,M,-29.4,M,,*4A\r.76,614.7,M,-29,G602,4,,,,\r$GNGGA,164741.000 \r\n"2022-06-04 16:47:46
"||||||||||||-45,6969,$GNRMC,164742,117066*$GNGGA,164743.000,3520.8150,N,11748.4976,W,2,12,0.76,614.6,M,-29.4,M,,*4A\r4,,,,\r$GNGGA,164741.000 \r\n"2022-06-04 16:47:46
"||||||||||||-48,6969,$ACCEL,7.15,0.10,-6.97,$ALT,657.27,-198.210.8150,N,11748.4976,W,2,12,0.76,614.6,M,-29.4,M,,*4A\r4,,,,\r$GNGGA,164741.000 \r\n"2022-06-04 16:47:47
"||||||||||||-49,6969,$GNRMC,164743.000,A0N.,54,T,657.27,-198.210.8150,N,11748.4976,W,2,12,0.76,614.6,M,-29.4,M,,*4A\r4,,,,\r$GNGGA,164741.000 \r\n"2022-06-04 16:47:47
"||||||||||||-49,6969,$ACCEL,7.16,0.12,-6.95,$ALT,656.31,-197.92B\u0001\r\n"2022-06-04 16:47:47
"||||||||||||-47,6969,$ACCEL,7.16,0.09,-6.98,$ALT,656.73,-198.06B\u0001\r\n"2022-06-04 16:47:49
"||||||||||||-45,6969,$GNRMC,164744.000,A,3520.8151,N,11748.4978,W,0.$GNGGA,164745.000,3520.8151,N,11748.4979,W,2,12,0.76,614.7,M,-29.4,M,,* \r\n"2022-06-04 16:47:49
"||||||||||||-50,6969,$ACCEL,7.11,0.03,-7.01,$ALT,656.89,-198.10B\u0001\r\n"2022-06-04 16:47:51
"||||||||||||-48,6969,$GNRMC,164746.000,A,35796526$GNGGA,164747.000,3520.8151,N,11748.4979,W,2,12,0.76,614.9,M-,$105179852B$GNGGA,164748.000 \r\n"2022-06-04 16:47:51
"||||||||||||-54,6969,$ACCEL,7.11,0.03,-7.01,$ALT,657.10,-198.17000,3520.8151,N,11748.4979,W,2,12,0.76,614.9,M-,$105179852B$GNGGA,164748.000 \r\n"2022-06-04 16:47:51
"||||||||||||-52,6969,$GNRMC,164748.000,A,0N.,54,,657.10,-198.17000,3520.8151,N,11748.4979,W,2,12,0.76,614.9,M-,$105179852B$GNGGA,164748.000 \r\n"2022-06-04 16:47:51
"||||||||||||-53,6969,$ACCEL,7.04,0.11,-7.06,$ALT,657.54,-198.31\r\n"2022-06-04 16:47:52
"||||||||||||-53,6969,$GNGGA,164749.000,3520.8149,N,11748.4979,W,2,12,0.76,615.1,M,-29.4,M,,*41\r\r\n"2022-06-04 16:47:52
"||||||||||||-55,6969,$ACCEL,6.84,0.10,-7.22,$ALT,657.67,-198.35,2,12,0.76,615.1,M,-29.4,M,,*41\r\r\n"2022-06-04 16:47:53
"||||||||||||-48,6969,$GNRMC,164749.000,A,3520.8149,N,11748.4979,W,0.02,355.65,040622D$GNGGA,164750.000,3520.8150,N,11748.4979,W,2,12,0.76,6\r\n"2022-06-04 16:47:53
"||||||||||||-49,6969,$ACCEL,7.01,0.09,-7.16,$ALT,657.78,-198.39,W,0.02,355.65,040622D$GNGGA,164750.000,3520.8150,N,11748.4979,W,2,12,0.76,6\r\n"2022-06-04 16:47:54
"||||||||||||-48,6969,$GNRMC,165A819050D$GNGGA,164751.000,3520.8151,N,11748.4979,W,2,12,0.76,615.0,M,-29.4,M,,*40\rN,11748.4979,W,2,12,0.76,6\r\n"2022-06-04 16:47:54
"||||||||||||-47,6969,$ACCEL,6.95,0.09,-7.15,$ALT,658.24,-198.52151,N,11748.4979,W,2,12,0.76,615.0,M,-29.4,M,,*40\rN,11748.4979,W,2,12,0.76,6\r\n"2022-06-04 16:47:54
"||||||||||||-47,6969,$GNRMC,164751.00N.,54,,$ALT,658.24,-198\r\n"2022-06-04 16:47:54
"||||||||||||-47,6969,$ACCEL,6.95,0.09,-7.15,$ALT,657.77,-198.38B\u0001\r\n"2022-06-04 16:47:55
"||||||||||||-47,6969,$GNGGA,164752.000,3520.8153,N,11748.4979,W,2,12,0.76,615.0,M,-29.4,M,,*41\r\r\n"2022-06-04 16:47:55
"||||||||||||-47,6969,$ACCEL,6.95,0.09,-7.15,$ALT,657.65,-198.35,2,12,0.76,615.0,M,-29.4,M,,*41\r\r\n"2022-06-04 16:47:56
"||||||||||||-47,6969,$GNRMC,164752.000,A$GNGGA,164753.000,3520.8154,N,11748.4979,W,2,12,0.76,615.0,M,-29.4,M,,*47\r\r\n"2022-06-04 16:47:56
"||||||||||||-42,6969,$ACCEL,7.02,0.11,-7.08,$ALT,658.12,-198.49B\u0001\r\n"2022-06-04 16:47:57
"||||||||||||-41,6969,$GNRMC,164753.000,A,3520.8154,N,11748.497,,,,\r$GNGGA,164754.000,3520.8154,N,11748.4979,W,2,12,0.76,615.1,M,-29.4,M,,*4\r\n"2022-06-04 16:47:57
"||||||||||||-48,6969,$ACCEL,6.98,0.11,-7.12,$ALT,657.62,-198.34B\u0001\r\n"2022-06-04 16:47:59
"||||||||||||-47,6969,$GNRMC,1644A819..6*$GNGGA,164755.000,3520.8155,N,11748.4980,W,2,12,0.76,614.9,M,-29,G10554,,,20$GNGGA,164756.000,3520.\r\n"2022-06-04 16:47:59
"||||||||||||-43,6969,$ACCEL,6.97,0.09,-7.14,$ALT,657.15,-198.208155,N,11748.4980,W,2,12,0.76,614.9,M,-29,G10554,,,20$GNGGA,164756.000,3520.\r\n"2022-06-04 16:48:00
"||||||||||||-41,6969,$GNRMC,164756.000,A,564,,,,\r$GNGGA,164757.000,3520.8157,N,11748.4983,W,2,11,0.79,615.1,M,-29.4,M,,*48\r164756.000,3520.\r\n"2022-06-04 16:48:00
"||||||||||||-44,6969,$ACCEL,6.97,0.10,-7.10,$ALT,656.98,-198.15000,3520.8157,N,11748.4983,W,2,11,0.79,615.1,M,-29.4,M,,*48\r164756.000,3520.\r\n"2022-06-04 16:48:02
"||||||||||||-49,6969,$GNRMC,164757.0A.,4050D$GNGGA,164758.000,3520.8158,N,11748.4984,W,2,12,0.76,615.1,M,-29.4,M,,*43\r,*48\r164756.000,3520.\r\n"2022-06-04 16:48:02
"||||||||||||-42,6969,$ACCEL,6.97,0.10,-7.10,$ALT,657.35,-198.26520.8158,N,11748.4984,W,2,12,0.76,615.1,M,-29.4,M,,*43\r,*48\r164756.000,3520.\r\n"2022-06-04 16:48:02
"||||||||||||-42,6969,$GNRMC,1647500N.,54,10,$ALT,657.35,-198.26520.8158,N,11748.4984,W,2,12,0.76,615.1,M,-29.4,M,,*43\r,*48\r164756.000,3520.\r\n"2022-06-04 16:48:02
"||||||||||||-43,6969,$ACCEL,6.96,0.10,-7.14,$ALT,657.00,-198.16520.8158,N,11748.4984,W,2,12,0.76,615.1,M,-29.4,M,,*43\r,*48\r164756.000,3520.\r\n"2022-06-04 16:48:03
"||||||||||||-42,6969,$GNRMC,164759.000,A,3520.8161,N,11748.4984,W,0.02,35$GNGGA,164800.000,3520.8159,N,11748.4983,W,2,12,0.76,615.3,M,-29.4 \r\n"2022-06-04 16:48:04
"||||||||||||-43,6969,$ACCEL,6.99,0.09,-7.15,$ALT,658.08,-198.50,W,0.02,35$GNGGA,164800.000,3520.8159,N,11748.4983,W,2,12,0.76,615.3,M,-29.4 \r\n"2022-06-04 16:48:05
"||||||||||||-43,6969,$GNRMC,164800.000,A,3520.811$GNGGA,164801.000,3520.8158,N,11748.4981,W,2,12,0.76,615.5,M,-29.4,M,,*41\r76,615.3,M,-29.4 \r\n"2022-06-04 16:48:05
"||||||||||||-44,6969,$ACCEL,6.95,0.09,-7.14,$ALT,658.25,-198.55\r\n"2022-06-04 16:48:06
"||||||||||||-43,6969,$GNRMC,164801.0000,8W30$GNGGA,164802.000,3520.8158,N,11748.4980,W,2,12,0.76,615.6,M,-29.*N400N.W30,,\u0001\r\n"2022-06-04 16:48:06
"||||||||||||-45,6969,$ACCEL,7.01,0.11,-7.13,$ALT,658.19,-198.53520.8158,N,11748.4980,W,2,12,0.76,615.6,M,-29.*N400N.W30,,\u0001\r\n"2022-06-04 16:48:07
"||||||||||||-44,6969,$ACCEL,6.96,0.09,-7.17,$ALT,658.51,-198.63B\u0001\r\n"2022-06-04 16:48:08
"||||||||||||-47,6969,$GNRMC,164803.000,A,3819050D$GNGGA,164804.000,3520.8156,N,11748.4979,W,2,12,0.76,615.7,M,-29.4,M,,*4F\r @B\u000f\r\n"2022-06-04 16:48:08
"||||||||||||-43,6969,$ACCEL,6.97,0.12,-7.13,$ALT,657.16,-198.21B\u0001\r\n"2022-06-04 16:48:09
"||||||||||||-43,6969,$GNRMC,16480.35790626$GNGGA,164805.000,3520.8155,N,11748.4979,W,2,12,0.76,615.7,M,-29.4,M,,*4D\r\r\n"2022-06-04 16:48:09
"||||||||||||-45,6969,$ACCEL,6.98,0.11,-7.11,$ALT,657.34,-198.270.8155,N,11748.4979,W,2,12,0.76,615.7,M,-29.4,M,,*4D\r\r\n"2022-06-04 16:48:10
"||||||||||||-44,6969,$GNRMC,1648002,8,,,,\r$GNGGA,164806.000,3520.8154,N,11748.4978,W,2,12,0.76,615.8,M,-29.4,M,,*41\r\r\n"2022-06-04 16:48:10
"||||||||||||-44,6969,$ACCEL,7.04,0.09,-7.15,$ALT,657.49,-198.31B\u0001\r\n"2022-06-04 16:48:11
"||||||||||||-42,6969,$GNRMC,164806.0035170626$GNGGA,164807.000,3520.8153,N,11748.4976,W,2,12,0.76,616.0,M,-29.4,M,,*42\r\r\n"2022-06-04 16:48:11
"||||||||||||-44,6969,$ACCEL,7.00,0.10,-7.14,$ALT,657.34,-198.27B\u0001\r\n"2022-06-04 16:48:12
"||||||||||||-43,6969,$GNRMC,164807.000,A,3819..6*$GNGGA,164808.000,3520.8153,N,11748.4976,W,2,12,0.76,616.0,M,-29.4,M,,*4D\r @B\u000f\r\n"2022-06-04 16:48:12
"||||||||||||-43,6969,$ACCEL,7.05,0.09,-7.13,$ALT,657.61,-198.36B\u0001\r\n"2022-06-04 16:48:13
"||||||||||||-43,6969,$GNRMC,164808.0534,3529$GNGGA,164809.000,3520.8154,N,11748.4977,W,2,12,0.76,616.0,M,-29.4,M,,*4A\r\r\n"2022-06-04 16:48:13
"||||||||||||-45,6969,$ACCEL,7.01,0.11,-7.13,$ALT,657.47,-198.31520.8154,N,11748.4977,W,2,12,0.76,616.0,M,-29.4,M,,*4A\r\r\n"2022-06-04 16:48:14
"||||||||||||-47,6969,$GNRMC,164809.0,117..6*$GNGGA,164810.000,3520.8153,N,11748.4976,W,2,12,0.76,616.0,M,-29.4,M,,*44\r\r\n"2022-06-04 16:48:14
"||||||||||||-47,6969,$ACCEL,7.03,0.10,-7.11,$ALT,658.08,-198.50B\u0001\r\n"2022-06-04 16:48:15
"||||||||||||-51,6969,$GNRMC,164810.00031170626$GNGGA,164811.000,3520.8153,N,11748.4976,W,2,12,0.76,616.1,M,-29.4,M,,*44\r`\r\n"2022-06-04 16:48:15
"||||||||||||-47,6969,$ACCEL,7.02,0.11,-7.08,$ALT,658.04,-198.50B\u0001\r\n"2022-06-04 16:48:16
"||||||||||||-45,6969,$GNRMC,16481102,8W30,\r$GNGGA,164812.000,3520.8153,N,11748.4976,W,2,12,0.76,616.2,M,-29.4,M,,*44\r\r\n"2022-06-04 16:48:16
"||||||||||||-53,6969,$ACCEL,7.01,0.09,-7.13,$ALT,658.85,-198.7520.8153,N,11748.4976,W,2,12,0.76,616.2,M,-29.4,M,,*44\r\r\n"2022-06-04 16:48:17
"||||||||||||-50,6969,$GNRMC,164812.A819..6D$GNGGA,164813.000,3520.8153,N,11748.4976,W,2,12,0.76,616.3,M,-29.4,M,,*44\r\r\n"2022-06-04 16:48:17
"||||||||||||-60,6969,$ACCEL,7.04,0.10,-7.11,$ALT,658.35,-198.5920.8153,N,11748.4976,W,2,12,0.76,616.3,M,-29.4,M,,*44\r\r\n"2022-06-04 16:48:18
"||||||||||||-54,6969,$GNRMC,164813.00053461521$GNGGA,164814.000,3520.8153,N,11748.4976,W,2,12,0.76,616.5,M,-29.4,M,,*45\r`\r\n"2022-06-04 16:48:18
"||||||||||||-54,6969,$ACCEL,7.03,0.11,-7.13,$ALT,658.90,-198.77,3520.8153,N,11748.4976,W,2,12,0.76,616.5,M,-29.4,M,,*45\r`\r\n"2022-06-04 16:48:19
"||||||||||||-53,6969,$GNRMC,164814.0A.,4050D$GNGGA,164815.000,3520.8154,N,11748.4977,W,2,12,0.76,616.6,M,-29.4,M,,*41\r\r\n"2022-06-04 16:48:19
"||||||||||||-54,6969,$ACCEL,6.97,0.08,-7.12,$ALT,658.73,-198.72520.8154,N,11748.4977,W,2,12,0.76,616.6,M,-29.4,M,,*41\r\r\n"2022-06-04 16:48:20
"||||||||||||-57,6969,$GNRMC,164815.035770626$GNGGA,164816.000,3520.8153,N,11748.4976,W,2,12,0.76,616.7,M,-29.4,M,,*45\r\r\n"2022-06-04 16:48:20
"||||||||||||-52,6969,$ACCEL,6.96,0.09,-7.09,$ALT,658.65,-198.69520.8153,N,11748.4976,W,2,12,0.76,616.7,M,-29.4,M,,*45\r\r\n"2022-06-04 16:48:21
"||||||||||||-54,6969,$GNRMC,164816.00534,2527$GNGGA,164817.000,3520.8154,N,11748.4975,W,2,12,0.76,616.7,M,-29.4,M,,*40\r\r\n"2022-06-04 16:48:21
"||||||||||||-45,6969,$ACCEL,6.98,0.11,-7.13,$ALT,658.31,-198.593520.8154,N,11748.4975,W,2,12,0.76,616.7,M,-29.4,M,,*40\r\r\n"2022-06-04 16:48:22
"||||||||||||-45,6969,$GNRMC,164817.00,1170.6*$GNGGA,164818.000,3520.8154,N,11748.4975,W,2,12,0.76,616.7,M,-29.4,M,,*4F\r\r\n"2022-06-04 16:48:22
"||||||||||||-48,6969,$ACCEL,7.01,0.08,-7.13,$ALT,658.31,-198.59\r\n"2022-06-04 16:48:23
"||||||||||||-48,6969,$GNRMC,164818.000544,,52D$GNGGA,164819.000,3520.8153,N,11748.4974,W,2,12,0.76,616.8,M,-29.4,M,,*47\r`\r\n"2022-06-04 16:48:23
"||||||||||||-50,6969,$ACCEL,7.01,0.11,-7.13,$ALT,658.86,-198.76,3520.8153,N,11748.4974,W,2,12,0.76,616.8,M,-29.4,M,,*47\r`\r\n"2022-06-04 16:48:24
"||||||||||||-49,6969,$GNRMC,164819.05374352B$GNGGA,164820.000,3520.8153,N,11748.4974,W,2,12,0.76,616.8,M,-29.4,M,,*4D\r7\r`\r\n"2022-06-04 16:48:24
"||||||||||||-49,6969,$ACCEL,7.03,0.12,-7.07,$ALT,659.28,-198.89520.8153,N,11748.4974,W,2,12,0.76,616.8,M,-29.4,M,,*4D\r7\r`\r\n"2022-06-04 16:48:25
"||||||||||||-45,6969,$GNRMC,164820.0534,,,,\r$GNGGA,164821.000,3520.8153,N,11748.4974,W,2,12,0.76,616.8,M,-29.4,M,,*4C\r7\r`\r\n"2022-06-04 16:48:25
"||||||||||||-45,6969,$ACCEL,7.03,0.12,-7.07,$ALT,659.18,-198.86B\u0001\r\n"2022-06-04 16:48:25
"||||||||||||-47,6969,$GNRMC,16482100,8W30,7,$ALT,659.18,-198.86B\u0001\r\n"2022-06-04 16:48:25
"||||||||||||-48,6969,$ACCEL,7.27,0.14,-6.91,$ALT,658.91,-198.78B\u0001\r\n"2022-06-04 16:48:26
"||||||||||||-44,6969,$ACCEL,7.04,0.14,-7.05,$ALT,658.97,-198.80\r\n"2022-06-04 16:48:27
"||||||||||||-44,6969,$GNRMC,164822.0524,,,,5$GNGGA,164823.000,3520.8151,N,11748.4971,W,2,12,0.76,617.0,M,-29.4,M,,*40\r\r\n"2022-06-04 16:48:27
"||||||||||||-47,6969,$ACCEL,7.00,0.12,-7.07,$ALT,659.03,-198.81520.8151,N,11748.4971,W,2,12,0.76,617.0,M,-29.4,M,,*40\r\r\n"2022-06-04 16:48:28
"||||||||||||-49,6969,$GNRMC,164823.00A.,4050D$GNGGA,164824.000,3520.8151,N,11748.4970,W,2,12,0.76,617.1,M,-29.4,M,,*47\r\r\n"2022-06-04 16:48:28
"||||||||||||-50,6969,$ACCEL,7.02,0.11,-7.12,$ALT,658.09,-198.533520.8151,N,11748.4970,W,2,12,0.76,617.1,M,-29.4,M,,*47\r\r\n"2022-06-04 16:48:29
"||||||||||||-53,6969,$GNRMC,164824.00514,,,24$GNGGA,164825.000,3520.8151,N,11748.4969,W,2,12,0.76,617.1,M,-29,$105149252B$GNGGA,164826.000,\r\n"2022-06-04 16:48:30
"||||||||||||-51,6969,$ACCEL,7.00,0.19,-7.10,$ALT,658.69,-198.71B\u0001\r\n"2022-06-04 16:48:30
"||||||||||||-52,6969,$GNRMC,164826.000,A.,4050D$GNGGA,164827.000,3520.8152,N,11748.4968,W,2,12,0.76,617.1,M,-29.4,M,,*4E\r\r\n"2022-06-04 16:48:31
"||||||||||||-53,6969,$ACCEL,7.00,0.13,-7.12,$ALT,658.99,-198.810,3520.8152,N,11748.4968,W,2,12,0.76,617.1,M,-29.4,M,,*4E\r\r\n"2022-06-04 16:48:31
"||||||||||||-60,6969,$GNRMC,164827.005278352A$GNGGA,164828.000,3520.8152,N,11748.4968,W,2,12,0.76,617.1,M,-29.4,M,,*41\rE\r\r\n"2022-06-04 16:48:32
"||||||||||||-50,6969,$ACCEL,7.01,0.13,-7.11,$ALT,658.88,-198.783520.8152,N,11748.4968,W,2,12,0.76,617.1,M,-29.4,M,,*41\rE\r\r\n"2022-06-04 16:48:32
"||||||||||||-52,6969,$GNRMC,164828.035784626$GNGGA,164829.000,3520.8152,N,11748.4968,W,2,12,0.76,617.1,M,-29.4,M,,*40\r\rE\r\r\n"2022-06-04 16:48:33
"||||||||||||-54,6969,$ACCEL,7.01,0.13,-7.12,$ALT,658.87,-198.77520.8152,N,11748.4968,W,2,12,0.76,617.1,M,-29.4,M,,*40\r\rE\r\r\n"2022-06-04 16:48:34
"||||||||||||-50,6969,$GNRMC,164829.000,A,3520.8152,N,11748.4968,W,0.02,3$GNGGA,164830.000,3520.8154,N,11748.4968,W,2,12,0.76,617.1,M,-29.4, \r\n"2022-06-04 16:48:34
"||||||||||||-55,6969,$ACCEL,7.02,0.12,-7.05,$ALT,658.78,-198.75B\u0001\r\n"2022-06-04 16:48:35
"||||||||||||-50,6969,$GNRMC,164830.000,A,3520.8$GNGGA,164831.000,3520.8154,N,11748.4968,W,2,12,0.76,617.1,M,-29.4,M,,*4F\r\r\n"2022-06-04 16:48:35
"||||||||||||-61,6969,$ACCEL,7.03,0.12,-7.08,$ALT,655.34,-197.700,3520.8154,N,11748.4968,W,2,12,0.76,617.1,M,-29.4,M,,*4F\r\r\n"2022-06-04 16:48:36
"||||||||||||-60,6969,$GNRMC,164831.000,A,3544$GNGGA,164832.000,3520.8155,N,11748.4967,W,2,12,0.76,617.1,M,-29.4,M,,*42\r\r\n"2022-06-04 16:48:36
"||||||||||||-56,6969,$ACCEL,8.05,0.10,-5.87,$ALT,658.12,-198.55B\u0001\r\n"2022-06-04 16:48:37
"||||||||||||-56,6969,$GNRMC,164832.000,A,554$GNGGA,164833.000,3520.8158,N,11748.4967,W,2,12,0.76,617.0,M,-29.4,M,,*4F\r\r\n"2022-06-04 16:48:37
"||||||||||||-55,6969,$ACCEL,8.16,0.15,-5.77,$ALT,658.70,-198.72B\u0001\r\n"2022-06-04 16:48:38
"||||||||||||-56,6969,$GNRMC,164833.000,A,352,4,,,,\r$GNGGA,164834.000,3520.8159,N,11748.4967,W,2,12,0.76,617.0,M,-29.4,M,,*49\r\r\n"2022-06-04 16:48:38
"||||||||||||-55,6969,$ACCEL,8.49,0.17,-5.16,$ALT,658.40,-198.634.000,3520.8159,N,11748.4967,W,2,12,0.76,617.0,M,-29.4,M,,*49\r\r\n"2022-06-04 16:48:39
"||||||||||||-53,6969,$GNRMC,1644814050D$GNGGA,164835.000,3520.8160,N,11748.4968,W,2,12,0.76,617.0,M,-29.4,M,,*4D\r\r\n"2022-06-04 16:48:39
"||||||||||||-53,6969,$ACCEL,9.42,0.12,-3.13,$ALT,658.67,-198.71160,N,11748.4968,W,2,12,0.76,617.0,M,-29.4,M,,*4D\r\r\n"2022-06-04 16:48:40
"||||||||||||-53,6969,$GNRMC,164835.003660.6*$GNGGA,164836.000,3520.8160,N,11748.4968,W,2,11,0.79,617.0,M,-29.4,M,,*42\r\r\n"2022-06-04 16:48:40
"||||||||||||-49,6969,$ACCEL,9.62,-0.02,2.41,$ALT,658.37,-198.62\r\n"2022-06-04 16:48:41
"||||||||||||-49,6969,$GNRMC,164836.002,8W52B$GNGGA,164837.000,3520.8159,N,11748.4968,W,2,12,0.76,617.0,M,-29.4,M,,*45\r\r\n"2022-06-04 16:48:41
"||||||||||||-49,6969,$ACCEL,8.25,-0.14,5.69,$ALT,658.36,-198.62520.8159,N,11748.4968,W,2,12,0.76,617.0,M,-29.4,M,,*45\r\r\n"2022-06-04 16:48:42
"||||||||||||-50,6969,$GNRMC,164837.000A8,404,$GNGGA,164838.000,3520.8157,N,11748.4968,W,2,12,0.76,617.0,M,-29.4,M,,*44\r\r\n"2022-06-04 16:48:42
"||||||||||||-47,6969,$ACCEL,7.95,-0.10,5.81,$ALT,658.29,-198.61B\u0001\r\n"2022-06-04 16:48:43
"||||||||||||-48,6969,$GNRMC,164838.003578062$GNGGA,164839.000,3520.8155,N,11748.4967,W,2,12,0.76,617.0,M,-29.4,M,,*48\r\r\n"2022-06-04 16:48:43
"||||||||||||-48,6969,$ACCEL,3.77,-0.20,9.11,$ALT,657.85,-198.47520.8155,N,11748.4967,W,2,12,0.76,617.0,M,-29.4,M,,*48\r\r\n"2022-06-04 16:48:44
"||||||||||||-49,6969,$GNRMC,164839.000,,116066$GNGGA,164840.000,3520.8153,N,11748.4967,W,2,12,0.76,617.0,M,-29.4,M,,*40\r`\r\n"2022-06-04 16:48:44
"||||||||||||-45,6969,$ACCEL,3.59,-0.23,9.31,$ALT,658.12,-198.56,3520.8153,N,11748.4967,W,2,12,0.76,617.0,M,-29.4,M,,*40\r`\r\n"2022-06-04 16:48:45
"||||||||||||-47,6969,$GNRMC,164840.00,1160626$GNGGA,164841.000,3520.8151,N,11748.4966,W,2,12,0.76,617.1,M,-29.4,M,,*43\r\r`\r\n"2022-06-04 16:48:45
"||||||||||||-58,6969,$ACCEL,3.61,-0.23,9.31,$ALT,658.56,-198.693520.8151,N,11748.4966,W,2,12,0.76,617.1,M,-29.4,M,,*43\r\r`\r\n"2022-06-04 16:48:46
"||||||||||||-64,6969,$GNRMC,164841.00,119..6*$GNGGA,164842.000,3520.8148,N,11748.4966,W,2,12,0.76,617.0,M,-29.4,M,,*49\r\r`\r\n"2022-06-04 16:48:46
"||||||||||||-64,6969,$ACCEL,3.56,-0.23,9.30,$ALT,658.41,-198.653520.8148,N,11748.4966,W,2,12,0.76,617.0,M,-29.4,M,,*49\r\r`\r\n"2022-06-04 16:48:47
"||||||||||||-67,6969,$GNRMC,164842.00,116062*$GNGGA,164843.000,3520.8147,N,11748.4966,W,2,12,0.76,617.0,M,-29.4,M,,*47\r\r`\r\n"2022-06-04 16:48:47
"||||||||||||-58,6969,$ACCEL,3.62,-0.24,9.32,$ALT,658.12,-198.56B\u0001\r\n"2022-06-04 16:48:48
"||||||||||||-59,6969,$GNRMC,16484.34761520$GNGGA,164844.000,3520.8146,N,11748.4967,W,2,12,0.76,616.9,M,-29.4,M,,*48\r\r\n"2022-06-04 16:48:48
"||||||||||||-57,6969,$ACCEL,3.72,-0.23,9.22,$ALT,658.19,-198.580.8146,N,11748.4967,W,2,12,0.76,616.9,M,-29.4,M,,*48\r\r\n"2022-06-04 16:48:49
"||||||||||||-54,6969,$GNRMC,164844.0034160626$GNGGA,164845.000,3520.8145,N,11748.4968,W,2,12,0.76,616.9,M,-29.4,M,,*45\r\r\n"2022-06-04 16:48:49
"||||||||||||-48,6969,$ACCEL,3.78,-0.26,9.27,$ALT,658.66,-198.72\r\n"2022-06-04 16:48:50
"||||||||||||-49,6969,$GNRMC,164845.00A819.50D$GNGGA,164846.000,3520.8146,N,11748.4968,W,2,12,0.76,616.9,M,-29.4,M,,*45\r\r\n"2022-06-04 16:48:50
"||||||||||||-51,6969,$ACCEL,3.68,-0.32,9.23,$ALT,658.84,-198.773520.8146,N,11748.4968,W,2,12,0.76,616.9,M,-29.4,M,,*45\r\r\n"2022-06-04 16:48:51
"||||||||||||-50,6969,$GNRMC,164846054782529$GNGGA,164847.000,3520.8147,N,11748.4969,W,2,12,0.76,616.9,M,-29.4,M,,*44\r5\r\r\n"2022-06-04 16:48:51
"||||||||||||-52,6969,$ACCEL,3.74,-0.43,9.21,$ALT,659.03,-198.84B\u0001\r\n"2022-06-04 16:48:51
"||||||||||||-52,6969,$GNRMC,164847.A814050D$GNGGA,164848.000,3520.8149,N,11748.4969,W,2,12,0.76,616.9,M,-29.4,M,,*45\r\r\n"2022-06-04 16:48:52
"||||||||||||-63,6969,$ACCEL,3.70,-0.20,9.31,$ALT,599.15,-180.6120.8149,N,11748.4969,W,2,12,0.76,616.9,M,-29.4,M,,*45\r\r\n"2022-06-04 16:48:52
"||||||||||||-83,6969,$GNRMC,164848.000A814050D$GNGGA,164849.000,3520.8150,N,11748.4970,W,2,12,0.76,616.9,M,-29.4,M,,*44\r`\r\n"2022-06-04 16:48:53
"||||||||||||-57,6969,$ACCEL,3.70,-0.20,9.31,$ALT,658.38,-198.64\r\n"2022-06-04 16:48:53
"||||||||||||-60,6969,$GNRMC,164849.000N.,30,$ALT,658.38,-198.64\r\n"2022-06-04 16:48:53
"||||||||||||-59,6969,$ACCEL,3.84,-0.18,9.20,$ALT,659.31,-198.93\r\n"2022-06-04 16:48:54
"||||||||||||-65,6969,$GNGGA,164850.000,3520.8149,N,11748.4971,W,2,12,0.76,616.9,M,-29.4,M,,*45\r\r\n"2022-06-04 16:48:54
"||||||||||||-66,6969,$ACCEL,4.53,-0.19,8.89,$ALT,659.33,-198.93,2,12,0.76,616.9,M,-29.4,M,,*45\r\r\n"2022-06-04 16:48:55
"||||||||||||-66,6969,$GNRMC,164850.02,8W,,,\r$GNGGA,164851.000,3520.8150,N,11748.4973,W,2,12,0.76,616.9,M,-29.4,M,,*4E\r\r\n"2022-06-04 16:48:55
"||||||||||||-64,6969,$ACCEL,4.53,-0.19,8.89,$ALT,658.70,-198.73B\u0001\r\n"2022-06-04 16:48:55
"||||||||||||-65,6969,$GNRMC,164851.000N.,54,\r\n"2022-06-04 16:48:55
"||||||||||||-56,6969,$ACCEL,4.69,-0.16,8.87,$ALT,659.08,-198.86\r\n"2022-06-04 16:48:56
"||||||||||||-56,6969,$GNGGA,164852.000,3520.8152,N,11748.4974,W,2,12,0.76,616.9,M,-29.4,M,,*48\r\r\n"2022-06-04 16:48:56
"||||||||||||-54,6969,$ACCEL,4.69,-0.16,8.87,$ALT,659.03,-198.84B\u0001\r\n"2022-06-04 16:48:57
"||||||||||||-51,6969,$GNRMC,16485202,8W3,,\r$GNGGA,164853.000,3520.8153,N,11748.4973,W,2,12,0.76,616.8,M9*N400N8W30,\r\n"2022-06-04 16:48:57
"||||||||||||-54,6969,$ACCEL,4.63,-0.17,8.85,$ALT,658.79,-198.7720.8153,N,11748.4973,W,2,12,0.76,616.8,M9*N400N8W30,\r\n"2022-06-04 16:48:58
"||||||||||||-52,6969,$ACCEL,4.64,-0.17,8.82,$ALT,659.34,-198.93\r\n"2022-06-04 16:48:59
"||||||||||||-54,6969,$GNRMC,164854.000,A,31171626$GNGGA,164855.000,3520.8149,N,11748.4968,W,2,12,0.76,616.8,M,-29.4,M,,*49\r \r\n"2022-06-04 16:48:59
"||||||||||||-53,6969,$ACCEL,4.65,-0.16,8.82,$ALT,658.99,-198.82000,3520.8149,N,11748.4968,W,2,12,0.76,616.8,M,-29.4,M,,*49\r \r\n"2022-06-04 16:48:59
"||||||||||||-53,6969,$$GNGGA,164856.000,3520.8150,N,11748.4966,W,2,12,0.76,616.8,M,-29.4,M,,*4C\r]K\r\n"2022-06-04 16:48:59
"||||||||||||-54,6969,$ACCEL,4.68,-0.15,8.80,$ALT,659.15,-198.88B\u0001\r\n"2022-06-04 16:49:00
"||||||||||||-56,6969,$GNRMC,164856.00035768626$GNGGA,164857.000,3520.8147,N,11748.4965,W,2,11,0.79,616.9,M,-29.4,M,,*45\r`\r\n"2022-06-04 16:49:00
"||||||||||||-47,6969,$ACCEL,4.68,-0.15,8.80,$ALT,658.99,-198.82,3520.8147,N,11748.4965,W,2,11,0.79,616.9,M,-29.4,M,,*45\r`\r\n"2022-06-04 16:49:01
"||||||||||||-47,6969,$GNRMC,164857.000,0N.,30,LT,658.99,-198.82,3520.8147,N,11748.4965,W,2,11,0.79,616.9,M,-29.4,M,,*45\r`\r\n"2022-06-04 16:49:01
"||||||||||||-50,6969,$ACCEL,4.72,-0.18,8.78,$ALT,658.76,-198.75\r\n"2022-06-04 16:49:01
"||||||||||||-50,6969,$GNGGA,164858.000,3520.8146,N,11748.4963,W,2,11,0.79,616.9,M,-29.4,M,,*4D\r\r\n"2022-06-04 16:49:02
"||||||||||||-51,6969,$ACCEL,4.72,-0.16,8.78,$ALT,659.08,-198.86,2,11,0.79,616.9,M,-29.4,M,,*4D\r\r\n"2022-06-04 16:49:02
"||||||||||||-48,6969,$GNRMC,164858.000,A,2,8W,,,\r$GNGGA,164859.000,3520.8146,N,11748.4965,W,2,10,0.82,616.8,M,-29.4,M,,*4E\r \r\n"2022-06-04 16:49:03
"||||||||||||-51,6969,$ACCEL,4.70,-0.19,8.79,$ALT,658.82,-198.79B\u0001\r\n"2022-06-04 16:49:03
"||||||||||||-51,6969,$GNRMC,164859.A819050D$GNGGA,164900.000,3520.8146,N,11748.4967,W,2,10,0.82,616.8,M,-29.4,M,,*41\r\r\n"2022-06-04 16:49:04
"||||||||||||-52,6969,$ACCEL,4.75,-0.20,8.79,$ALT,659.11,-198.8820.8146,N,11748.4967,W,2,10,0.82,616.8,M,-29.4,M,,*41\r\r\n"2022-06-04 16:49:05
"||||||||||||-63,6969,$ACCEL,5.01,-0.15,8.70,$ALT,658.64,-198.74\r\n"2022-06-04 16:49:07
"||||||||||||-55,6969,$GNRMC,164903.02,8W,,,\r$GNGGA,164904.000,3520.8143,N,11748.4966,W,2,11,0.79,616.9,M,-29.4,M,,*45\r\r\n"2022-06-04 16:49:07
"||||||||||||-49,6969,$ACCEL,5.08,-0.20,8.62,$ALT,658.69,-198.75520.8143,N,11748.4966,W,2,11,0.79,616.9,M,-29.4,M,,*45\r\r\n"2022-06-04 16:49:08
"||||||||||||-49,6969,$GNRMC,164904.04769526$GNGGA,164905.000,3520.8143,N,11748.4968,W,2,11,0.79,616.8,M,-29.4,M,,*4B\r\r\r\n"2022-06-04 16:49:08
"||||||||||||-51,6969,$ACCEL,5.08,-0.17,8.58,$ALT,658.87,-198.8120.8143,N,11748.4968,W,2,11,0.79,616.8,M,-29.4,M,,*4B\r\r\r\n"2022-06-04 16:49:10
"||||||||||||-54,6969,$GNRMC,164905.000,A,3520.8143,N,11748.4968,W,0.20$GNGGA,164906.000,3520.8143,N,11748.4969,W,2,11,0.79,616.8,M,-29.4,M, \r\n"2022-06-04 16:49:10
"||||||||||||-59,6969,$ACCEL,5.08,-0.17,8.58,$ALT,658.85,-198.80B\u0001\r\n"2022-06-04 16:49:10
"||||||||||||-61,6969,$GNRMC,164907.000,A,30N8W30,658.85,-198.80B\u0001\r\n"2022-06-04 16:49:11
"||||||||||||-49,6969,$ACCEL,5.06,-0.18,8.60,$ALT,658.95,-198.83B\u0001\r\n"2022-06-04 16:49:11
"||||||||||||-51,6969,$GNRMC,164908.,819..6*$GNGGA,164909.000,3520.8141,N,11748.4964,W,2,12,0.76,616.8,M,-29.4,M,,*45\r\r\n"2022-06-04 16:49:12
"||||||||||||-50,6969,$ACCEL,5.03,-0.17,8.61,$ALT,659.11,-198.8820.8141,N,11748.4964,W,2,12,0.76,616.8,M,-29.4,M,,*45\r\r\n"2022-06-04 16:49:13
"||||||||||||-49,6969,$GNRMC,164909.000,A,119..6*$GNGGA,164910.000,3520.8139,N,11748.4963,W,2,11,0.79,616.8,M,-29.4,M,,*49\r\r\n"2022-06-04 16:49:13
"||||||||||||-48,6969,$ACCEL,5.07,-0.18,8.59,$ALT,659.25,-198.93B\u0001\r\n"2022-06-04 16:49:14
"||||||||||||-55,6969,$GNRMC,164910.000,A,3520.8139,N,11748.4963,W,0$GNGGA,164911.000,3520.8140,N,11748.4963,W,2,11,0.79,616.8,M,-29.4,M,,*4 \r\n"2022-06-04 16:49:15
"||||||||||||-55,6969,$ACCEL,5.07,-0.18,8.59,$ALT,659.45,-198.98,W,0$GNGGA,164911.000,3520.8140,N,11748.4963,W,2,11,0.79,616.8,M,-29.4,M,,*4 \r\n"2022-06-04 16:49:15
"||||||||||||-54,6969,$N400N.,50,,-0.18,8.59,$ALT,659.45,-198\r\n"2022-06-04 16:49:15
"||||||||||||-53,6969,$ACCEL,5.04,-0.17,8.61,$ALT,659.21,-198.92B\u0001\r\n"2022-06-04 16:49:15
"||||||||||||-50,6969,$ACCEL,5.06,-0.18,8.60,$ALT,659.20,-198.91\r\n"2022-06-04 16:49:16
"||||||||||||-50,6969,$GNRMC,164912.000A819..6*$GNGGA,164913.000,3520.8142,N,11748.4966,W,2,11,0.79,616.9,M,-29.4,M,,*42\r,\u0001\r\n"2022-06-04 16:49:17
"||||||||||||-49,6969,$ACCEL,5.05,-0.16,8.60,$ALT,659.35,-198.96B\u0001\r\n"2022-06-04 16:49:17
"||||||||||||-51,6969,$GNRMC,164913.0A819..0D$GNGGA,164914.000,3520.8146,N,11748.4967,W,2,11,0.79,616.9,M,-29.4,M,,*40\r\r\n"2022-06-04 16:49:18
"||||||||||||-54,6969,$ACCEL,5.05,-0.17,8.61,$ALT,659.27,-198.93520.8146,N,11748.4967,W,2,11,0.79,616.9,M,-29.4,M,,*40\r\r\n"2022-06-04 16:49:19
"||||||||||||-60,6969,$GNRMC,164914.000,.,4,54,$GNGGA,164915.000,3520.8149,N,11748.4968,W,2,11,0.79,616.92,$10594,,,26$GNGGA,164916.000,3520 \r\n"2022-06-04 16:49:19
"||||||||||||-51,6969,$ACCEL,5.06,-0.18,8.60,$ALT,659.48,-199.00,3520.8149,N,11748.4968,W,2,11,0.79,616.92,$10594,,,26$GNGGA,164916.000,3520 \r\n"2022-06-04 16:49:20
"||||||||||||-57,6969,$GNRMC,164916.000,A,31164626$GNGGA,164917.000,3520.8150,N,11748.4970,W,2,11,0.79,617.0,M,-29.4,M,,*4A\r,164916.000,3520 \r\n"2022-06-04 16:49:20
"||||||||||||-57,6969,$ACCEL,5.06,-0.16,8.61,$ALT,659.21,-198.92000,3520.8150,N,11748.4970,W,2,11,0.79,617.0,M,-29.4,M,,*4A\r,164916.000,3520 \r\n"2022-06-04 16:49:21
"||||||||||||-52,6969,$GNRMC,164917.0A819..0D$GNGGA,164918.000,3520.8148,N,11748.4972,W,2,12,0.76,617.0,M,-29.4,M,,*42\r\r\n"2022-06-04 16:49:21
"||||||||||||-58,6969,$ACCEL,5.04,-0.18,8.61,$ALT,658.97,-198.85B\u0001\r\n"2022-06-04 16:49:22
"||||||||||||-51,6969,$GNRMC,164918.000,A2,8W3,,\r$GNGGA,164919.000,3520.8148,N,11748.4972,W,2,12,0.76,617.0,M,-29.4,M,,*43\r\r\n"2022-06-04 16:49:22
"||||||||||||-49,6969,$ACCEL,5.04,-0.18,8.62,$ALT,659.11,-198.8900,3520.8148,N,11748.4972,W,2,12,0.76,617.0,M,-29.4,M,,*43\r\r\n"2022-06-04 16:49:23
"||||||||||||-52,6969,$GNRMC,164919.000,A,3520.8148,N,11748.4972,W,0$GNGGA,164920.000,3520.8147,N,11748.4973,W,2,12,0.76,617.0,M,-29.4,M,,*4 \r\n"2022-06-04 16:49:23
"||||||||||||-53,6969,$ACCEL,5.06,-0.17,8.59,$ALT,659.11,-198.89\r\n"2022-06-04 16:49:24
"||||||||||||-54,6969,$GNRMC,164920.000,A,3520.814$GNGGA,164921.000,3520.8145,N,11748.4975,W,2,12,0.76,617.1,M,-29.4,M,,*43\r \r\n"2022-06-04 16:49:24
"||||||||||||-54,6969,$ACCEL,5.04,-0.18,8.61,$ALT,659.39,-198.98B\u0001\r\n"2022-06-04 16:49:25
"||||||||||||-53,6969,$GNRMC,164921.000,A,352$GNGGA,164922.000,3520.8142,N,11748.4974,W,2,12,0.76,617.0,M,-29.4,M,,*47\r\r\n"2022-06-04 16:49:25
"||||||||||||-52,6969,$ACCEL,5.03,-0.17,8.60,$ALT,659.21,-198.92B\u0001\r\n"2022-06-04 16:49:26
"||||||||||||-52,6969,$GNRMC,164922.000,A,3520.N.$GNGGA,164923.000,3520.8140,N,11748.4975,W,2,12,0.76,617.1,M,-29.4,M,,*44\r\r\n"2022-06-04 16:49:26
"||||||||||||-59,6969,$ACCEL,5.04,-0.16,8.62,$ALT,659.05,-198.8800,3520.8140,N,11748.4975,W,2,12,0.76,617.1,M,-29.4,M,,*44\r\r\n"2022-06-04 16:49:27
"||||||||||||-57,6969,$GNRMC,164923.000,A54752525$GNGGA,164924.000,3520.8141,N,11748.4977,W,2,12,0.76,617.0,M,-29.4,M,,*41\r\r\n"2022-06-04 16:49:27
"||||||||||||-48,6969,$ACCEL,5.05,-0.18,8.62,$ALT,659.23,-198.93\r\n"2022-06-04 16:49:28
"||||||||||||-53,6969,$GNRMC,1649,.N.,54,$GNGGA,164925.000,3520.8140,N,11748.4976,W,2,12,0.76,616.9,M,-29.4,M,,*48\r\r\n"2022-06-04 16:49:28
"||||||||||||-45,6969,$ACCEL,5.05,-0.18,8.62,$ALT,659.09,-198.89B\u0001\r\n"2022-06-04 16:49:29
"||||||||||||-49,6969,$GNRMC,164925.00504,,527$GNGGA,164926.000,3520.8139,N,11748.4976,W,2,12,0.76,616.9,M,-29.4,M,,*45\r\r\n"2022-06-04 16:49:29
"||||||||||||-52,6969,$ACCEL,5.06,-0.17,8.62,$ALT,659.20,-198.92\r\n"2022-06-04 16:49:30
"||||||||||||-51,6969,$GNRMC,164926.,.,4054,$GNGGA,164927.000,3520.8137,N,11748.4976,W,2,12,0.76,616.9,M,-29.4,M,,*4A\r\r\n"2022-06-04 16:49:30
"||||||||||||-56,6969,$ACCEL,5.05,-0.17,8.61,$ALT,659.02,-198.8720.8137,N,11748.4976,W,2,12,0.76,616.9,M,-29.4,M,,*4A\r\r\n"2022-06-04 16:49:31
"||||||||||||-60,6969,$GNRMC,164927.0031172626$GNGGA,164928.000,3520.8138,N,11748.4977,W,2,12,0.76,616.8,M,-29.4,M,,*4A\r\r\n"2022-06-04 16:49:31
"||||||||||||-53,6969,$ACCEL,5.02,-0.19,8.60,$ALT,658.83,-198.823520.8138,N,11748.4977,W,2,12,0.76,616.8,M,-29.4,M,,*4A\r\r\n"2022-06-04 16:49:32
"||||||||||||-52,6969,$GNRMC,164928.0A819050D$GNGGA,164929.000,3520.8139,N,11748.4978,W,2,12,0.76,616.7,M,-29.4,M,,*4A\r\r\n"2022-06-04 16:49:32
"||||||||||||-50,6969,$ACCEL,5.06,-0.17,8.59,$ALT,658.47,-198.71\r\n"2022-06-04 16:49:33
"||||||||||||-48,6969,$GNRMC,164929.000,A.,4054,$GNGGA,164930.000,3520.8140,N,11748.4975,W,2,12,0.76,616.6,M,-29.4,M,,*40\r\r\n"2022-06-04 16:49:33
"||||||||||||-51,6969,$ACCEL,5.05,-0.18,8.60,$ALT,658.89,-198.83B\u0001\r\n"2022-06-04 16:49:34
"||||||||||||-50,6969,$GNRMC,164930.0504,,,,\r$GNGGA,164931.000,3520.8139,N,11748.4973,W,2,12,0.76,616.6,M,-29.4,M,,*49\r\r\n"2022-06-04 16:49:34
"||||||||||||-51,6969,$ACCEL,5.05,-0.18,8.62,$ALT,658.66,-198.77520.8139,N,11748.4973,W,2,12,0.76,616.6,M,-29.4,M,,*49\r\r\n"2022-06-04 16:49:35
"||||||||||||-53,6969,$GNRMC,164931.0033732526$GNGGA,164932.000,3520.8139,N,11748.4972,W,2,11,0.79,616.6,M,-29.4,M,,*47\r\r\n"2022-06-04 16:49:35
"||||||||||||-53,6969,$ACCEL,5.05,-0.17,8.61,$ALT,658.52,-198.72\r\n"2022-06-04 16:49:36
"||||||||||||-48,6969,$GNRMC,164932.005724626$GNGGA,164933.000,3520.8138,N,11748.4972,W,2,12,0.76,616.6,M,-29.4,M,,*4B\r\r\n"2022-06-04 16:49:36
"||||||||||||-50,6969,$ACCEL,5.06,-0.17,8.60,$ALT,659.16,-198.92520.8138,N,11748.4972,W,2,12,0.76,616.6,M,-29.4,M,,*4B\r\r\n"2022-06-04 16:49:37
"||||||||||||-49,6969,$GNRMC,164933.000,5171626$GNGGA,164934.000,3520.8138,N,11748.4972,W,2,12,0.76,616.6,M,-29.4,M,,*4C\r,\u0001\r\n"2022-06-04 16:49:37
"||||||||||||-49,6969,$ACCEL,5.05,-0.18,8.59,$ALT,658.54,-198.73,3520.8138,N,11748.4972,W,2,12,0.76,616.6,M,-29.4,M,,*4C\r,\u0001\r\n"2022-06-04 16:49:38
"||||||||||||-49,6969,$GNRMC,164934.000N.3,,\r$GNGGA,164935.000,3520.8138,N,11748.4970,W,2,12,0.76,616.5,M,-29.4,M,,*4C\r\r\n"2022-06-04 16:49:38
"||||||||||||-51,6969,$ACCEL,5.05,-0.18,8.60,$ALT,658.47,-198.71520.8138,N,11748.4970,W,2,12,0.76,616.5,M,-29.4,M,,*4C\r\r\n"2022-06-04 16:49:40
"||||||||||||-51,6969,$GNRMC,164935.0002,4,52A$GNGGA,164936.000,3520.8139,N,11748.4969,W,2,12,0.76,616.4,M,-29.4,M,,*47\r\r\n"2022-06-04 16:49:40
"||||||||||||-49,6969,$ACCEL,5.06,-0.18,8.58,$ALT,658.42,-198.69\r\n"2022-06-04 16:49:41
"||||||||||||-48,6969,$GNRMC,164936A8,4050D$GNGGA,164937.000,3520.8142,N,11748.4966,W,2,12,0.76,616.2,M,-29.4,M,,*43\r\r\n"2022-06-04 16:49:41
"||||||||||||-51,6969,$ACCEL,5.05,-0.17,8.64,$ALT,658.76,-198.800.8142,N,11748.4966,W,2,12,0.76,616.2,M,-29.4,M,,*43\r\r\n"2022-06-04 16:49:42
"||||||||||||-52,6969,$GNRMC,164937.00,819..6*$GNGGA,164938.000,3520.8144,N,11748.4960,W,2,12,0.76,615.9,M,-29.4,M,,*44\r\r\n"2022-06-04 16:49:42
"||||||||||||-52,6969,$ACCEL,5.05,-0.17,8.59,$ALT,659.59,-199.063520.8144,N,11748.4960,W,2,12,0.76,615.9,M,-29.4,M,,*44\r\r\n"2022-06-04 16:49:43
"||||||||||||-52,6969,$GNRMC,164938.000,54401529$GNGGA,164939.000,3520.8147,N,11748.4956,W,2,12,0.76,615.7,M,-29.4,M,,*4D\r\r\n"2022-06-04 16:49:43
"||||||||||||-52,6969,$ACCEL,5.05,-0.16,8.60,$ALT,659.30,-198.96B\u0001\r\n"2022-06-04 16:49:44
"||||||||||||-52,6969,$GNRMC,164939.0000N.,54,$GNGGA,164940.000,3520.8148,N,11748.4956,W,2,12,0.76,615.6,M,-29.4,M,,*4D\r\r\n"2022-06-04 16:49:44
"||||||||||||-51,6969,$ACCEL,5.06,-0.19,8.61,$ALT,658.84,-198.833520.8148,N,11748.4956,W,2,12,0.76,615.6,M,-29.4,M,,*4D\r\r\n"2022-06-04 16:49:45
"||||||||||||-52,6969,$GNRMC,164940.0034767526$GNGGA,164941.000,3520.8145,N,11748.4954,W,2,12,0.76,615.2,M,-29.4,M,,*47\r\r\n"2022-06-04 16:49:45
"||||||||||||-53,6969,$ACCEL,5.06,-0.18,8.58,$ALT,659.31,-198.973520.8145,N,11748.4954,W,2,12,0.76,615.2,M,-29.4,M,,*47\r\r\n"2022-06-04 16:49:46
"||||||||||||-50,6969,$GNRMC,164941.02,4,,,,\r$GNGGA,164942.000,3520.8146,N,11748.4954,W,2,12,0.76,614.9,M,-29.4,M,,*4D\r\r\r\n"2022-06-04 16:49:46
"||||||||||||-50,6969,$ACCEL,5.06,-0.19,8.60,$ALT,658.61,-198.76\r\n"2022-06-04 16:49:47
"||||||||||||-51,6969,$GNRMC,164942.0,119..6*$GNGGA,164943.000,3520.8143,N,11748.4951,W,2,11,0.78,614.7,M,-29.4,M,,*4F\r\r\n"2022-06-04 16:49:47
"||||||||||||-60,6969,$ACCEL,5.06,-0.18,8.60,$ALT,658.92,-198.86520.8143,N,11748.4951,W,2,11,0.78,614.7,M,-29.4,M,,*4F\r\r\n"2022-06-04 16:49:48
"||||||||||||-57,6969,$GNRMC,164943.0A8,4050D$GNGGA,164944.000,3520.8143,N,11748.4948,W,2,11,0.78,614.6,M,-29.4,M,,*41\r\r\n"2022-06-04 16:49:48
"||||||||||||-55,6969,$ACCEL,5.05,-0.17,8.62,$ALT,659.31,-198.97\r\n"2022-06-04 16:49:49
"||||||||||||-54,6969,$GNRMC,164944.00534,,,28$GNGGA,164945.000,3520.8146,N,11748.4946,W,2,11,0.78,614.4,M,-29.4,M,,*49\r\r\n"2022-06-04 16:49:49
"||||||||||||-51,6969,$ACCEL,5.05,-0.17,8.62,$ALT,659.38,-199.00\r\n"2022-06-04 16:49:50
"||||||||||||-54,6969,$GNRMC,164945.A819.50D$GNGGA,164946.000,3520.8146,N,11748.4943,W,2,12,0.76,614.2,M,-29.4,M,,*44\r\r\n"2022-06-04 16:49:50
"||||||||||||-55,6969,$ACCEL,5.05,-0.17,8.62,$ALT,659.35,-198.98\r\n"2022-06-04 16:49:50
"||||||||||||-55,6969,$GNRMC,164946.0002,8W30,ALT,659.35,-198\r\n"2022-06-04 16:49:50
"||||||||||||-54,6969,$ACCEL,5.05,-0.18,8.60,$ALT,659.14,-198.93B\u0001\r\n"2022-06-04 16:49:51
"||||||||||||-54,6969,$ACCEL,5.04,-0.18,8.60,$ALT,658.92,-198.86B\u0001\r\n"2022-06-04 16:49:52
"||||||||||||-53,6969,$GNRMC,164947.0,.,.,54,$GNGGA,164948.000,3520.8149,N,11748.4939,W,2,12,0.76,613.9,M,-29.4,M,,*44\r\r\n"2022-06-04 16:49:52
"||||||||||||-55,6969,$ACCEL,5.04,-0.19,8.61,$ALT,659.06,-198.91B\u0001\r\n"2022-06-04 16:49:53
"||||||||||||-53,6969,$GNRMC,164948.00034794626$GNGGA,164949.000,3520.8147,N,11748.4936,W,2,12,0.76,613.6,M,-29.4,M,,*4B\r`\r\n"2022-06-04 16:49:53
"||||||||||||-51,6969,$ACCEL,5.04,-0.19,8.61,$ALT,659.04,-198.89,3520.8147,N,11748.4936,W,2,12,0.76,613.6,M,-29.4,M,,*4B\r`\r\n"2022-06-04 16:49:53
"||||||||||||-50,6969,$GNRMC,1649400N.,54,61,$ALT,659.04,-198.89,3520.8147,N,11748.4936,W,2,12,0.76,613.6,M,-29.4,M,,*4B\r`\r\n"2022-06-04 16:49:54
"||||||||||||-45,6969,$ACCEL,5.04,-0.18,8.60,$ALT,659.07,-198.91,3520.8147,N,11748.4936,W,2,12,0.76,613.6,M,-29.4,M,,*4B\r`\r\n"2022-06-04 16:49:55
"||||||||||||-48,6969,$GNGGA,164950.000,3520.8147,N,11748.4936,W,2,10,0.98,613.6,.4R9,.,4,54,$GNGGA,164951.000,3520.8146,N,11748.4935,W,2,12 \r\n"2022-06-04 16:49:55
"||||||||||||-45,6969,$ACCEL,5.05,-0.17,8.62,$ALT,658.94,-198.87,2,10,0.98,613.6,.4R9,.,4,54,$GNGGA,164951.000,3520.8146,N,11748.4935,W,2,12 \r\n"2022-06-04 16:49:55
"||||||||||||-45,6969,$GNRMC,164951.000,A,3520.81N.,50,4,-198.87,2,10,0.98,613.6,.4R9,.,4,54,$GNGGA,164951.000,3520.8146,N,11748.4935,W,2,12 \r\n"2022-06-04 16:49:55
"||||||||||||-48,6969,$ACCEL,5.05,-0.17,8.62,$ALT,659.03,-198.90B\u0001\r\n"2022-06-04 16:49:56
"||||||||||||-50,6969,$ACCEL,5.05,-0.17,8.60,$ALT,659.16,-198.95B\u0001\r\n"2022-06-04 16:49:57
"||||||||||||-48,6969,$GNRMC,164952.A814050D$GNGGA,164953.000,3520.8146,N,11748.4937,W,2,12,0.76,613.3,M,-29.4,M,,*4,,F$GNGGA,164954.000,352 \r\n"2022-06-04 16:49:58
"||||||||||||-48,6969,$ACCEL,5.05,-0.17,8.61,$ALT,658.82,-198.84\r\n"2022-06-04 16:49:59
"||||||||||||-47,6969,$GNRMC,164954.000,A,3520.8145,N,11748.4937,W,0.12,355.65,04062,\r$GNGGA,164955.000,3520.8144,N,11748.4938,W,2,12,0.76,1\r\n"2022-06-04 16:49:59
"||||||||||||-42,6969,$ACCEL,5.03,-0.19,8.59,$ALT,658.85,-198.85,W,0.12,355.65,04062,\r$GNGGA,164955.000,3520.8144,N,11748.4938,W,2,12,0.76,1\r\n"2022-06-04 16:50:00
"||||||||||||-42,6969,,.34731626$GNGGA,164956.000,3520.8144,N,11748.4939,W,2,12,0.76,613.2,M,-29.4,M,,*4D\r\r\n"2022-06-04 16:50:00
"||||||||||||-43,6969,$ACCEL,5.05,-0.17,8.61,$ALT,658.84,-198.85B\u0001\r\n"2022-06-04 16:50:01
"||||||||||||-42,6969,$GNRMC,164956.000,A,3544,9524$GNGGA,164957.000,3520.8144,N,11748.4940,W,2,12,0.76,613.3,M,-29.4,M,,*43\r@B\u000f\r\n"2022-06-04 16:50:01
"||||||||||||-43,6969,$ACCEL,5.04,-0.17,8.62,$ALT,658.88,-198.87.000,3520.8144,N,11748.4940,W,2,12,0.76,613.3,M,-29.4,M,,*43\r@B\u000f\r\n"2022-06-04 16:50:02
"||||||||||||-43,6969,$GNRMC,164957.000,A,3520.8144,N,11748.4$GNGGA,164958.000,3520.8144,N,11748.4942,W,2,12,0.76,613.3,M,-29.4,M,,*4E\r\r\n"2022-06-04 16:50:02
"||||||||||||-45,6969,$ACCEL,5.03,-0.21,8.59,$ALT,658.67,-198.80B\u0001\r\n"2022-06-04 16:50:03
"||||||||||||-44,6969,$GNRMC,164958.000,A,3520.8144,N,11748.40626$GNGGA,164959.000,3520.8146,N,11748.4943,W,2,12,0.76,613.3,M,-29.4,M,,*4C\r\r\n"2022-06-04 16:50:03
"||||||||||||-47,6969,$ACCEL,5.04,-0.18,8.63,$ALT,658.64,-198.80B\u0001\r\n"2022-06-04 16:50:04
"||||||||||||-48,6969,$GNRMC,1645A8$GNGGA,165000.000,3520.8148,N,11748.4945,W,2,11,0.80,613.3,M,-29.4,M,,*4A\r\u0001\r\n"2022-06-04 16:50:04
"||||||||||||-49,6969,$ACCEL,5.05,-0.17,8.61,$ALT,658.73,-198.82,11748.4945,W,2,11,0.80,613.3,M,-29.4,M,,*4A\r\u0001\r\n"2022-06-04 16:50:05
"||||||||||||-49,6969,$GNRMC,165000.000,A,3520.N.,5$GNGGA,165001.000,3520.8148,N,11748.4948,W,2,11,0.80,613.4,M,-29.4,M,,*41\r@B\u000f\r\n"2022-06-04 16:50:05
"||||||||||||-48,6969,$ACCEL,5.07,-0.18,8.61,$ALT,658.99,-198.90.000,3520.8148,N,11748.4948,W,2,11,0.80,613.4,M,-29.4,M,,*41\r@B\u000f\r\n"2022-06-04 16:50:06
"||||||||||||-49,6969,$GNRMC,165001.000,58487523$GNGGA,165002.000,3520.8145,N,11748.4953,W,2,11,0.80,613.1,M,-29.4,M,,*40\r\u0001\r\n"2022-06-04 16:50:06
"||||||||||||-48,6969,$ACCEL,5.05,-0.17,8.60,$ALT,659.19,-198.960,3520.8145,N,11748.4953,W,2,11,0.80,613.1,M,-29.4,M,,*40\r\u0001\r\n"2022-06-04 16:50:07
"||||||||||||-48,6969,$GNRMC,165000554,,,,4$GNGGA,165003.000,3520.8145,N,11748.4956,W,2,11,0.80,613.0,M,-29.4,M,,*45\r,*40\r\u0001\r\n"2022-06-04 16:50:07
"||||||||||||-47,6969,$ACCEL,5.05,-0.18,8.60,$ALT,658.84,-198.860.8145,N,11748.4956,W,2,11,0.80,613.0,M,-29.4,M,,*45\r,*40\r\u0001\r\n"2022-06-04 16:50:08
"||||||||||||-45,6969,$GNRMC,163A819..6*$GNGGA,165004.000,3520.8143,N,11748.4957,W,2,11,0.80,612.9,M,-29.4,M,,*4D\r45\r,*40\r\u0001\r\n"2022-06-04 16:50:08
"||||||||||||-50,6969,$ACCEL,5.04,-0.20,8.60,$ALT,658.99,-198.90B\u0001\r\n"2022-06-04 16:50:09
"||||||||||||-48,6969,$GNRMC,165004.000,A,819..6D$GNGGA,165005.000,3520.8144,N,11748.4957,W,2,11,0.80,612.9,M,-29.4,M,,*4B\r\r\n"2022-06-04 16:50:09
"||||||||||||-48,6969,$ACCEL,5.06,-0.18,8.60,$ALT,658.67,-198.81B\u0001\r\n"2022-06-04 16:50:10
"||||||||||||-48,6969,$GNRMC,165000544,9523$GNGGA,165006.000,3520.8143,N,11748.4957,W,2,12,0.76,612.8,M,-29.4,M,,*44\r\r\n"2022-06-04 16:50:10
"||||||||||||-48,6969,$ACCEL,5.05,-0.18,8.59,$ALT,658.72,-198.820.8143,N,11748.4957,W,2,12,0.76,612.8,M,-29.4,M,,*44\r\r\n"2022-06-04 16:50:11
"||||||||||||-48,6969,$GNRMC,165006.034774526$GNGGA,165007.000,3520.8142,N,11748.4955,W,2,12,0.76,612.8,M,-29.4,M,,*46\r\r\n"2022-06-04 16:50:11
"||||||||||||-47,6969,$ACCEL,5.05,-0.18,8.59,$ALT,658.71,-198.82\r\n"2022-06-04 16:50:11
"||||||||||||-47,6969,$GNRMC,165007.00N.,30,,$ALT,658.71,-198.82\r\n"2022-06-04 16:50:11
"||||||||||||-47,6969,$ACCEL,5.06,-0.18,8.59,$ALT,658.96,-198.90\r\n"2022-06-04 16:50:12
"||||||||||||-49,6969,$GNRMC,165008.000,34756626$GNGGA,165009.000,3520.8142,N,11748.4954,W,2,12,0.76,612.6,M,-29.4,M,,*47\r\r\n"2022-06-04 16:50:13
"||||||||||||-48,6969,$ACCEL,5.06,-0.18,8.60,$ALT,659.11,-198.95B\u0001\r\n"2022-06-04 16:50:14
"||||||||||||-49,6969,$GNRMC,165009.00034755626$GNGGA,165010.000,3520.8141,N,11748.4953,W,2,12,0.76,612.7,M,-29.4,M,,*4A\r`\r\n"2022-06-04 16:50:14
"||||||||||||-47,6969,$ACCEL,5.03,-0.19,8.61,$ALT,659.31,-199.01,3520.8141,N,11748.4953,W,2,12,0.76,612.7,M,-29.4,M,,*4A\r`\r\n"2022-06-04 16:50:15
"||||||||||||-48,6969,$GNRMC,16501A.,4050D$GNGGA,165011.000,3520.8139,N,11748.4952,W,2,12,0.76,612.8,M,-,$10594,0524$GNGGA,165012.000,3520.8 \r\n"2022-06-04 16:50:16
"||||||||||||-53,6969,$ACCEL,5.06,-0.17,8.61,$ALT,659.13,-198.96B\u0001\r\n"2022-06-04 16:50:16
"||||||||||||-50,6969,$GNRMC,165012.000,A,3119..6*$GNGGA,165013.000,3520.8137,N,11748.4950,W,2,12,0.76,612.8,M,-29.4,M,,*44\r @B\u000f\r\n"2022-06-04 16:50:17
"||||||||||||-55,6969,$ACCEL,5.05,-0.19,8.59,$ALT,659.10,-198.95000,3520.8137,N,11748.4950,W,2,12,0.76,612.8,M,-29.4,M,,*44\r @B\u000f\r\n"2022-06-04 16:50:17
"||||||||||||-51,6969,$GNRMC,165013.000,33707526$GNGGA,165014.000,3520.8137,N,11748.4945,W,2,12,0.76,613.0,M,-29.4,M,,*4E\r\r\n"2022-06-04 16:50:18
"||||||||||||-51,6969,$ACCEL,5.05,-0.19,8.59,$ALT,659.19,-198.970,3520.8137,N,11748.4945,W,2,12,0.76,613.0,M,-29.4,M,,*4E\r\r\n"2022-06-04 16:50:18
"||||||||||||-49,6969,$GNRMC,165014.00N8W30,,$ALT,659.19,-198.970,3520.8137,N,11748.4945,W,2,12,0.76,613.0,M,-29.4,M,,*4E\r\r\n"2022-06-04 16:50:18
"||||||||||||-51,6969,$ACCEL,5.04,-0.17,8.60,$ALT,659.08,-198.950,3520.8137,N,11748.4945,W,2,12,0.76,613.0,M,-29.4,M,,*4E\r\r\n"2022-06-04 16:50:19
"||||||||||||-52,6969,$GNGGA,165015.000,3520.8139,N,11748.4945,W,2,11,0.78,613.0,M,-29.4,M,,*4C\r0.76,613.0,M,-29.4,M,,*4E\r\r\n"2022-06-04 16:50:19
"||||||||||||-52,6969,$ACCEL,5.07,-0.19,8.58,$ALT,659.27,-199.01B\u0001\r\n"2022-06-04 16:50:20
"||||||||||||-47,6969,$GNRMC,165015.000,A,3520.8139,N,11748.4945,W,0.$GNGGA,165016.000,3520.8139,N,11748.4946,W,2,11,0.78,613.0,M,-29.4,M,,*\r\n"2022-06-04 16:50:20
"||||||||||||-51,6969,$ACCEL,5.02,-0.17,8.61,$ALT,659.12,-198.96\r\n"2022-06-04 16:50:21
"||||||||||||-48,6969,$GNRMC,165016.000,A,3520.813$GNGGA,165017.000,3520.8140,N,11748.4947,W,2,11,0.78,613.0,M,-29.4,M,,*42\r \r\n"2022-06-04 16:50:21
"||||||||||||-47,6969,$ACCEL,5.06,-0.16,8.61,$ALT,659.13,-198.96B\u0001\r\n"2022-06-04 16:50:22
"||||||||||||-47,6969,$GNRMC,165017.000,A,352047$GNGGA,165018.000,3520.8141,N,11748.4946,W,2,11,0.78,613.0,M,-29.4,$1051462521$GNGGA,165019.\r\n"2022-06-04 16:50:23
"||||||||||||-45,6969,$ACCEL,5.07,-0.18,8.59,$ALT,659.01,-198.930,3520.8141,N,11748.4946,W,2,11,0.78,613.0,M,-29.4,$1051462521$GNGGA,165019.\r\n"2022-06-04 16:50:23
"||||||||||||-45,6969,$GNRMC,165019.000,A,.,4050D$GNGGA,165020.000,3520.8139,N,11748.4941,W,2,10,0.80,613.0,M,-29.4,M,,*48\r\r\n"2022-06-04 16:50:24
"||||||||||||-45,6969,$ACCEL,5.07,-0.18,8.60,$ALT,659.17,-198.9800,3520.8139,N,11748.4941,W,2,10,0.80,613.0,M,-29.4,M,,*48\r\r\n"2022-06-04 16:50:24
"||||||||||||-45,6969,$GNRMC,1650.33141626$GNGGA,165021.000,3520.8140,N,11748.4943,W,2,10,0.80,613.1,M,-29.4,M,,*44\rM,,*48\r\r\n"2022-06-04 16:50:24
"||||||||||||-44,6969,$ACCEL,5.08,-0.15,8.60,$ALT,658.98,-198.92.8140,N,11748.4943,W,2,10,0.80,613.1,M,-29.4,M,,*44\rM,,*48\r\r\n"2022-06-04 16:50:25
"||||||||||||-44,6969,$GNRMC,165021.0034737626$GNGGA,165022.000,3520.8140,N,11748.4944,W,2,11,0.78,613.1,M,-29.4,M,,*46\r48\r\r\n"2022-06-04 16:50:25
"||||||||||||-45,6969,$ACCEL,5.08,-0.16,8.61,$ALT,659.05,-198.943520.8140,N,11748.4944,W,2,11,0.78,613.1,M,-29.4,M,,*46\r48\r\r\n"2022-06-04 16:50:27
"||||||||||||-45,6969,$GNRMC,165022.000,A,3520.8140,N,11748.4944,W,0.17,355$GNGGA,165023.000,3520.8142,N,11748.4942,W,2,11,0.78,613.0,M,-29. \r\n"2022-06-04 16:50:27
"||||||||||||-45,6969,$ACCEL,5.04,-0.17,8.61,$ALT,659.21,-199.00,W,0.17,355$GNGGA,165023.000,3520.8142,N,11748.4942,W,2,11,0.78,613.0,M,-29. \r\n"2022-06-04 16:50:28
"||||||||||||-44,6969,$GNRMC,165023.000,A,352024,$GNGGA,165024.000,3520.8142,N,11748.4943,W,2,11,0.78,613.0,M,-29.4,M,,*44\r0.78,613.0,M,-29. \r\n"2022-06-04 16:50:28
"||||||||||||-54,6969,$ACCEL,5.06,-0.19,8.58,$ALT,659.17,-198.98B\u0001\r\n"2022-06-04 16:50:29
"||||||||||||-63,6969,$GNRMC,165024.000,A,$GNGGA,165025.000,3520.8142,N,11748.4945,W,2,11,0.78,613.0,M,-29.4,M,,*43\r\r\n"2022-06-04 16:50:29
"||||||||||||-55,6969,$ACCEL,5.06,-0.18,8.59,$ALT,659.04,-198.95.8142,N,11748.4945,W,2,11,0.78,613.0,M,-29.4,M,,*43\r\r\n"2022-06-04 16:50:30
"||||||||||||-55,6969,$GNRMC,165025.000,A,3520$GNGGA,165026.000,3520.8141,N,11748.4945,W,2,11,0.78,613.0,M,-29.4,M,,*43\r\r\n"2022-06-04 16:50:30
"||||||||||||-50,6969,$ACCEL,5.04,-0.19,8.61,$ALT,659.00,-198.943520.8141,N,11748.4945,W,2,11,0.78,613.0,M,-29.4,M,,*43\r\r\n"2022-06-04 16:50:31
"||||||||||||-49,6969,$GNRMC,165026.000,A,35201142626$GNGGA,165027.000,3520.8142,N,11748.4946,W,2,11,0.78,613.1,M,-29.4,M,,*43\r\u000f\r\n"2022-06-04 16:50:31
"||||||||||||-52,6969,$ACCEL,5.05,-0.19,8.60,$ALT,659.17,-198.99\r\n"2022-06-04 16:50:32
"||||||||||||-50,6969,$GNRMC,1650034765528$GNGGA,165028.000,3520.8142,N,11748.4947,W,2,11,0.78,613.1,M,-29.4,M,,*4D\r\r\n"2022-06-04 16:50:32
"||||||||||||-50,6969,$ACCEL,5.06,-0.17,8.61,$ALT,659.01,-198.95B\u0001\r\n"2022-06-04 16:50:33
"||||||||||||-49,6969,$GNRMC,165028.02,8W30,\r$GNGGA,165029.000,3520.8142,N,11748.4946,W,2,11,0.78,613.1,M,-29.4,M,,*4D\r\r\n"2022-06-04 16:50:33
"||||||||||||-48,6969,$ACCEL,5.05,-0.18,8.61,$ALT,659.32,-199.04B\u0001\r\n"2022-06-04 16:50:34
"||||||||||||-48,6969,$GNRMC,165029.0A8,4050D$GNGGA,165030.000,3520.8142,N,11748.4947,W,2,11,0.78,613.1,M,-29.4,M,,*44\r\r\n"2022-06-04 16:50:34
"||||||||||||-49,6969,$ACCEL,5.06,-0.20,8.61,$ALT,659.12,-198.97B\u0001\r\n"2022-06-04 16:50:34
"||||||||||||-49,6969,$GNRMC,165030.0,1140.6*$GNGGA,165031.000,3520.8142,N,11748.4947,W,2,10,0.82,613.1,M,-29.4,M,,*41\r\r\n"2022-06-04 16:50:35
"||||||||||||-47,6969,$ACCEL,5.05,-0.20,8.61,$ALT,659.28,-199.03520.8142,N,11748.4947,W,2,10,0.82,613.1,M,-29.4,M,,*41\r\r\n"2022-06-04 16:50:35
"||||||||||||-47,6969,$GNRMC,165031,119..6*$GNGGA,165032.000,3520.8143,N,11748.4947,W,2,11,0.78,613.1,M,-29.4,M,,*47\r\r\n"2022-06-04 16:50:36
"||||||||||||-51,6969,$ACCEL,5.04,-0.18,8.60,$ALT,658.91,-198.92\r\n"2022-06-04 16:50:36
"||||||||||||-49,6969,$GNRMC,165032.000,A.,4050,$GNGGA,165033.000,3520.8143,N,11748.4948,W,2,11,0.78,613.2,M,-29.4,M,,*4A\r\r\n"2022-06-04 16:50:37
"||||||||||||-49,6969,$ACCEL,5.04,-0.19,8.60,$ALT,658.92,-198.92B\u0001\r\n"2022-06-04 16:50:37
"||||||||||||-50,6969,$GNRMC,165033.00,.,4,54,$GNGGA,165034.000,3520.8146,N,11748.4946,W,2,12,0.76,613.3,M,-29.4,M,,*4A\r\r\n"2022-06-04 16:50:38
"||||||||||||-49,6969,$ACCEL,5.05,-0.18,8.60,$ALT,658.64,-198.843520.8146,N,11748.4946,W,2,12,0.76,613.3,M,-29.4,M,,*4A\r\r\n"2022-06-04 16:50:38
"||||||||||||-49,6969,$GNRMC,165034.00056461529$GNGGA,165035.000,3520.8149,N,11748.4950,W,2,12,0.76,613.2,M,-29.4,M,,*42\r`\r\n"2022-06-04 16:50:39
"||||||||||||-50,6969,$ACCEL,5.05,-0.18,8.63,$ALT,658.99,-198.94\r\n"2022-06-04 16:50:39
"||||||||||||-52,6969,$GNRMC,165035.000,1150.6*$GNGGA,165036.000,3520.8151,N,11748.4951,W,2,12,0.76,613.1,M,-29.4,M,,*4A\r,\u0001\r\n"2022-06-04 16:50:40
"||||||||||||-53,6969,$ACCEL,5.04,-0.20,8.61,$ALT,659.01,-198.95\r\n"2022-06-04 16:50:40
"||||||||||||-56,6969,$GNRMC,165036.0055718521$GNGGA,165037.000,3520.8154,N,11748.4956,W,2,12,0.76,613.1,M,-29.4,M,,*49\r\r\n"2022-06-04 16:50:41
"||||||||||||-55,6969,$ACCEL,5.03,-0.21,8.64,$ALT,658.80,-198.893520.8154,N,11748.4956,W,2,12,0.76,613.1,M,-29.4,M,,*49\r\r\n"2022-06-04 16:50:41
"||||||||||||-53,6969,$GNRMC,16503,.N.,54,$GNGGA,165038.000,3520.8156,N,11748.4960,W,2,12,0.76,613.0,M,-29.4,M,,*40\r*49\r\r\n"2022-06-04 16:50:42
"||||||||||||-53,6969,$ACCEL,5.03,-0.21,8.64,$ALT,658.51,-198.79B\u0001\r\n"2022-06-04 16:50:42
"||||||||||||-52,6969,$GNRMC,165038.00,0N.,54,ALT,658.51,-198\r\n"2022-06-04 16:50:42
"||||||||||||-54,6969,$ACCEL,5.05,-0.16,8.61,$ALT,658.50,-198.80B\u0001\r\n"2022-06-04 16:50:43
"||||||||||||-50,6969,$GNRMC,1650390574,,,,\r$GNGGA,165040.000,3520.8158,N,11748.4961,W,2,12,0.76,613.0,M,-29.4,M,,*40\r\r\n"2022-06-04 16:50:44
"||||||||||||-52,6969,$ACCEL,5.04,-0.19,8.59,$ALT,658.95,-198.93\r\n"2022-06-04 16:50:45
"||||||||||||-53,6969,$GNRMC,165040,.,4050D$GNGGA,165041.000,3520.8158,N,11748.4961,W,2,12,0.76,613.0,M,-29.4,M,,*41\r\r\n"2022-06-04 16:50:45
"||||||||||||-54,6969,$ACCEL,5.04,-0.19,8.60,$ALT,658.42,-198.770.8158,N,11748.4961,W,2,12,0.76,613.0,M,-29.4,M,,*41\r\r\n"2022-06-04 16:50:46
"||||||||||||-54,6969,$GNRMC,165041.000,116262*$GNGGA,165042.000,3520.8159,N,11748.4960,W,2,12,0.76,613.0,M,-29.*N500N.,30\r$GNGGA,165043.000\r\n"2022-06-04 16:50:46
"||||||||||||-51,6969,$ACCEL,5.03,-0.17,8.61,$ALT,658.79,-198.89B\u0001\r\n"2022-06-04 16:50:48
"||||||||||||-49,6969,$GNRMC,165044.0003572.6*$GNGGA,165045.000,3520.8155,N,11748.4965,W,2,11,0.80,613.0,M,-29.4,M,,*46\r\r\n"2022-06-04 16:50:48
"||||||||||||-49,6969,$ACCEL,5.05,-0.17,8.61,$ALT,658.81,-198.893520.8155,N,11748.4965,W,2,11,0.80,613.0,M,-29.4,M,,*46\r\r\n"2022-06-04 16:50:49
"||||||||||||-48,6969,$GNRMC,165045.000557556*$GNGGA,165046.000,3520.8154,N,11748.4966,W,2,11,0.80,613.0,M,-29.4,M,,*47\r\r\n"2022-06-04 16:50:49
"||||||||||||-49,6969,$ACCEL,5.06,-0.18,8.60,$ALT,658.75,-198.88B\u0001\r\n"2022-06-04 16:50:50
"||||||||||||-48,6969,$GNRMC,165046.000,A,3520.8154,N,11748.4966,W,0.2$GNGGA,165047.000,3520.8154,N,11748.4967,W,2,11,0.80,613.0,M,-29.4,M,, \r\n"2022-06-04 16:50:50
"||||||||||||-47,6969,$ACCEL,5.05,-0.18,8.61,$ALT,659.09,-198.98,W,0.2$GNGGA,165047.000,3520.8154,N,11748.4967,W,2,11,0.80,613.0,M,-29.4,M,, \r\n"2022-06-04 16:50:51
