"||||||||||||-64,6969,$GNRMC,193311.03661312F$GNGGA,193312.000,3429.6965,N,11657.5522,W,2,17,0.62,874.5,M,-31.0,M,,*4F\r31.0,M,,*4E\r\r\n"
2022-03-12 19:33:16"||||||||||||-64,6969,$GNRMC,193311.03661312F$GNGGA,193312.000,3429.6965,N,11657.5522,W,2,17,0.62,874.5,M,-31.0,M,,*4F\r31.0,M,,*4E\r\r\n"
2022-03-12 19:33:16
"||||||||||||-63,6969,$ACCEL,-0.57,-6.91,-6.99,$ALT,773.18,-227.289.6965,N,11657.5522,W,2,17,0.62,874.5,M,-31.0,M,,*4F\r31.0,M,,*4E\r\r\n"
2022-03-12 19:33:16"||||||||||||-63,6969,$ACCEL,-0.57,-6.91,-6.99,$ALT,773.18,-227.289.6965,N,11657.5522,W,2,17,0.62,874.5,M,-31.0,M,,*4F\r31.0,M,,*4E\r\r\n"
2022-03-12 19:33:16
"||||||||||||-64,6969,$GNRMC,193312.000,9120125$GNGGA,193313.000,3429.6965,N,11657.5522,W,2,17,0.62,874.6,M,-31.0,M,,*4D\r,\u0001\r\n"
2022-03-12 19:33:17"||||||||||||-64,6969,$GNRMC,193312.000,9120125$GNGGA,193313.000,3429.6965,N,11657.5522,W,2,17,0.62,874.6,M,-31.0,M,,*4D\r,\u0001\r\n"
2022-03-12 19:33:17
"||||||||||||-64,6969,$ACCEL,-0.58,-6.92,-7.00,$ALT,773.20,-227.30\r\n"
2022-03-12 19:33:17"||||||||||||-64,6969,$ACCEL,-0.58,-6.92,-7.00,$ALT,773.20,-227.30\r\n"
2022-03-12 19:33:17
"||||||||||||-64,6969,$GNRMC,193313.00046626,,B$GNGGA,193314.000,3429.6965,N,11657.5522,W,2,17,0.62,874.6,M,-31.0,M,,*4A\r`\r\n"
2022-03-12 19:33:18"||||||||||||-64,6969,$GNRMC,193313.00046626,,B$GNGGA,193314.000,3429.6965,N,11657.5522,W,2,17,0.62,874.6,M,-31.0,M,,*4A\r`\r\n"
2022-03-12 19:33:18
"||||||||||||-64,6969,$ACCEL,-0.57,-6.91,-6.99,$ALT,773.24,-227.32R\r\n"
2022-03-12 19:33:18"||||||||||||-64,6969,$ACCEL,-0.57,-6.91,-6.99,$ALT,773.24,-227.32R\r\n"
2022-03-12 19:33:18
"||||||||||||-64,6969,$GNRMC,193314.A615..3*$GNGGA,193315.000,3429.6965,N,11657.5522,W,2,17,0.62,874.6,M,-31.0,M,,*4B\r\r\n"
2022-03-12 19:33:19"||||||||||||-64,6969,$GNRMC,193314.A615..3*$GNGGA,193315.000,3429.6965,N,11657.5522,W,2,17,0.62,874.6,M,-31.0,M,,*4B\r\r\n"
2022-03-12 19:33:19
"||||||||||||-63,6969,$ACCEL,-0.57,-6.90,-6.99,$ALT,773.27,-227.34.6965,N,11657.5522,W,2,17,0.62,874.6,M,-31.0,M,,*4B\r\r\n"
2022-03-12 19:33:19"||||||||||||-63,6969,$ACCEL,-0.57,-6.90,-6.99,$ALT,773.27,-227.34.6965,N,11657.5522,W,2,17,0.62,874.6,M,-31.0,M,,*4B\r\r\n"
2022-03-12 19:33:19
"||||||||||||-63,6969,$GNRMC,193315.000A6150.3*$GNGGA,193316.000,3429.6965,N,11657.5522,W,2,16,0.66,874.6,M,-31.0,M,,*4D\r`\r\n"
2022-03-12 19:33:20"||||||||||||-63,6969,$GNRMC,193315.000A6150.3*$GNGGA,193316.000,3429.6965,N,11657.5522,W,2,16,0.66,874.6,M,-31.0,M,,*4D\r`\r\n"
2022-03-12 19:33:20
"||||||||||||-63,6969,$ACCEL,-0.57,-6.90,-6.99,$ALT,773.25,-227.32429.6965,N,11657.5522,W,2,16,0.66,874.6,M,-31.0,M,,*4D\r`\r\n"
2022-03-12 19:33:20"||||||||||||-63,6969,$ACCEL,-0.57,-6.90,-6.99,$ALT,773.25,-227.32429.6965,N,11657.5522,W,2,16,0.66,874.6,M,-31.0,M,,*4D\r`\r\n"
2022-03-12 19:33:20
"||||||||||||-63,6969,$GNRMC,193316.0002,7W,1,,$ALT,773.25,-2\r\n"
2022-03-12 19:33:20"||||||||||||-63,6969,$GNRMC,193316.0002,7W,1,,$ALT,773.25,-2\r\n"
2022-03-12 19:33:20
"||||||||||||-66,6969,$ACCEL,-0.58,-6.91,-6.98,$ALT,773.21,-227.34\r\n"
2022-03-12 19:33:21"||||||||||||-66,6969,$ACCEL,-0.58,-6.91,-6.98,$ALT,773.21,-227.34\r\n"
2022-03-12 19:33:21
"||||||||||||-66,6969,$ACCEL,-0.59,-6.89,-6.97,$ALT,773.15,-227.32\r\n"
2022-03-12 19:33:22"||||||||||||-66,6969,$ACCEL,-0.59,-6.89,-6.97,$ALT,773.15,-227.32\r\n"
2022-03-12 19:33:22
"||||||||||||-65,6969,$GNRMC,193317.0036620128$GNGGA,193318.000,3429.6965,N,11657.5522,W,2,16,0.66,874.6,M,-31.0,M,,*43\r\r\n"
2022-03-12 19:33:22"||||||||||||-65,6969,$GNRMC,193317.0036620128$GNGGA,193318.000,3429.6965,N,11657.5522,W,2,16,0.66,874.6,M,-31.0,M,,*43\r\r\n"
2022-03-12 19:33:22
"||||||||||||-64,6969,$ACCEL,-0.59,-6.89,-6.97,$ALT,773.21,-227.3229.6965,N,11657.5522,W,2,16,0.66,874.6,M,-31.0,M,,*43\r\r\n"
2022-03-12 19:33:22"||||||||||||-64,6969,$ACCEL,-0.59,-6.89,-6.97,$ALT,773.21,-227.3229.6965,N,11657.5522,W,2,16,0.66,874.6,M,-31.0,M,,*43\r\r\n"
2022-03-12 19:33:22
"||||||||||||-64,6969,$GNRMC,193318.000255,,1,,$ALT,773.21,-227.3229.6965,N,11657.5522,W,2,16,0.66,874.6,M,-31.0,M,,*43\r\r\n"
2022-03-12 19:33:22"||||||||||||-64,6969,$GNRMC,193318.000255,,1,,$ALT,773.21,-227.3229.6965,N,11657.5522,W,2,16,0.66,874.6,M,-31.0,M,,*43\r\r\n"
2022-03-12 19:33:22
"||||||||||||-64,6969,$ACCEL,-0.57,-6.90,-7.00,$ALT,773.17,-227.3329.6965,N,11657.5522,W,2,16,0.66,874.6,M,-31.0,M,,*43\r\r\n"
2022-03-12 19:33:23"||||||||||||-64,6969,$ACCEL,-0.57,-6.90,-7.00,$ALT,773.17,-227.3329.6965,N,11657.5522,W,2,16,0.66,874.6,M,-31.0,M,,*43\r\r\n"
2022-03-12 19:33:23
"||||||||||||-63,6969,$GNGGA,193319.000,3429.6965,N,11657.5522,W,2,16,0.66,874.6,M,-31.0,M,,*42\r66,874.6,M,-31.0,M,,*43\r\r\n"
2022-03-12 19:33:23"||||||||||||-63,6969,$GNGGA,193319.000,3429.6965,N,11657.5522,W,2,16,0.66,874.6,M,-31.0,M,,*42\r66,874.6,M,-31.0,M,,*43\r\r\n"
2022-03-12 19:33:23
"||||||||||||-63,6969,$ACCEL,-0.58,-6.90,-7.00,$ALT,773.18,-227.35\r\n"
2022-03-12 19:33:24"||||||||||||-63,6969,$ACCEL,-0.58,-6.90,-7.00,$ALT,773.18,-227.35\r\n"
2022-03-12 19:33:24
"||||||||||||-63,6969,$GNRMC,193319.00045522,,\r$GNGGA,193320.000,3429.6965,N,11657.5522,W,2,16,0.66,874.6,M,-,$1.36624129$GNGGA,193321.000,3 \r\n"
2022-03-12 19:33:24"||||||||||||-63,6969,$GNRMC,193319.00045522,,\r$GNGGA,193320.000,3429.6965,N,11657.5522,W,2,16,0.66,874.6,M,-,$1.36624129$GNGGA,193321.000,3 \r\n"
2022-03-12 19:33:24
"||||||||||||-65,6969,$ACCEL,-0.58,-6.89,-6.99,$ALT,773.20,-227.36429.6965,N,11657.5522,W,2,16,0.66,874.6,M,-,$1.36624129$GNGGA,193321.000,3 \r\n"
2022-03-12 19:33:25"||||||||||||-65,6969,$ACCEL,-0.58,-6.89,-6.99,$ALT,773.20,-227.36429.6965,N,11657.5522,W,2,16,0.66,874.6,M,-,$1.36624129$GNGGA,193321.000,3 \r\n"
2022-03-12 19:33:25
"||||||||||||-64,6969,$GNRMC,193321.000,A,34615.03*$GNGGA,193322.000,3429.6965,N,11657.5522,W,2,16,0.66,874.6,M,-31.0,M,,*,1,\r\n"
2022-03-12 19:33:25"||||||||||||-64,6969,$GNRMC,193321.000,A,34615.03*$GNGGA,193322.000,3429.6965,N,11657.5522,W,2,16,0.66,874.6,M,-31.0,M,,*,1,\r\n"
2022-03-12 19:33:25
"||||||||||||-65,6969,$ACCEL,-0.58,-6.89,-6.99,$ALT,773.17,-227.36\r\n"
2022-03-12 19:33:26"||||||||||||-65,6969,$ACCEL,-0.58,-6.89,-6.99,$ALT,773.17,-227.36\r\n"
2022-03-12 19:33:26
"||||||||||||-63,6969,$GNRMC,193323.000,A,34615.03*$GNGGA,193324.000,3429.6965,N,11657.5523,W,2,16,0.66,874.6,M,-31.0,M,,*4D\r@B\u000f\r\n"
2022-03-12 19:33:27"||||||||||||-63,6969,$GNRMC,193323.000,A,34615.03*$GNGGA,193324.000,3429.6965,N,11657.5523,W,2,16,0.66,874.6,M,-31.0,M,,*4D\r@B\u000f\r\n"
2022-03-12 19:33:27
"||||||||||||-65,6969,$ACCEL,-0.57,-6.90,-6.98,$ALT,773.16,-227.3700,3429.6965,N,11657.5523,W,2,16,0.66,874.6,M,-31.0,M,,*4D\r@B\u000f\r\n"
2022-03-12 19:33:28"||||||||||||-65,6969,$ACCEL,-0.57,-6.90,-6.98,$ALT,773.16,-227.3700,3429.6965,N,11657.5523,W,2,16,0.66,874.6,M,-31.0,M,,*4D\r@B\u000f\r\n"
2022-03-12 19:33:28
"||||||||||||-64,6969,$GNRMC,193324.000,A,3429.6965,N,11657.5523,W,0.03,41.01,120322,,*$GNGGA,193325.000,3429.6965,N,11657.5522,W,2,16,0.66, \r\n"
2022-03-12 19:33:29"||||||||||||-64,6969,$GNRMC,193324.000,A,3429.6965,N,11657.5523,W,0.03,41.01,120322,,*$GNGGA,193325.000,3429.6965,N,11657.5522,W,2,16,0.66, \r\n"
2022-03-12 19:33:29
"||||||||||||-63,6969,$ACCEL,-0.57,-6.90,-6.98,$ALT,773.19,-227.37R\r\n"
2022-03-12 19:33:29"||||||||||||-63,6969,$ACCEL,-0.57,-6.90,-6.98,$ALT,773.19,-227.37R\r\n"
2022-03-12 19:33:29
"||||||||||||-63,6969,$GNRMC,19332502,7W41,.98,$ALT,773.19,-227.37R\r\n"
2022-03-12 19:33:29"||||||||||||-63,6969,$GNRMC,19332502,7W41,.98,$ALT,773.19,-227.37R\r\n"
2022-03-12 19:33:29
"||||||||||||-63,6969,$ACCEL,-0.58,-6.90,-6.99,$ALT,773.18,-227.39R\r\n"
2022-03-12 19:33:30"||||||||||||-63,6969,$ACCEL,-0.58,-6.90,-6.99,$ALT,773.18,-227.39R\r\n"
2022-03-12 19:33:30
"||||||||||||-63,6969,$GNGGA,193326.000,3429.6965,N,11657.5522,W,2,16,0.66,874.6,M,-31.0,M,,*4E\r\r\n"
2022-03-12 19:33:30"||||||||||||-63,6969,$GNGGA,193326.000,3429.6965,N,11657.5522,W,2,16,0.66,874.6,M,-31.0,M,,*4E\r\r\n"
2022-03-12 19:33:30
"||||||||||||-63,6969,$ACCEL,-0.56,-6.90,-6.98,$ALT,773.16,-227.38,16,0.66,874.6,M,-31.0,M,,*4E\r\r\n"
2022-03-12 19:33:30"||||||||||||-63,6969,$ACCEL,-0.56,-6.90,-6.98,$ALT,773.16,-227.38,16,0.66,874.6,M,-31.0,M,,*4E\r\r\n"
2022-03-12 19:33:30
"||||||||||||-65,6969,$GNRMC,1$GNGGA,193327.000,3429.6965,N,11657.5522,W,2,16,0.66,874.6,M,-31.0,M,,*4F\r\r\n"
2022-03-12 19:33:31"||||||||||||-65,6969,$GNRMC,1$GNGGA,193327.000,3429.6965,N,11657.5522,W,2,16,0.66,874.6,M,-31.0,M,,*4F\r\r\n"
2022-03-12 19:33:31
"||||||||||||-63,6969,$ACCEL,-0.57,-6.90,-6.98,$ALT,773.15,-227.39\r\n"
2022-03-12 19:33:31"||||||||||||-63,6969,$ACCEL,-0.57,-6.90,-6.98,$ALT,773.15,-227.39\r\n"
2022-03-12 19:33:31
"||||||||||||-61,6969,$GNRMC,193327.000,A,3429.6965$GNGGA,193328.000,3429.6965,N,11657.5522,W,2,16,0.66,874.6,M,-31.0,M,,*40\r@B\u000f\r\n"
2022-03-12 19:33:32"||||||||||||-61,6969,$GNRMC,193327.000,A,3429.6965$GNGGA,193328.000,3429.6965,N,11657.5522,W,2,16,0.66,874.6,M,-31.0,M,,*40\r@B\u000f\r\n"
2022-03-12 19:33:32
"||||||||||||-63,6969,$ACCEL,-0.58,-6.89,-6.99,$ALT,773.18,-227.4100,3429.6965,N,11657.5522,W,2,16,0.66,874.6,M,-31.0,M,,*40\r@B\u000f\r\n"
2022-03-12 19:33:32"||||||||||||-63,6969,$ACCEL,-0.58,-6.89,-6.99,$ALT,773.18,-227.4100,3429.6965,N,11657.5522,W,2,16,0.66,874.6,M,-31.0,M,,*40\r@B\u000f\r\n"
2022-03-12 19:33:32
"||||||||||||-63,6969,$GNRMC,193328.000,A,3429.6965,N,1620122$GNGGA,193329.000,3429.6965,N,11657.5522,W,2,16,0.66,874.61*G902,7W,1,\r\n"
2022-03-12 19:33:33"||||||||||||-63,6969,$GNRMC,193328.000,A,3429.6965,N,1620122$GNGGA,193329.000,3429.6965,N,11657.5522,W,2,16,0.66,874.61*G902,7W,1,\r\n"
2022-03-12 19:33:33
"||||||||||||-63,6969,$ACCEL,-0.58,-6.89,-6.99,$ALT,773.21,-227.42A,193329.000,3429.6965,N,11657.5522,W,2,16,0.66,874.61*G902,7W,1,\r\n"
2022-03-12 19:33:33"||||||||||||-63,6969,$ACCEL,-0.58,-6.89,-6.99,$ALT,773.21,-227.42A,193329.000,3429.6965,N,11657.5522,W,2,16,0.66,874.61*G902,7W,1,\r\n"
2022-03-12 19:33:33
"||||||||||||-63,6969,$GNRMC,193330.000,A,34912.025$GNGGA,193331.000,3429.6965,N,11657.5523,W,2,16,0.66,874.6,M,-31.0,M,,*49\r@B\u000f\r\n"
2022-03-12 19:33:34"||||||||||||-63,6969,$GNRMC,193330.000,A,34912.025$GNGGA,193331.000,3429.6965,N,11657.5523,W,2,16,0.66,874.6,M,-31.0,M,,*49\r@B\u000f\r\n"
2022-03-12 19:33:34
"||||||||||||-63,6969,$ACCEL,-0.57,-6.92,-7.01,$ALT,773.18,-227.45\r\n"
2022-03-12 19:33:35"||||||||||||-63,6969,$ACCEL,-0.57,-6.92,-7.01,$ALT,773.18,-227.45\r\n"
2022-03-12 19:33:35
"||||||||||||-57,6969,$GNRMC,193331.000,A,39N.,10,$GNGGA,193332.000,3429.6965,N,11657.5523,W,2,17,0.62,874.6,M,-31.0,M,,*4F\r @B\u000f\r\n"
2022-03-12 19:33:35"||||||||||||-57,6969,$GNRMC,193331.000,A,39N.,10,$GNGGA,193332.000,3429.6965,N,11657.5523,W,2,17,0.62,874.6,M,-31.0,M,,*4F\r @B\u000f\r\n"
2022-03-12 19:33:35
"||||||||||||-63,6969,$ACCEL,-1.91,-5.42,-6.79,$ALT,773.26,-227.48\r\n"
2022-03-12 19:33:36"||||||||||||-63,6969,$ACCEL,-1.91,-5.42,-6.79,$ALT,773.26,-227.48\r\n"
2022-03-12 19:33:36
"||||||||||||-67,6969,$GNRMC,193332.0009N.,12,$GNGGA,193333.000,3429.6965,N,11657.5523,W,2,16,0.66,874.6,M,-31.0,M,,*4B\r\r\n"
2022-03-12 19:33:36"||||||||||||-67,6969,$GNRMC,193332.0009N.,12,$GNGGA,193333.000,3429.6965,N,11657.5523,W,2,16,0.66,874.6,M,-31.0,M,,*4B\r\r\n"
2022-03-12 19:33:36
"||||||||||||-59,6969,$ACCEL,-0.13,5.88,-4.34,$ALT,773.25,-227.49429.6965,N,11657.5523,W,2,16,0.66,874.6,M,-31.0,M,,*4B\r\r\n"
2022-03-12 19:33:37"||||||||||||-59,6969,$ACCEL,-0.13,5.88,-4.34,$ALT,773.25,-227.49429.6965,N,11657.5523,W,2,16,0.66,874.6,M,-31.0,M,,*4B\r\r\n"
2022-03-12 19:33:37
"||||||||||||-59,6969,$GNRMC,193333.,912.025$GNGGA,193334.000,3429.6965,N,11657.5523,W,2,16,0.66,874.6,M,-31.0,M,,*4C\r\r\n"
2022-03-12 19:33:37"||||||||||||-59,6969,$GNRMC,193333.,912.025$GNGGA,193334.000,3429.6965,N,11657.5523,W,2,16,0.66,874.6,M,-31.0,M,,*4C\r\r\n"
2022-03-12 19:33:37
"||||||||||||-60,6969,$ACCEL,0.06,9.54,-0.81,$ALT,773.32,-227.5229.6965,N,11657.5523,W,2,16,0.66,874.6,M,-31.0,M,,*4C\r\r\n"
2022-03-12 19:33:38"||||||||||||-60,6969,$ACCEL,0.06,9.54,-0.81,$ALT,773.32,-227.5229.6965,N,11657.5523,W,2,16,0.66,874.6,M,-31.0,M,,*4C\r\r\n"
2022-03-12 19:33:38
"||||||||||||-58,6969,$GNRMC,193334.000,A,349N.W42,$GNGGA,193335.000,3429.6965,N,11657.5523,W,2,16,0.66,874.6,M,-31.0,M,,*4D\r\r\n"
2022-03-12 19:33:38"||||||||||||-58,6969,$GNRMC,193334.000,A,349N.W42,$GNGGA,193335.000,3429.6965,N,11657.5523,W,2,16,0.66,874.6,M,-31.0,M,,*4D\r\r\n"
2022-03-12 19:33:38
"||||||||||||-58,6969,$ACCEL,0.06,9.54,-0.85,$ALT,773.33,-227.53B\u0001\r\n"
2022-03-12 19:33:39"||||||||||||-58,6969,$ACCEL,0.06,9.54,-0.85,$ALT,773.33,-227.53B\u0001\r\n"
2022-03-12 19:33:39
"||||||||||||-60,6969,$GNRMC,193335.003612012C$GNGGA,193336.000,3429.6965,N,11657.5523,W,2,16,0.66,874.6,M,-31.0,M,,*4E\r\r\n"
2022-03-12 19:33:39"||||||||||||-60,6969,$GNRMC,193335.003612012C$GNGGA,193336.000,3429.6965,N,11657.5523,W,2,16,0.66,874.6,M,-31.0,M,,*4E\r\r\n"
2022-03-12 19:33:39
"||||||||||||-59,6969,$ACCEL,0.06,9.54,-0.85,$ALT,773.32,-227.533429.6965,N,11657.5523,W,2,16,0.66,874.6,M,-31.0,M,,*4E\r\r\n"
2022-03-12 19:33:40"||||||||||||-59,6969,$ACCEL,0.06,9.54,-0.85,$ALT,773.32,-227.533429.6965,N,11657.5523,W,2,16,0.66,874.6,M,-31.0,M,,*4E\r\r\n"
2022-03-12 19:33:40
"||||||||||||-58,6969,$GNRMC,193336.002,7W41,$ALT,773.32,-227.533429.6965,N,11657.5523,W,2,16,0.66,874.6,M,-31.0,M,,*4E\r\r\n"
2022-03-12 19:33:40"||||||||||||-58,6969,$GNRMC,193336.002,7W41,$ALT,773.32,-227.533429.6965,N,11657.5523,W,2,16,0.66,874.6,M,-31.0,M,,*4E\r\r\n"
2022-03-12 19:33:40
"||||||||||||-60,6969,$ACCEL,0.06,9.53,-0.84,$ALT,773.28,-227.533429.6965,N,11657.5523,W,2,16,0.66,874.6,M,-31.0,M,,*4E\r\r\n"
2022-03-12 19:33:40"||||||||||||-60,6969,$ACCEL,0.06,9.53,-0.84,$ALT,773.28,-227.533429.6965,N,11657.5523,W,2,16,0.66,874.6,M,-31.0,M,,*4E\r\r\n"
2022-03-12 19:33:40
"||||||||||||-61,6969,$GNGGA,193337.000,3429.6962,N,11657.5525,W,2,17,0.62,874.6,M,-31.0,M,,*4B\r66,874.6,M,-31.0,M,,*4E\r\r\n"
2022-03-12 19:33:41"||||||||||||-61,6969,$GNGGA,193337.000,3429.6962,N,11657.5525,W,2,17,0.62,874.6,M,-31.0,M,,*4B\r66,874.6,M,-31.0,M,,*4E\r\r\n"
2022-03-12 19:33:41
"||||||||||||-63,6969,$ACCEL,0.05,9.54,-0.85,$ALT,773.33,-227.55B\u0001\r\n"
2022-03-12 19:33:41"||||||||||||-63,6969,$ACCEL,0.05,9.54,-0.85,$ALT,773.33,-227.55B\u0001\r\n"
2022-03-12 19:33:41
"||||||||||||-59,6969,$GNRMC,193337.0002,5,,,,\r$GNGGA,193338.000,3429.6961,N,11657.5525,W,2,17,0.62,874.6,M,-31.0,M,,*47\r`\r\n"
2022-03-12 19:33:42"||||||||||||-59,6969,$GNRMC,193337.0002,5,,,,\r$GNGGA,193338.000,3429.6961,N,11657.5525,W,2,17,0.62,874.6,M,-31.0,M,,*47\r`\r\n"
2022-03-12 19:33:42
"||||||||||||-63,6969,$ACCEL,0.06,9.55,-0.84,$ALT,773.35,-227.57,3429.6961,N,11657.5525,W,2,17,0.62,874.6,M,-31.0,M,,*47\r`\r\n"
2022-03-12 19:33:42"||||||||||||-63,6969,$ACCEL,0.06,9.55,-0.84,$ALT,773.35,-227.57,3429.6961,N,11657.5525,W,2,17,0.62,874.6,M,-31.0,M,,*47\r`\r\n"
2022-03-12 19:33:42
"||||||||||||-57,6969,$GNRMC,193338.00,.,5050,$GNGGA,193339.000,3429.6960,N,11657.5525,W,2,17,0.62,874.5,M,-31.0,M,,*44\r\r`\r\n"
2022-03-12 19:33:43"||||||||||||-57,6969,$GNRMC,193338.00,.,5050,$GNGGA,193339.000,3429.6960,N,11657.5525,W,2,17,0.62,874.5,M,-31.0,M,,*44\r\r`\r\n"
2022-03-12 19:33:43
"||||||||||||-58,6969,$ACCEL,0.06,9.54,-0.83,$ALT,773.29,-227.563429.6960,N,11657.5525,W,2,17,0.62,874.5,M,-31.0,M,,*44\r\r`\r\n"
2022-03-12 19:33:44"||||||||||||-58,6969,$ACCEL,0.06,9.54,-0.83,$ALT,773.29,-227.563429.6960,N,11657.5525,W,2,17,0.62,874.5,M,-31.0,M,,*44\r\r`\r\n"
2022-03-12 19:33:44
"||||||||||||-58,6969,$GNRMC,193339.00A6,5050D$GNGGA,193340.000,3429.6959,N,11657.5525,W,2,17,0.62,874.5,M,-1,G902,5,,,,\r$GNGGA,193341.000,3 \r\n"
2022-03-12 19:33:44"||||||||||||-58,6969,$GNRMC,193339.00A6,5050D$GNGGA,193340.000,3429.6959,N,11657.5525,W,2,17,0.62,874.5,M,-1,G902,5,,,,\r$GNGGA,193341.000,3 \r\n"
2022-03-12 19:33:44
"||||||||||||-76,6969,$ACCEL,0.05,9.54,-0.84,$ALT,773.29,-227.57B\u0001\r\n"
2022-03-12 19:33:45"||||||||||||-76,6969,$ACCEL,0.05,9.54,-0.84,$ALT,773.29,-227.57B\u0001\r\n"
2022-03-12 19:33:45
"||||||||||||-58,6969,$GNRMC,193341.000,A,345121326$GNGGA,193342.000,3429.6959,N,11657.5525,W,2,17,0.62,874.5,M,-31.0,M,,*42\r@B\u000f\r\n"
2022-03-12 19:33:45"||||||||||||-58,6969,$GNRMC,193341.000,A,345121326$GNGGA,193342.000,3429.6959,N,11657.5525,W,2,17,0.62,874.5,M,-31.0,M,,*42\r@B\u000f\r\n"
2022-03-12 19:33:45
"||||||||||||-68,6969,$ACCEL,0.06,9.51,-0.85,$ALT,773.36,-227.59.000,3429.6959,N,11657.5525,W,2,17,0.62,874.5,M,-31.0,M,,*42\r@B\u000f\r\n"
2022-03-12 19:33:46"||||||||||||-68,6969,$ACCEL,0.06,9.51,-0.85,$ALT,773.36,-227.59.000,3429.6959,N,11657.5525,W,2,17,0.62,874.5,M,-31.0,M,,*42\r@B\u000f\r\n"
2022-03-12 19:33:46
"||||||||||||-72,6969,$GNRMC,193342.00,.,5,92,$GNGGA,193343.000,3429.6959,N,11657.5525,W,2,17,0.62,874.5,M,-31.0,M,,*43\r,*42\r@B\u000f\r\n"
2022-03-12 19:33:46"||||||||||||-72,6969,$GNRMC,193342.00,.,5,92,$GNGGA,193343.000,3429.6959,N,11657.5525,W,2,17,0.62,874.5,M,-31.0,M,,*43\r,*42\r@B\u000f\r\n"
2022-03-12 19:33:46
"||||||||||||-64,6969,$ACCEL,0.08,9.54,-0.83,$ALT,773.41,-227.613429.6959,N,11657.5525,W,2,17,0.62,874.5,M,-31.0,M,,*43\r,*42\r@B\u000f\r\n"
2022-03-12 19:33:47"||||||||||||-64,6969,$ACCEL,0.08,9.54,-0.83,$ALT,773.41,-227.613429.6959,N,11657.5525,W,2,17,0.62,874.5,M,-31.0,M,,*43\r,*42\r@B\u000f\r\n"
2022-03-12 19:33:47
"||||||||||||-61,6969,$GNRMC,193343.000,912133*$GNGGA,193344.000,3429.6959,N,11657.5524,W,2,17,0.62,874.5,M,-31.0,M,,*45\r`\r\n"
2022-03-12 19:33:47"||||||||||||-61,6969,$GNRMC,193343.000,912133*$GNGGA,193344.000,3429.6959,N,11657.5524,W,2,17,0.62,874.5,M,-31.0,M,,*45\r`\r\n"
2022-03-12 19:33:47
"||||||||||||-63,6969,$ACCEL,0.06,9.53,-0.84,$ALT,773.39,-227.61,3429.6959,N,11657.5524,W,2,17,0.62,874.5,M,-31.0,M,,*45\r`\r\n"
2022-03-12 19:33:48"||||||||||||-63,6969,$ACCEL,0.06,9.53,-0.84,$ALT,773.39,-227.61,3429.6959,N,11657.5524,W,2,17,0.62,874.5,M,-31.0,M,,*45\r`\r\n"
2022-03-12 19:33:48
"||||||||||||-61,6969,$GNRMC,193344.000,A,3429.6959,N,11657.5524,W,0$GNGGA,193345.000,3429.6959,N,11657.5524,W,2,17,0.62,874.5,M,-31.0,M,,*4 \r\n"
2022-03-12 19:33:48"||||||||||||-61,6969,$GNRMC,193344.000,A,3429.6959,N,11657.5524,W,0$GNGGA,193345.000,3429.6959,N,11657.5524,W,2,17,0.62,874.5,M,-31.0,M,,*4 \r\n"
2022-03-12 19:33:48
"||||||||||||-71,6969,$ACCEL,0.06,9.55,-0.84,$ALT,773.40,-227.64B\u0001\r\n"
2022-03-12 19:33:51"||||||||||||-71,6969,$ACCEL,0.06,9.55,-0.84,$ALT,773.40,-227.64B\u0001\r\n"
2022-03-12 19:33:51
"||||||||||||-73,6969,$GNRMC,193347.000,A,3429.$GNGGA,193348.000,3429.6957,N,11657.5524,W,2,17,0.62,874.4,M,-31.0,M,,*46\r`\r\n"
2022-03-12 19:33:51"||||||||||||-73,6969,$GNRMC,193347.000,A,3429.$GNGGA,193348.000,3429.6957,N,11657.5524,W,2,17,0.62,874.4,M,-31.0,M,,*46\r`\r\n"
2022-03-12 19:33:51
"||||||||||||-60,6969,$ACCEL,0.06,9.55,-0.84,$ALT,773.42,-227.64\r\n"
2022-03-12 19:33:52"||||||||||||-60,6969,$ACCEL,0.06,9.55,-0.84,$ALT,773.42,-227.64\r\n"
2022-03-12 19:33:52
"||||||||||||-59,6969,$GNRMC,193348.000,A,3429.69,5,,,,\r\n"
2022-03-12 19:33:52"||||||||||||-59,6969,$GNRMC,193348.000,A,3429.69,5,,,,\r\n"
2022-03-12 19:33:52
"||||||||||||-60,6969,$ACCEL,0.08,9.55,-0.83,$ALT,773.41,-227.65\r\n"
2022-03-12 19:33:52"||||||||||||-60,6969,$ACCEL,0.08,9.55,-0.83,$ALT,773.41,-227.65\r\n"
2022-03-12 19:33:52
"||||||||||||-60,6969,$GNGGA,193349.000,3429.6956,N,11657.5524,W,2,17,0.62,874.4,M,-31.0,M,,*46\r\r\n"
2022-03-12 19:33:52"||||||||||||-60,6969,$GNGGA,193349.000,3429.6956,N,11657.5524,W,2,17,0.62,874.4,M,-31.0,M,,*46\r\r\n"
2022-03-12 19:33:52
"||||||||||||-59,6969,$ACCEL,0.07,9.55,-0.83,$ALT,773.46,-227.68\r\n"
2022-03-12 19:33:53"||||||||||||-59,6969,$ACCEL,0.07,9.55,-0.83,$ALT,773.46,-227.68\r\n"
2022-03-12 19:33:53
"||||||||||||-59,6969,$GNRMC,19334045645328$GNGGA,193350.000,3429.6957,N,11657.5524,W,2,17,0.62,874.4,M,-31.0,M,,*4F\r\r\n"
2022-03-12 19:33:53"||||||||||||-59,6969,$GNRMC,19334045645328$GNGGA,193350.000,3429.6957,N,11657.5524,W,2,17,0.62,874.4,M,-31.0,M,,*4F\r\r\n"
2022-03-12 19:33:53
"||||||||||||-60,6969,$ACCEL,0.05,9.55,-0.82,$ALT,773.49,-227.709.6957,N,11657.5524,W,2,17,0.62,874.4,M,-31.0,M,,*4F\r\r\n"
2022-03-12 19:33:54"||||||||||||-60,6969,$ACCEL,0.05,9.55,-0.82,$ALT,773.49,-227.709.6957,N,11657.5524,W,2,17,0.62,874.4,M,-31.0,M,,*4F\r\r\n"
2022-03-12 19:33:54
"||||||||||||-63,6969,$GNRMC,193350.00475,,,,2$GNGGA,193351.000,3429.6956,N,11657.5524,W,2,17,0.62,874.4,M,-31.0,M,,*4F\r\r\n"
2022-03-12 19:33:54"||||||||||||-63,6969,$GNRMC,193350.00475,,,,2$GNGGA,193351.000,3429.6956,N,11657.5524,W,2,17,0.62,874.4,M,-31.0,M,,*4F\r\r\n"
2022-03-12 19:33:54
"||||||||||||-61,6969,$ACCEL,0.07,9.53,-0.81,$ALT,773.49,-227.713429.6956,N,11657.5524,W,2,17,0.62,874.4,M,-31.0,M,,*4F\r\r\n"
2022-03-12 19:33:55"||||||||||||-61,6969,$ACCEL,0.07,9.53,-0.81,$ALT,773.49,-227.713429.6956,N,11657.5524,W,2,17,0.62,874.4,M,-31.0,M,,*4F\r\r\n"
2022-03-12 19:33:55
"||||||||||||-61,6969,$GNRMC,193351.0046643326$GNGGA,193352.000,3429.6955,N,11657.5524,W,2,17,0.62,874.4,.4R3,9N.,92,\r\n"
2022-03-12 19:33:55"||||||||||||-61,6969,$GNRMC,193351.0046643326$GNGGA,193352.000,3429.6955,N,11657.5524,W,2,17,0.62,874.4,.4R3,9N.,92,\r\n"
2022-03-12 19:33:55
"||||||||||||-63,6969,$ACCEL,0.07,9.53,-0.81,$ALT,773.51,-227.713429.6955,N,11657.5524,W,2,17,0.62,874.4,.4R3,9N.,92,\r\n"
2022-03-12 19:33:56"||||||||||||-63,6969,$ACCEL,0.07,9.53,-0.81,$ALT,773.51,-227.713429.6955,N,11657.5524,W,2,17,0.62,874.4,.4R3,9N.,92,\r\n"
2022-03-12 19:33:56
"||||||||||||-64,6969,$GNGGA,193353.000,3429.6955,N,11657.5524,W,2,17,0.62,874.4,M,-31.0,M,,*4E\r62,874.4,.4R3,9N.,92,\r\n"
2022-03-12 19:33:56"||||||||||||-64,6969,$GNGGA,193353.000,3429.6955,N,11657.5524,W,2,17,0.62,874.4,M,-31.0,M,,*4E\r62,874.4,.4R3,9N.,92,\r\n"
2022-03-12 19:33:56
"||||||||||||-63,6969,$ACCEL,0.07,9.54,-0.81,$ALT,773.52,-227.73B\u0001\r\n"
2022-03-12 19:33:57"||||||||||||-63,6969,$ACCEL,0.07,9.54,-0.81,$ALT,773.52,-227.73B\u0001\r\n"
2022-03-12 19:33:57
"||||||||||||-61,6969,$GNRMC,193353.000,A,34.,.,92,$GNGGA,193354.000,3429.6955,N,11657.5524,W,2,17,0.62,874.3,M,-31.0,M,,*4E\r@B\u000f\r\n"
2022-03-12 19:33:57"||||||||||||-61,6969,$GNRMC,193353.000,A,34.,.,92,$GNGGA,193354.000,3429.6955,N,11657.5524,W,2,17,0.62,874.3,M,-31.0,M,,*4E\r@B\u000f\r\n"
2022-03-12 19:33:57
"||||||||||||-61,6969,$ACCEL,0.06,9.54,-0.81,$ALT,773.61,-227.76.000,3429.6955,N,11657.5524,W,2,17,0.62,874.3,M,-31.0,M,,*4E\r@B\u000f\r\n"
2022-03-12 19:33:58"||||||||||||-61,6969,$ACCEL,0.06,9.54,-0.81,$ALT,773.61,-227.76.000,3429.6955,N,11657.5524,W,2,17,0.62,874.3,M,-31.0,M,,*4E\r@B\u000f\r\n"
2022-03-12 19:33:58
"||||||||||||-63,6969,$GNRMC,193354.000,455,,326$GNGGA,193355.000,3429.6954,N,11657.5523,W,2,17,0.62,874.4,M,-31.0,M,,*4E\r4E\r@B\u000f\r\n"
2022-03-12 19:33:58"||||||||||||-63,6969,$GNRMC,193354.000,455,,326$GNGGA,193355.000,3429.6954,N,11657.5523,W,2,17,0.62,874.4,M,-31.0,M,,*4E\r4E\r@B\u000f\r\n"
2022-03-12 19:33:58
"||||||||||||-61,6969,$ACCEL,0.06,9.56,-0.82,$ALT,773.54,-227.75B\u0001\r\n"
2022-03-12 19:33:59"||||||||||||-61,6969,$ACCEL,0.06,9.56,-0.82,$ALT,773.54,-227.75B\u0001\r\n"
2022-03-12 19:33:59
"||||||||||||-63,6969,$GNRMC,193355.00A615050D$GNGGA,193356.000,3429.6954,N,11657.5523,W,2,17,0.62,874.3,M,-31.0,M,,*4A\r\r\n"
2022-03-12 19:33:59"||||||||||||-63,6969,$GNRMC,193355.00A615050D$GNGGA,193356.000,3429.6954,N,11657.5523,W,2,17,0.62,874.3,M,-31.0,M,,*4A\r\r\n"
2022-03-12 19:33:59
"||||||||||||-64,6969,$ACCEL,0.06,9.55,-0.81,$ALT,773.50,-227.743429.6954,N,11657.5523,W,2,17,0.62,874.3,M,-31.0,M,,*4A\r\r\n"
2022-03-12 19:34:00"||||||||||||-64,6969,$ACCEL,0.06,9.55,-0.81,$ALT,773.50,-227.743429.6954,N,11657.5523,W,2,17,0.62,874.3,M,-31.0,M,,*4A\r\r\n"
2022-03-12 19:34:00
"||||||||||||-61,6969,$GNRMC,193356.00045636326$GNGGA,193357.000,3429.6954,N,11657.5523,W,2,17,0.62,874.3,M,-31.0,M,,*4B\r,\u0001\r\n"
2022-03-12 19:34:00"||||||||||||-61,6969,$GNRMC,193356.00045636326$GNGGA,193357.000,3429.6954,N,11657.5523,W,2,17,0.62,874.3,M,-31.0,M,,*4B\r,\u0001\r\n"
2022-03-12 19:34:00
"||||||||||||-59,6969,$ACCEL,0.05,9.55,-0.82,$ALT,773.53,-227.75,3429.6954,N,11657.5523,W,2,17,0.62,874.3,M,-31.0,M,,*4B\r,\u0001\r\n"
2022-03-12 19:34:01"||||||||||||-59,6969,$ACCEL,0.05,9.55,-0.82,$ALT,773.53,-227.75,3429.6954,N,11657.5523,W,2,17,0.62,874.3,M,-31.0,M,,*4B\r,\u0001\r\n"
2022-03-12 19:34:01
"||||||||||||-59,6969,$GNRMC,193357.000,A,34915..3*$GNGGA,193358.000,3429.6954,N,11657.5522,W,2,17,0.62,874.3,M,-31.0,M,,*45\r\r\n"
2022-03-12 19:34:01"||||||||||||-59,6969,$GNRMC,193357.000,A,34915..3*$GNGGA,193358.000,3429.6954,N,11657.5522,W,2,17,0.62,874.3,M,-31.0,M,,*45\r\r\n"
2022-03-12 19:34:01
"||||||||||||-61,6969,$ACCEL,0.05,9.55,-0.81,$ALT,773.49,-227.74.000,3429.6954,N,11657.5522,W,2,17,0.62,874.3,M,-31.0,M,,*45\r\r\n"
2022-03-12 19:34:02"||||||||||||-61,6969,$ACCEL,0.05,9.55,-0.81,$ALT,773.49,-227.74.000,3429.6954,N,11657.5522,W,2,17,0.62,874.3,M,-31.0,M,,*45\r\r\n"
2022-03-12 19:34:02
"||||||||||||-60,6969,$GNRMC,193358.0035121326$GNGGA,193359.000,3429.6954,N,11657.5522,W,2,17,0.62,874.3,M,-31.0,M,,*44\r\r\n"
2022-03-12 19:34:02"||||||||||||-60,6969,$GNRMC,193358.0035121326$GNGGA,193359.000,3429.6954,N,11657.5522,W,2,17,0.62,874.3,M,-31.0,M,,*44\r\r\n"
2022-03-12 19:34:02
"||||||||||||-66,6969,$ACCEL,0.06,9.54,-0.81,$ALT,773.56,-227.773429.6954,N,11657.5522,W,2,17,0.62,874.3,M,-31.0,M,,*44\r\r\n"
2022-03-12 19:34:03"||||||||||||-66,6969,$ACCEL,0.06,9.54,-0.81,$ALT,773.56,-227.773429.6954,N,11657.5522,W,2,17,0.62,874.3,M,-31.0,M,,*44\r\r\n"
2022-03-12 19:34:03
"||||||||||||-60,6969,$GNRMC,193359.000445,,32E$GNGGA,193400.000,3429.6955,N,11657.5522,W,2,17,0.62,874.3,M,-31.0,M,,*4E\r,\u0001\r\n"
2022-03-12 19:34:03"||||||||||||-60,6969,$GNRMC,193359.000445,,32E$GNGGA,193400.000,3429.6955,N,11657.5522,W,2,17,0.62,874.3,M,-31.0,M,,*4E\r,\u0001\r\n"
2022-03-12 19:34:03
"||||||||||||-57,6969,$ACCEL,0.06,9.53,-0.80,$ALT,773.53,-227.77,3429.6955,N,11657.5522,W,2,17,0.62,874.3,M,-31.0,M,,*4E\r,\u0001\r\n"
2022-03-12 19:34:04"||||||||||||-57,6969,$ACCEL,0.06,9.53,-0.80,$ALT,773.53,-227.77,3429.6955,N,11657.5522,W,2,17,0.62,874.3,M,-31.0,M,,*4E\r,\u0001\r\n"
2022-03-12 19:34:04
"||||||||||||-58,6969,$GNRMC,193400.0035626326$GNGGA,193401.000,3429.6955,N,11657.5521,W,2,17,0.62,874.3,M,-31.0,M,,*4C\r\r\n"
2022-03-12 19:34:04"||||||||||||-58,6969,$GNRMC,193400.0035626326$GNGGA,193401.000,3429.6955,N,11657.5521,W,2,17,0.62,874.3,M,-31.0,M,,*4C\r\r\n"
2022-03-12 19:34:04
"||||||||||||-59,6969,$ACCEL,0.06,9.54,-0.81,$ALT,773.57,-227.77B\u0001\r\n"
2022-03-12 19:34:05"||||||||||||-59,6969,$ACCEL,0.06,9.54,-0.81,$ALT,773.57,-227.77B\u0001\r\n"
2022-03-12 19:34:05
"||||||||||||-59,6969,$GNRMC,193401.0009N.W11,ALT,773.57,-227.77B\u0001\r\n"
2022-03-12 19:34:05"||||||||||||-59,6969,$GNRMC,193401.0009N.W11,ALT,773.57,-227.77B\u0001\r\n"
2022-03-12 19:34:05
"||||||||||||-58,6969,$ACCEL,0.06,9.54,-0.81,$ALT,773.53,-227.77B\u0001\r\n"
2022-03-12 19:34:05"||||||||||||-58,6969,$ACCEL,0.06,9.54,-0.81,$ALT,773.53,-227.77B\u0001\r\n"
2022-03-12 19:34:05
"||||||||||||-58,6969,$GNGGA,193402.000,3429.6955,N,11657.5521,W,2,17,0.62,874.3,M,-31.0,M,,*4F\r\r\n"
2022-03-12 19:34:05"||||||||||||-58,6969,$GNGGA,193402.000,3429.6955,N,11657.5521,W,2,17,0.62,874.3,M,-31.0,M,,*4F\r\r\n"
2022-03-12 19:34:05
"||||||||||||-58,6969,$ACCEL,0.06,9.55,-0.80,$ALT,773.54,-227.78,2,17,0.62,874.3,M,-31.0,M,,*4F\r\r\n"
2022-03-12 19:34:07"||||||||||||-58,6969,$ACCEL,0.06,9.55,-0.80,$ALT,773.54,-227.78,2,17,0.62,874.3,M,-31.0,M,,*4F\r\r\n"
2022-03-12 19:34:07
"||||||||||||-58,6969,$GNRMC,193402.02,7W1,,\r$GNGGA,193403.000,3429.6955,N,11657.5521,W,2,17,0.62,874.3,M,-31.0,M,,*4E\r\r\n"
2022-03-12 19:34:07"||||||||||||-58,6969,$GNRMC,193402.02,7W1,,\r$GNGGA,193403.000,3429.6955,N,11657.5521,W,2,17,0.62,874.3,M,-31.0,M,,*4E\r\r\n"
2022-03-12 19:34:07
"||||||||||||-58,6969,$ACCEL,0.05,9.54,-0.82,$ALT,773.55,-227.79B\u0001\r\n"
2022-03-12 19:34:08"||||||||||||-58,6969,$ACCEL,0.05,9.54,-0.82,$ALT,773.55,-227.79B\u0001\r\n"
2022-03-12 19:34:08
"||||||||||||-57,6969,$GNRMC,193403.00,912..3*$GNGGA,193404.000,3429.6955,N,11657.5520,W,2,17,0.62,874.3,M,-31.0,M,,*48\r\r\n"
2022-03-12 19:34:08"||||||||||||-57,6969,$GNRMC,193403.00,912..3*$GNGGA,193404.000,3429.6955,N,11657.5520,W,2,17,0.62,874.3,M,-31.0,M,,*48\r\r\n"
2022-03-12 19:34:08
"||||||||||||-63,6969,$ACCEL,0.06,9.54,-0.80,$ALT,773.54,-227.79B\u0001\r\n"
2022-03-12 19:34:10"||||||||||||-63,6969,$ACCEL,0.06,9.54,-0.80,$ALT,773.54,-227.79B\u0001\r\n"
2022-03-12 19:34:10
"||||||||||||-61,6969,$GNRMC,193404.00,.,5092,$GNGGA,193405.000,3429.6954,N,11657.5520,W,2,17,0.62,874.3,M,-1*N302,7W1,,\r$GNGGA,193406.000,3 \r\n"
2022-03-12 19:34:10"||||||||||||-61,6969,$GNRMC,193404.00,.,5092,$GNGGA,193405.000,3429.6954,N,11657.5520,W,2,17,0.62,874.3,M,-1*N302,7W1,,\r$GNGGA,193406.000,3 \r\n"
2022-03-12 19:34:10
"||||||||||||-60,6969,$ACCEL,0.06,9.55,-0.80,$ALT,773.58,-227.803429.6954,N,11657.5520,W,2,17,0.62,874.3,M,-1*N302,7W1,,\r$GNGGA,193406.000,3 \r\n"
2022-03-12 19:34:11"||||||||||||-60,6969,$ACCEL,0.06,9.55,-0.80,$ALT,773.58,-227.803429.6954,N,11657.5520,W,2,17,0.62,874.3,M,-1*N302,7W1,,\r$GNGGA,193406.000,3 \r\n"
2022-03-12 19:34:11
"||||||||||||-59,6969,$GNRMC,193406.000,A,342,7W1,,\r$GNGGA,193407.000,3429.6954,N,11657.5520,W,2,17,0.62,874.3,M,-31.0,M,,*4A\rA,193406.000,3 \r\n"
2022-03-12 19:34:11"||||||||||||-59,6969,$GNRMC,193406.000,A,342,7W1,,\r$GNGGA,193407.000,3429.6954,N,11657.5520,W,2,17,0.62,874.3,M,-31.0,M,,*4A\rA,193406.000,3 \r\n"
2022-03-12 19:34:11
"||||||||||||-61,6969,$ACCEL,0.07,9.55,-0.81,$ALT,773.64,-227.82\r\n"
2022-03-12 19:34:12"||||||||||||-61,6969,$ACCEL,0.07,9.55,-0.81,$ALT,773.64,-227.82\r\n"
2022-03-12 19:34:12
"||||||||||||-63,6969,$GNRMC,193407.00045607326$GNGGA,193408.000,3429.6954,N,11657.5520,W,2,17,0.62,874.3,M,-31.0,M,,*45\r`\r\n"
2022-03-12 19:34:12"||||||||||||-63,6969,$GNRMC,193407.00045607326$GNGGA,193408.000,3429.6954,N,11657.5520,W,2,17,0.62,874.3,M,-31.0,M,,*45\r`\r\n"
2022-03-12 19:34:12
"||||||||||||-59,6969,$ACCEL,0.06,9.54,-0.81,$ALT,773.66,-227.83,3429.6954,N,11657.5520,W,2,17,0.62,874.3,M,-31.0,M,,*45\r`\r\n"
2022-03-12 19:34:13"||||||||||||-59,6969,$ACCEL,0.06,9.54,-0.81,$ALT,773.66,-227.83,3429.6954,N,11657.5520,W,2,17,0.62,874.3,M,-31.0,M,,*45\r`\r\n"
2022-03-12 19:34:13
"||||||||||||-59,6969,$GNRMC,193408.00,9120.3*$GNGGA,193409.000,3429.6954,N,11657.5519,W,2,17,0.62,874.2,M,-31.0,M,,*4F\r\r\n"
2022-03-12 19:34:13"||||||||||||-59,6969,$GNRMC,193408.00,9120.3*$GNGGA,193409.000,3429.6954,N,11657.5519,W,2,17,0.62,874.2,M,-31.0,M,,*4F\r\r\n"
2022-03-12 19:34:13
"||||||||||||-60,6969,$ACCEL,0.08,9.54,-0.81,$ALT,773.65,-227.84\r\n"
2022-03-12 19:34:14"||||||||||||-60,6969,$ACCEL,0.08,9.54,-0.81,$ALT,773.65,-227.84\r\n"
2022-03-12 19:34:14
"||||||||||||-60,6969,$GNRMC,193409.000,A,3429.6954,N,11657.5519,W,$GNGGA,193410.000,3429.6954,N,11657.5519,W,2,17,0.62,874.2,M,-31.0,M,,*47\r\n"
2022-03-12 19:34:14"||||||||||||-60,6969,$GNRMC,193409.000,A,3429.6954,N,11657.5519,W,$GNGGA,193410.000,3429.6954,N,11657.5519,W,2,17,0.62,874.2,M,-31.0,M,,*47\r\n"
2022-03-12 19:34:14
"||||||||||||-60,6969,$ACCEL,0.06,9.54,-0.82,$ALT,773.68,-227.86,W,$GNGGA,193410.000,3429.6954,N,11657.5519,W,2,17,0.62,874.2,M,-31.0,M,,*47\r\n"
2022-03-12 19:34:15"||||||||||||-60,6969,$ACCEL,0.06,9.54,-0.82,$ALT,773.68,-227.86,W,$GNGGA,193410.000,3429.6954,N,11657.5519,W,2,17,0.62,874.2,M,-31.0,M,,*47\r\n"
2022-03-12 19:34:15
"||||||||||||-61,6969,$GNRMC,193410.000,A,3429.6954,$GNGGA,193411.000,3429.6954,N,11657.5519,W,2,17,0.62,874.2,M,-31.0,M,,*46\rB\u000f\r\n"
2022-03-12 19:34:15"||||||||||||-61,6969,$GNRMC,193410.000,A,3429.6954,$GNGGA,193411.000,3429.6954,N,11657.5519,W,2,17,0.62,874.2,M,-31.0,M,,*46\rB\u000f\r\n"
2022-03-12 19:34:15
"||||||||||||-60,6969,$ACCEL,0.06,9.54,-0.81,$ALT,773.62,-227.841.000,3429.6954,N,11657.5519,W,2,17,0.62,874.2,M,-31.0,M,,*46\rB\u000f\r\n"
2022-03-12 19:34:16"||||||||||||-60,6969,$ACCEL,0.06,9.54,-0.81,$ALT,773.62,-227.841.000,3429.6954,N,11657.5519,W,2,17,0.62,874.2,M,-31.0,M,,*46\rB\u000f\r\n"
2022-03-12 19:34:16
"||||||||||||-61,6969,$GNRMC,193411.000,A,3429.$GNGGA,193412.000,3429.6954,N,11657.5518,W,2,17,0.62,874.1,M,-31.0,M,,*47\r,*46\rB\u000f\r\n"
2022-03-12 19:34:16"||||||||||||-61,6969,$GNRMC,193411.000,A,3429.$GNGGA,193412.000,3429.6954,N,11657.5518,W,2,17,0.62,874.1,M,-31.0,M,,*47\r,*46\rB\u000f\r\n"
2022-03-12 19:34:16
"||||||||||||-61,6969,$ACCEL,0.04,9.54,-0.80,$ALT,773.53,-227.82\r\n"
2022-03-12 19:34:17"||||||||||||-61,6969,$ACCEL,0.04,9.54,-0.80,$ALT,773.53,-227.82\r\n"
2022-03-12 19:34:17
