"||||||||||||-55,6969,$ACCEL,0.26,0.11,9.93,$ALT,683.35,-209.12N,11748.5016,W,1,17,0.60,628.9,M,-29.4,M,,*42\r@B\u000f\r\n"2022-06-04 00:19:46
"||||||||||||-55,6969,$GNRMC,001943.000,A,3.,5,54,$GNGGA,001944.000,3520.8168,N,11748.5015,W,1,17,0.60,628.9,M,-29.4,M,,*46\r @B\u000f\r\n"2022-06-04 00:19:46
"||||||||||||-55,6969,$ACCEL,0.24,0.13,9.91,$ALT,682.07,-208.70\r\n"2022-06-04 00:19:47
"||||||||||||-56,6969,$GNRMC,0019402,8,,,,\r$GNGGA,001945.000,3520.8168,N,11748.5015,W,1,17,0.60,628.9,M,-29.4,M,,*47\r\r\n"2022-06-04 00:19:47
"||||||||||||-56,6969,$ACCEL,0.24,0.11,9.93,$ALT,682.32,-208.76\r\n"2022-06-04 00:19:48
"||||||||||||-55,6969,$GNRMC,001945.0,110..6*$GNGGA,001946.000,3520.8168,N,11748.5015,W,1,17,0.60,628.9,M,-29.4,M,,*44\r\r\n"2022-06-04 00:19:48
"||||||||||||-55,6969,$ACCEL,0.25,0.09,9.94,$ALT,681.63,-208.58\r\n"2022-06-04 00:19:49
"||||||||||||-55,6969,$GNRMC,001946.000,A,3810..0A$GNGGA,001947.000,3520.8168,N,11748.5016,W,1,17,0.60,628.8,M,-29.4,M,,*47\r \r\n"2022-06-04 00:19:49
"||||||||||||-55,6969,$ACCEL,0.28,0.11,9.93,$ALT,681.51,-208.52\r\n"2022-06-04 00:19:50
"||||||||||||-56,6969,$GNRMC,001947.000,A584,,,,E$GNGGA,001948.000,3520.8168,N,11748.5016,W,1,17,0.60,628.8,M,-29.4,M,,*48\r\r\n"2022-06-04 00:19:50
"||||||||||||-55,6969,$ACCEL,0.25,0.11,9.94,$ALT,680.74,-208.29000,3520.8168,N,11748.5016,W,1,17,0.60,628.8,M,-29.4,M,,*48\r\r\n"2022-06-04 00:19:51
"||||||||||||-55,6969,$GNRMC,001948.056765721$GNGGA,001949.000,3520.8169,N,11748.5017,W,1,17,0.60,628.8,M,-29.4,M,,*49\r*48\r\r\n"2022-06-04 00:19:51
"||||||||||||-56,6969,$ACCEL,0.25,0.11,9.94,$ALT,681.48,-208.533520.8169,N,11748.5017,W,1,17,0.60,628.8,M,-29.4,M,,*49\r*48\r\r\n"2022-06-04 00:19:51
"||||||||||||-55,6969,$GNRMC,001949.0000N.,54,LT,681.48,-208.\r\n"2022-06-04 00:19:51
"||||||||||||-55,6969,$ACCEL,0.25,0.10,9.93,$ALT,680.77,-208.33\r\n"2022-06-04 00:19:52
"||||||||||||-56,6969,$ACCEL,0.25,0.10,9.91,$ALT,681.44,-208.56\r\n"2022-06-04 00:19:53
"||||||||||||-55,6969,$GNRMC,001950.00594,,725$GNGGA,001951.000,3520.8168,N,11748.5019,W,1,17,0.60,628.8,M,-29.4,M,,*4F\r\r\n"2022-06-04 00:19:53
"||||||||||||-55,6969,$ACCEL,0.26,0.10,9.94,$ALT,681.81,-208.69\r\n"2022-06-04 00:19:54
"||||||||||||-55,6969,$GNRMC,001951.,.,5054,$GNGGA,001952.000,3520.8168,N,11748.5021,W,1,17,0.60,628.9,M,-29.4,M,,*46\r\r\n"2022-06-04 00:19:54
"||||||||||||-53,6969,$ACCEL,0.23,0.11,9.92,$ALT,682.24,-208.82520.8168,N,11748.5021,W,1,17,0.60,628.9,M,-29.4,M,,*46\r\r\n"2022-06-04 00:19:55
"||||||||||||-55,6969,$GNRMC,001952.00036710826$GNGGA,001953.000,3520.8168,N,11748.5023,W,1,17,0.60,628.9,M,-29M,,*46\r\r\n"2022-06-04 00:19:55
"||||||||||||-56,6969,$ACCEL,0.24,0.08,9.89,$ALT,681.37,-208.560,3520.8168,N,11748.5023,W,1,17,0.60,628.9,M,-29M,,*46\r\r\n"2022-06-04 00:19:56
"||||||||||||-57,6969,,.310..6*$GNGGA,001954.000,3520.8168,N,11748.5022,W,1,17,0.60,628.9,M,-29.4,M,,*43\r,M,-29M,,*46\r\r\n"2022-06-04 00:19:56
"||||||||||||-55,6969,$ACCEL,0.27,0.11,9.93,$ALT,681.06,-208.47748.5022,W,1,17,0.60,628.9,M,-29.4,M,,*43\r,M,-29M,,*46\r\r\n"2022-06-04 00:19:57
"||||||||||||-54,6969,$GNRMC,001954.000,A,35110..6*$GNGGA,001955.000,3520.8168,N,11748.5023,W,1,17,0.60,628.9,M,-29.4,M,,*43\r@B\u000f\r\n"2022-06-04 00:19:57
"||||||||||||-53,6969,$ACCEL,0.24,0.11,9.90,$ALT,680.99,-208.415.000,3520.8168,N,11748.5023,W,1,17,0.60,628.9,M,-29.4,M,,*43\r@B\u000f\r\n"2022-06-04 00:19:58
"||||||||||||-54,6969,$GNRMC,001955.0036737826$GNGGA,001956.000,3520.8168,N,11748.5023,W,1,16,0.62,628.9,M,-29.4,M,,*43\r,*43\r@B\u000f\r\n"2022-06-04 00:19:58
"||||||||||||-54,6969,$ACCEL,0.24,0.11,9.90,$ALT,681.23,-208.45,3520.8168,N,11748.5023,W,1,16,0.62,628.9,M,-29.4,M,,*43\r,*43\r@B\u000f\r\n"2022-06-04 00:19:58
"||||||||||||-55,6969,$GNRMC,001956.0000,8W20,LT,681.23,-208.45,3520.8168,N,11748.5023,W,1,16,0.62,628.9,M,-29.4,M,,*43\r,*43\r@B\u000f\r\n"2022-06-04 00:19:58
"||||||||||||-56,6969,$ACCEL,0.25,0.11,9.93,$ALT,682.14,-208.75,3520.8168,N,11748.5023,W,1,16,0.62,628.9,M,-29.4,M,,*43\r,*43\r@B\u000f\r\n"2022-06-04 00:19:59
"||||||||||||-55,6969,$ACCEL,0.24,0.08,9.90,$ALT,681.35,-208.52\r\n"2022-06-04 00:20:00
"||||||||||||-54,6969,$GNRMC,001957.000,A36731726$GNGGA,001958.000,3520.8169,N,11748.5024,W,1,17,0.60,629.0,M,-29.4,M,,*40\r\r\n"2022-06-04 00:20:00
"||||||||||||-54,6969,$ACCEL,0.24,0.09,9.90,$ALT,681.71,-208.66\r\n"2022-06-04 00:20:01
"||||||||||||-54,6969,$GNRMC,001958.000,59743725$GNGGA,001959.000,3520.8169,N,11748.5025,W,1,17,0.60,629.0,M,-29.4,M,,*40\r\r\n"2022-06-04 00:20:01
"||||||||||||-53,6969,$ACCEL,0.25,0.10,9.94,$ALT,681.75,-208.70\r\n"2022-06-04 00:20:02
"||||||||||||-55,6969,$GNRMC,001959.0,810..6*$GNGGA,002000.000,3520.8169,N,11748.5025,W,1,16,0.62,629.0,M,-2.4R200N.,54,\r\n"2022-06-04 00:20:02
"||||||||||||-54,6969,$ACCEL,0.26,0.11,9.93,$ALT,680.44,-208.293520.8169,N,11748.5025,W,1,16,0.62,629.0,M,-2.4R200N.,54,\r\n"2022-06-04 00:20:02
"||||||||||||-53,6969,$GNGGA,002001.000,3520.8169,N,11748.5025,W,1,17,0.60,629.1,M,-29.4,M,,*46\r2,629.0,M,-2.4R200N.,54,\r\n"2022-06-04 00:20:03
"||||||||||||-54,6969,$ACCEL,0.26,0.12,9.95,$ALT,681.48,-208.59\r\n"2022-06-04 00:20:03
"||||||||||||-55,6969,$GNRMC,002001.000,A,352,8W20,\r$GNGGA,002002.000,3520.8169,N,11748.5025,W,1,17,0.60,629.0,M,-29.4,M,,*44\rB\u000f\r\n"2022-06-04 00:20:04
"||||||||||||-55,6969,$ACCEL,0.26,0.11,9.94,$ALT,681.37,-208.5702.000,3520.8169,N,11748.5025,W,1,17,0.60,629.0,M,-29.4,M,,*44\rB\u000f\r\n"2022-06-04 00:20:04
"||||||||||||-55,6969,$GNRMC,002002.0,.,.,54,$GNGGA,002003.000,3520.8169,N,11748.5026,W,1,17,0.60,629.0,M,-29.4,M,,*46\r\r\n"2022-06-04 00:20:05
"||||||||||||-55,6969,$ACCEL,0.25,0.09,9.92,$ALT,681.49,-208.62\r\n"2022-06-04 00:20:05
"||||||||||||-56,6969,$GNRMC,002003.00,110..6*$GNGGA,002004.000,3520.8169,N,11748.5026,W,1,17,0.60,629.0,M,-29.4,M,,*41\r\r\n"2022-06-04 00:20:06
"||||||||||||-55,6969,$ACCEL,0.25,0.10,9.92,$ALT,682.04,-208.80,3520.8169,N,11748.5026,W,1,17,0.60,629.0,M,-29.4,M,,*41\r\r\n"2022-06-04 00:20:06
"||||||||||||-55,6969,$GNRMC,002004.0,0N.,54,$GNGGA,002005.000,3520.8169,N,11748.5026,W,1,17,0.60,629.0,M,-29.4,M,,*40\r\r\n"2022-06-04 00:20:07
"||||||||||||-55,6969,$ACCEL,0.23,0.10,9.93,$ALT,682.06,-208.833520.8169,N,11748.5026,W,1,17,0.60,629.0,M,-29.4,M,,*40\r\r\n"2022-06-04 00:20:07
"||||||||||||-55,6969,$GNRMC,002005.000,A,352810..0A$GNGGA,002006.000,3520.8169,N,11748.5026,W,1,17,0.60,629.1,M,-29.4,M,,*42\rB\u000f\r\n"2022-06-04 00:20:08
"||||||||||||-54,6969,$ACCEL,0.26,0.10,9.93,$ALT,681.91,-208.78\r\n"2022-06-04 00:20:08
"||||||||||||-55,6969,$GNRMC,002006.,.,5054,$GNGGA,002007.000,3520.8169,N,11748.5026,W,1,17,0.60,629.0,M,-29.4,M,,*42\r\r\n"2022-06-04 00:20:09
"||||||||||||-56,6969,$ACCEL,0.25,0.10,9.93,$ALT,681.20,-208.56520.8169,N,11748.5026,W,1,17,0.60,629.0,M,-29.4,M,,*42\r\r\n"2022-06-04 00:20:09
"||||||||||||-56,6969,$GNRMC,002007.000,.,5054,$GNGGA,002008.000,3520.8169,N,11748.5026,W,1,17,0.60,629.1,M,-29.4,M,,*4C\r`\r\n"2022-06-04 00:20:10
"||||||||||||-54,6969,$ACCEL,0.24,0.11,9.94,$ALT,681.47,-208.620,3520.8169,N,11748.5026,W,1,17,0.60,629.1,M,-29.4,M,,*4C\r`\r\n"2022-06-04 00:20:10
"||||||||||||-54,6969,$GNRMC,002008.00A815020A$GNGGA,002009.000,3520.8169,N,11748.5026,W,1,17,0.60,629.1,M,-29.4,M,,*4D\r\r`\r\n"2022-06-04 00:20:11
"||||||||||||-56,6969,$ACCEL,0.25,0.10,9.94,$ALT,681.98,-208.73,3520.8169,N,11748.5026,W,1,17,0.60,629.1,M,-29.4,M,,*4D\r\r`\r\n"2022-06-04 00:20:11
"||||||||||||-56,6969,$GNRMC,002009.00036762726$GNGGA,002010.000,3520.8170,N,11748.5026,W,1,17,0.60,629.1,M,-29.4,M,,*4D\r`\r\n"2022-06-04 00:20:12
"||||||||||||-54,6969,$ACCEL,0.25,0.11,9.91,$ALT,681.75,-208.640,3520.8170,N,11748.5026,W,1,17,0.60,629.1,M,-29.4,M,,*4D\r`\r\n"2022-06-04 00:20:12
"||||||||||||-54,6969,$GNRMC,002010.02,8W,,,\r$GNGGA,002011.000,3520.8169,N,11748.5026,W,1,17,0.60,629.0,M,-29.4,M,,*45\rD\r`\r\n"2022-06-04 00:20:13
"||||||||||||-54,6969,$ACCEL,0.26,0.08,9.89,$ALT,681.34,-208.56\r\n"2022-06-04 00:20:13
"||||||||||||-53,6969,$GNRMC,002011.0,110..6*$GNGGA,002012.000,3520.8169,N,11748.5027,W,1,16,0.61,629.0,M,-29.4,M,,*47\r\r\n"2022-06-04 00:20:14
"||||||||||||-53,6969,$ACCEL,0.24,0.09,9.92,$ALT,681.49,-208.623520.8169,N,11748.5027,W,1,16,0.61,629.0,M,-29.4,M,,*47\r\r\n"2022-06-04 00:20:14
"||||||||||||-54,6969,$GNRMC,002012.00036773720$GNGGA,002013.000,3520.8169,N,11748.5027,W,1,16,0.61,629.0,M,-29.4,M,,*46\r`\r\n"2022-06-04 00:20:15
"||||||||||||-54,6969,$ACCEL,0.28,0.12,9.97,$ALT,681.56,-208.640,3520.8169,N,11748.5027,W,1,16,0.61,629.0,M,-29.4,M,,*46\r`\r\n"2022-06-04 00:20:15
"||||||||||||-54,6969,$GNRMC,002013.00,.,5024,$GNGGA,002014.000,3520.8168,N,11748.5027,W,1,16,0.61,629.0,M,-29.4,M,,*40\r\r`\r\n"2022-06-04 00:20:16
"||||||||||||-54,6969,$ACCEL,0.25,0.11,9.94,$ALT,681.81,-208.69\r\n"2022-06-04 00:20:16
"||||||||||||-54,6969,$GNRMC,002014.0036720826$GNGGA,002015.000,3520.8168,N,11748.5025,W,1,16,0.61,629.0,M,-29.4,M,,*43\r\r\n"2022-06-04 00:20:17
"||||||||||||-54,6969,$ACCEL,0.25,0.11,9.91,$ALT,682.18,-208.82,3520.8168,N,11748.5025,W,1,16,0.61,629.0,M,-29.4,M,,*43\r\r\n"2022-06-04 00:20:17
"||||||||||||-55,6969,$GNRMC,002015.00A.,5020A$GNGGA,002016.000,3520.8168,N,11748.5025,W,2,16,0.61,629.0,M,-29.4,M,,*43\r\r\n"2022-06-04 00:20:18
"||||||||||||-54,6969,$ACCEL,0.27,0.12,9.93,$ALT,681.80,-208.69,3520.8168,N,11748.5025,W,2,16,0.61,629.0,M,-29.4,M,,*43\r\r\n"2022-06-04 00:20:18
"||||||||||||-57,6969,$GNRMC,002016.000,.,5020D$GNGGA,002017.000,3520.8168,N,11748.5024,W,2,15,0.64,629.0,M,-29.4,M,,*45\r,\u0001\r\n"2022-06-04 00:20:19
"||||||||||||-54,6969,$ACCEL,0.27,0.11,9.94,$ALT,681.89,-208.710,3520.8168,N,11748.5024,W,2,15,0.64,629.0,M,-29.4,M,,*45\r,\u0001\r\n"2022-06-04 00:20:19
"||||||||||||-54,6969,$GNRMC,002017.00,1120.6*$GNGGA,002018.000,3520.8168,N,11748.5023,W,2,15,0.64,629.0,M,-29.4,M,,*4D\r\r,\u0001\r\n"2022-06-04 00:20:20
"||||||||||||-54,6969,$ACCEL,0.28,0.11,9.94,$ALT,681.68,-208.67\r\n"2022-06-04 00:20:20
"||||||||||||-55,6969,$GNRMC,002018.0036738826$GNGGA,002019.000,3520.8167,N,11748.5022,W,2,15,0.64,629.0,M,-29.4,M,,*42\r\r\n"2022-06-04 00:20:21
"||||||||||||-54,6969,$ACCEL,0.24,0.09,9.89,$ALT,681.62,-208.65,3520.8167,N,11748.5022,W,2,15,0.64,629.0,M,-29.4,M,,*42\r\r\n"2022-06-04 00:20:21
"||||||||||||-54,6969,$GNRMC,002019.0031120826$GNGGA,002020.000,3520.8167,N,11748.5021,W,2,15,0.64,629.0,M,-29.4,M,,*4B\r\r\n"2022-06-04 00:20:22
"||||||||||||-54,6969,$ACCEL,0.24,0.09,9.89,$ALT,681.61,-208.64\r\n"2022-06-04 00:20:22
"||||||||||||-54,6969,$GNRMC,002020.00,8W20,$ALT,681.61,-208.64\r\n"2022-06-04 00:20:22
"||||||||||||-54,6969,$ACCEL,0.24,0.09,9.89,$ALT,681.84,-208.71\r\n"2022-06-04 00:20:23
"||||||||||||-54,6969,$GNRMC,002021.,.,5020,$GNGGA,002022.000,3520.8167,N,11748.5020,W,2,15,0.64,628.9,M,-29.4,M,,*40\r\r\n"2022-06-04 00:20:24
"||||||||||||-54,6969,$ACCEL,0.28,0.11,9.96,$ALT,681.33,-208.52520.8167,N,11748.5020,W,2,15,0.64,628.9,M,-29.4,M,,*40\r\r\n"2022-06-04 00:20:24
"||||||||||||-54,6969,$GNRMC,002022.000,A,110..6*$GNGGA,002023.000,3520.8166,N,11748.5020,W,2,15,0.64,628.9,M,-29.4,M,,*40\r\r\n"2022-06-04 00:20:25
"||||||||||||-55,6969,$ACCEL,0.24,0.10,9.91,$ALT,681.55,-208.56000,3520.8166,N,11748.5020,W,2,15,0.64,628.9,M,-29.4,M,,*40\r\r\n"2022-06-04 00:20:26
"||||||||||||-55,6969,$ACCEL,0.24,0.11,9.92,$ALT,680.83,-208.29\r\n"2022-06-04 00:20:27
"||||||||||||-55,6969,$GNRMC,002025.000,A,3264,,,,\r$GNGGA,002026.000,3520.8166,N,11748.5018,W,2,15,0.64,628.8,M,-29.4,M,,*4F\r@B\u000f\r\n"2022-06-04 00:20:27
"||||||||||||-54,6969,$ACCEL,0.25,0.10,9.91,$ALT,681.29,-208.41\r\n"2022-06-04 00:20:28
"||||||||||||-54,6969,$GNRMC,002026.000A810..6*$GNGGA,002027.000,3520.8166,N,11748.5018,W,2,15,0.64,628.7,M,-29.4,M,,*41\r,\u0001\r\n"2022-06-04 00:20:28
"||||||||||||-56,6969,$ACCEL,0.26,0.09,9.92,$ALT,681.29,-208.47\r\n"2022-06-04 00:20:29
"||||||||||||-56,6969,$GNRMC,002027.00264,,,,\r$GNGGA,002028.000,3520.8165,N,11748.5018,W,2,15,0.64,628.7,M,-29.4,M,,*4D\r\r\n"2022-06-04 00:20:29
"||||||||||||-54,6969,$ACCEL,0.27,0.12,9.92,$ALT,681.84,-208.62\r\n"2022-06-04 00:20:30
"||||||||||||-58,6969,$GNRMC,002028.000,A,3520.8165,N,11748.5018,W,0$GNGGA,002029.000,3520.8165,N,11748.5017,W,2,15,0.64,628.6,M,-29.4,M,,*4 \r\n"2022-06-04 00:20:30
"||||||||||||-54,6969,$ACCEL,0.27,0.11,9.96,$ALT,681.66,-208.548,W,0$GNGGA,002029.000,3520.8165,N,11748.5017,W,2,15,0.64,628.6,M,-29.4,M,,*4 \r\n"2022-06-04 00:20:31
"||||||||||||-54,6969,$GNRMC,002029.000,A,3520.8165$GNGGA,002030.000,3520.8165,N,11748.5016,W,2,15,0.64,628.6,M,-29.4,M,,*4B\r@B\u000f\r\n"2022-06-04 00:20:31
"||||||||||||-54,6969,$ACCEL,0.27,0.11,9.93,$ALT,682.15,-208.68\r\n"2022-06-04 00:20:32
"||||||||||||-54,6969,$GNRMC,002030.000,A,3520.$GNGGA,002031.000,3520.8165,N,11748.5015,W,2,16,0.61,628.5,M,-29.4,M,,*4C\r`\r\n"2022-06-04 00:20:32
"||||||||||||-56,6969,$ACCEL,0.26,0.09,9.90,$ALT,681.09,-208.31\r\n"2022-06-04 00:20:33
"||||||||||||-56,6969,$GNRMC,002031.000,A,3520$GNGGA,002032.000,3520.8165,N,11748.5015,W,2,16,0.61,628.4,M,-29.4,M,,*4E\r\r\n"2022-06-04 00:20:33
"||||||||||||-56,6969,$ACCEL,0.25,0.10,9.93,$ALT,680.98,-208.30\r\n"2022-06-04 00:20:34
"||||||||||||-55,6969,$GNRMC,002032.000,A,3520.N.W74,$GNGGA,002033.000,3520.8164,N,11748.5016,W,2,16,0.61,628.4,M,-29.4,M,,*4D\r\r\n"2022-06-04 00:20:34
"||||||||||||-56,6969,$ACCEL,0.25,0.10,9.93,$ALT,681.01,-208.30033.000,3520.8164,N,11748.5016,W,2,16,0.61,628.4,M,-29.4,M,,*4D\r\r\n"2022-06-04 00:20:35
"||||||||||||-57,6969,$GNRMC,002002,8W74,$GNGGA,002034.000,3520.8164,N,11748.5016,W,2,16,0.61,628.3,M,-29.4,M,,*4D\r\r\n"2022-06-04 00:20:35
"||||||||||||-57,6969,$ACCEL,0.27,0.11,9.92,$ALT,682.24,-208.70.8164,N,11748.5016,W,2,16,0.61,628.3,M,-29.4,M,,*4D\r\r\n"2022-06-04 00:20:36
"||||||||||||-57,6969,$GNRMC,002034.000,111.025$GNGGA,002035.000,3520.8164,N,11748.5015,W,2,16,0.61,628.3,M,-29.4,M,,*4F\r`\r\n"2022-06-04 00:20:36
"||||||||||||-57,6969,$ACCEL,0.24,0.11,9.93,$ALT,681.48,-208.46\r\n"2022-06-04 00:20:37
"||||||||||||-57,6969,$GNRMC,002035.,.,.,90D$GNGGA,002036.000,3520.8164,N,11748.5013,W,2,16,0.61,628.2,M,-29.4,M,,*4B\r\r\n"2022-06-04 00:20:37
"||||||||||||-56,6969,$ACCEL,0.26,0.09,9.92,$ALT,681.09,-208.30520.8164,N,11748.5013,W,2,16,0.61,628.2,M,-29.4,M,,*4B\r\r\n"2022-06-04 00:20:38
"||||||||||||-57,6969,$GNRMC,002036.000A8150.6*$GNGGA,002037.000,3520.8164,N,11748.5013,W,2,16,0.61,628.1,M,-29.4,M,,*49\r`\r\n"2022-06-04 00:20:38
"||||||||||||-57,6969,$ACCEL,0.26,0.11,9.92,$ALT,680.83,-208.230,3520.8164,N,11748.5013,W,2,16,0.61,628.1,M,-29.4,M,,*49\r`\r\n"2022-06-04 00:20:39
"||||||||||||-56,6969,$GNRMC,002037.0A810.02*$GNGGA,002038.000,3520.8164,N,11748.5013,W,2,16,0.61,628.1,M,-29.4,M,,*46\r9\r`\r\n"2022-06-04 00:20:39
"||||||||||||-57,6969,$ACCEL,0.25,0.11,9.93,$ALT,681.22,-208.393520.8164,N,11748.5013,W,2,16,0.61,628.1,M,-29.4,M,,*46\r9\r`\r\n"2022-06-04 00:20:40
"||||||||||||-56,6969,$GNRMC,002038.000,544,,,,\r$GNGGA,002039.000,3520.8164,N,11748.5013,W,2,16,0.61,628.0,M,-29.4,M,,*46\r\r\n"2022-06-04 00:20:40
"||||||||||||-57,6969,$ACCEL,0.26,0.09,9.95,$ALT,681.33,-208.44\r\n"2022-06-04 00:20:41
"||||||||||||-56,6969,$GNRMC,002039.0A8100.6*$GNGGA,002040.000,3520.8164,N,11748.5013,W,2,16,0.61,628.0,M,-29.4,M,,*48\r\r\n"2022-06-04 00:20:41
"||||||||||||-57,6969,$ACCEL,0.26,0.11,9.97,$ALT,681.16,-208.383520.8164,N,11748.5013,W,2,16,0.61,628.0,M,-29.4,M,,*48\r\r\n"2022-06-04 00:20:42
"||||||||||||-57,6969,$GNRMC,002040.000,111.025$GNGGA,002041.000,3520.8163,N,11748.5012,W,2,16,0.61,627.9,M,-29.4,M,,*49\r`\r\n"2022-06-04 00:20:42
"||||||||||||-57,6969,$ACCEL,0.24,0.11,9.91,$ALT,681.40,-208.45\r\n"2022-06-04 00:20:43
"||||||||||||-57,6969,$GNRMC,002041.02,8W74,$ALT,681.40,-208.45\r\n"2022-06-04 00:20:43
"||||||||||||-57,6969,$ACCEL,0.24,0.11,9.91,$ALT,683.87,-209.22\r\n"2022-06-04 00:20:43
"||||||||||||-56,6969,$GNGGA,002042.000,3520.8163,N,11748.5012,W,2,15,0.62,627.8,M,-29.4,M,,*4B\r\r\n"2022-06-04 00:20:43
"||||||||||||-57,6969,$ACCEL,0.27,0.11,9.95,$ALT,682.87,-208.85\r\n"2022-06-04 00:20:44
"||||||||||||-57,6969,$GNRMC,002042.0036111822$GNGGA,002043.000,3520.8163,N,11748.5013,W,2,15,0.62,627.8,M,-29.4,M,,*4B\r\r\n"2022-06-04 00:20:44
"||||||||||||-57,6969,$ACCEL,0.27,0.10,9.95,$ALT,681.99,-208.59,3520.8163,N,11748.5013,W,2,15,0.62,627.8,M,-29.4,M,,*4B\r\r\n"2022-06-04 00:20:45
"||||||||||||-56,6969,$GNRMC,002043.00,.,50.6*$GNGGA,002044.000,3520.8162,N,11748.5014,W,2,15,0.62,627.7,M,-29.4,M,,*45\r\r\n"2022-06-04 00:20:45
