"Feather LoRa RX Test!\r\n"2022-06-04 14:12:53
"LoRa radio init OK!\r\n"2022-06-04 14:12:53
"Set Freq to: 915.00\r\n"2022-06-04 14:12:53
"||||||||||||-53,6969,$ACCEL,-0.21,1.30,-9.84,$ALT,658.91,-196.87\u0001\r\n"2022-06-04 14:12:54
"||||||||||||-53,6969,$GNRMC,141249.00,11140D$GNGGA,141250.000,3520.8105,N,11748.4911,W,2,13,0.71,631.8,M,-29.4,M,,*44\r\r\n"2022-06-04 14:12:54
"||||||||||||-55,6969,$ACCEL,-0.23,1.31,-9.86,$ALT,658.86,-196.86\u0001\r\n"2022-06-04 14:12:55
"||||||||||||-55,6969,$GNRMC,141250.000554,,26$GNGGA,141251.000,3520.8105,N,11748.4911,W,2,13,0.71,631.9,M,.4R2,.,.,04,$GNGGA,141252.000,352 \r\n"2022-06-04 14:12:55
"||||||||||||-55,6969,$ACCEL,-0.24,1.29,-9.87,$ALT,658.80,-196.84520.8105,N,11748.4911,W,2,13,0.71,631.9,M,.4R2,.,.,04,$GNGGA,141252.000,352 \r\n"2022-06-04 14:12:56
"||||||||||||-53,6969,$GNRMC,141252.000,A,3.,4064,$GNGGA,141253.000,3520.8105,N,11748.4911,W,2,13,0.71,631.8,M,-29.4,M,,*47\rA,141252.000,352 \r\n"2022-06-04 14:12:56
"||||||||||||-54,6969,$ACCEL,-0.24,1.29,-9.87,$ALT,658.58,-196.76\u0005R\r\n"2022-06-04 14:12:57
"||||||||||||-53,6969,$GNRMC,141253.0,119..6*$GNGGA,141254.000,3520.8105,N,11748.4910,W,2,13,0.71,631.9,M,-29.4,M,,*40\r\r\n"2022-06-04 14:12:57
"||||||||||||-55,6969,$ACCEL,-0.22,1.30,-9.88,$ALT,658.78,-196.8220.8105,N,11748.4910,W,2,13,0.71,631.9,M,-29.4,M,,*40\r\r\n"2022-06-04 14:12:58
"||||||||||||-53,6969,$GNRMC,141254.0030713726$GNGGA,141255.000,3520.8105,N,11748.4910,W,2,13,0.71,631.9,M,-29.4,M,,*41\r\r\n"2022-06-04 14:12:58
"||||||||||||-54,6969,$ACCEL,-0.23,1.31,-9.86,$ALT,658.67,-196.80520.8105,N,11748.4910,W,2,13,0.71,631.9,M,-29.4,M,,*41\r\r\n"2022-06-04 14:12:59
"||||||||||||-54,6969,$GNRMC,141255.000,A,3520.8105,N,11748.4910,W,0.29$GNGGA,141256.000,3520.8105,N,11748.4911,W,2,14,0.69,631.9,M,-29.4,M, \r\n"2022-06-04 14:13:00
"||||||||||||-50,6969,$ACCEL,-0.24,1.31,-9.84,$ALT,658.64,-196.79\u0001\r\n"2022-06-04 14:13:00
"||||||||||||-52,6969,$GNRMC,141256.000,A,3520.810$GNGGA,141257.000,3520.8104,N,11748.4911,W,2,14,0.69,631.8,M,-29.4,M,,*4C\r @B\u000f\r\n"2022-06-04 14:13:01
"||||||||||||-51,6969,$ACCEL,-0.23,1.30,-9.84,$ALT,658.59,-196.7700,3520.8104,N,11748.4911,W,2,14,0.69,631.8,M,-29.4,M,,*4C\r @B\u000f\r\n"2022-06-04 14:13:01
"||||||||||||-52,6969,$GNRMC,141257.000,A,352$GNGGA,141258.000,3520.8104,N,11748.4911,W,2,14,0.69,631.8,M,-29.4,M,,*43\r,*4C\r @B\u000f\r\n"2022-06-04 14:13:02
"||||||||||||-50,6969,$ACCEL,-0.24,1.31,-9.85,$ALT,658.60,-196.79\u0001\r\n"2022-06-04 14:13:02
"||||||||||||-53,6969,$GNRMC,141258.000,A,352,$GNGGA,141259.000,3520.8104,N,11748.4911,W,2,14,0.69,631.8,M,-29.4,M,,*42\r\r\n"2022-06-04 14:13:03
"||||||||||||-52,6969,$ACCEL,-0.23,1.31,-9.86,$ALT,658.74,-196.82520.8104,N,11748.4911,W,2,14,0.69,631.8,M,-29.4,M,,*42\r\r\n"2022-06-04 14:13:03
"||||||||||||-52,6969,$GNRMC,141259.000,A,352111.0D$GNGGA,141300.000,3520.8103,N,11748.4909,W,2,14,0.69,632.1,M,-29.4,M,,*4B\r@B\u000f\r\n"2022-06-04 14:13:04
"||||||||||||-52,6969,$ACCEL,-0.23,1.29,-9.85,$ALT,658.81,-196.80000,3520.8103,N,11748.4909,W,2,14,0.69,632.1,M,-29.4,M,,*4B\r@B\u000f\r\n"2022-06-04 14:13:04
"||||||||||||-53,6969,$GNRMC,141300A819030D$GNGGA,141301.000,3520.8103,N,11748.4909,W,2,14,0.69,632.0,M,-29.4,M,,*4B\r,M,,*4B\r@B\u000f\r\n"2022-06-04 14:13:05
"||||||||||||-54,6969,$ACCEL,-0.23,1.29,-9.85,$ALT,658.75,-196.77\u0001\r\n"2022-06-04 14:13:05
"||||||||||||-53,6969,$GNRMC,141301.002,8W10,\r$GNGGA,141302.000,3520.8103,N,11748.4909,W,2,14,0.69,632.0,M,-29.4,M,,*48\r\r\n"2022-06-04 14:13:06
"||||||||||||-53,6969,$ACCEL,-0.23,1.29,-9.85,$ALT,658.70,-196.74520.8103,N,11748.4909,W,2,14,0.69,632.0,M,-29.4,M,,*48\r\r\n"2022-06-04 14:13:06
"||||||||||||-53,6969,$GNRMC,141302.00N.W10,5,$ALT,658.70,-196.74520.8103,N,11748.4909,W,2,14,0.69,632.0,M,-29.4,M,,*48\r\r\n"2022-06-04 14:13:06
"||||||||||||-53,6969,$ACCEL,-0.25,1.30,-9.87,$ALT,658.74,-196.76520.8103,N,11748.4909,W,2,14,0.69,632.0,M,-29.4,M,,*48\r\r\n"2022-06-04 14:13:07
"||||||||||||-53,6969,$GNGGA,141303.000,3520.8102,N,11748.4909,W,2,14,0.69,632.0,M,-29.4,M,,*48\r\r\n"2022-06-04 14:13:07
"||||||||||||-57,6969,$ACCEL,-0.24,1.28,-9.89,$ALT,658.51,-196.702,14,0.69,632.0,M,-29.4,M,,*48\r\r\n"2022-06-04 14:13:08
"||||||||||||-54,6969,$GNRMC,141303.02,8,,,,\r$GNGGA,141304.000,3520.8102,N,11748.4909,W,2,14,0.69,631.9,M,-29.4,M,,*45\r\r\n"2022-06-04 14:13:08
"||||||||||||-54,6969,$ACCEL,-0.23,1.30,-9.85,$ALT,658.73,-196.76\u0001\r\n"2022-06-04 14:13:09
"||||||||||||-53,6969,$GNRMC,141304.,819..6*$GNGGA,141305.000,3520.8101,N,11748.4908,W,2,14,0.69,631.8,M,-29.4,M,,*47\r\r\n"2022-06-04 14:13:09
"||||||||||||-56,6969,$ACCEL,-0.23,1.29,-9.80,$ALT,658.71,-196.77\u0001\r\n"2022-06-04 14:13:10
"||||||||||||-52,6969,$GNRMC,141305.00514,5327$GNGGA,141306.000,3520.8101,N,11748.4908,W,2,14,0.69,631.8,M,44M3,.,4030,$GNGGA,141307.000,352 \r\n"2022-06-04 14:13:10
"||||||||||||-53,6969,$ACCEL,-0.24,1.31,-9.84,$ALT,658.64,-196.75\u0005R\r\n"2022-06-04 14:13:11
"||||||||||||-53,6969,$GNRMC,141307.000,A,0N.,14,T,658.64,-19\r\n"2022-06-04 14:13:11
"||||||||||||-52,6969,$ACCEL,-0.24,1.31,-9.84,$ALT,658.90,-196.83\u0001\r\n"2022-06-04 14:13:11
"||||||||||||-51,6969,$ACCEL,-0.24,1.30,-9.88,$ALT,658.79,-196.80\u0001\r\n"2022-06-04 14:13:12
"||||||||||||-50,6969,$GNRMC,141308.0030713526$GNGGA,141309.000,3520.8101,N,11748.4910,W,2,14,0.69,631.6,M,-29.4,M,,*4C\r\r\n"2022-06-04 14:13:12
"||||||||||||-53,6969,$ACCEL,-0.23,1.30,-9.87,$ALT,658.78,-196.80\u0001\r\n"2022-06-04 14:13:13
"||||||||||||-50,6969,$GNRMC,141309.0030711526$GNGGA,141310.000,3520.8101,N,11748.4911,W,2,14,0.69,631.5,M,-29.4,M,,*46\r\r\n"2022-06-04 14:13:13
"||||||||||||-52,6969,$ACCEL,-0.23,1.31,-9.87,$ALT,658.71,-196.77\u0001\r\n"2022-06-04 14:13:14
"||||||||||||-52,6969,$GNRMC,141310.000,A,3520.8101,N,11748.4911,W,0.1$GNGGA,141311.000,3520.8100,N,11748.4911,W,2,14,0.69,631.4,M,-29.4,M,, \r\n"2022-06-04 14:13:15
"||||||||||||-53,6969,$ACCEL,-0.23,1.31,-9.87,$ALT,658.71,-196.78\u0005R\r\n"2022-06-04 14:13:15
"||||||||||||-54,6969,$GNGGA,141312.000,3520.8100,N,11748.4911,W,2,14,0.69,631.4,M,-29.4,M,,*44\r\r\n"2022-06-04 14:13:15
"||||||||||||-51,6969,$GNRMC,141312.000,A,3.N.,84,$GNGGA,141313.000,3520.8099,N,11748.4912,W,2,14,0.69,631.3,M,-29.4,M,,*40\r @B\u000f\r\n"2022-06-04 14:13:16
"||||||||||||-54,6969,$ACCEL,-0.23,1.31,-9.87,$ALT,658.75,-196.7900,3520.8099,N,11748.4912,W,2,14,0.69,631.3,M,-29.4,M,,*40\r @B\u000f\r\n"2022-06-04 14:13:17
"||||||||||||-51,6969,$GNRMC,141313.002,8W1,,\r$GNGGA,141314.000,3520.8099,N,11748.4913,W,2,14,0.69,631.2,M,-29.4,M,,*47\r*40\r @B\u000f\r\n"2022-06-04 14:13:17
"||||||||||||-54,6969,$ACCEL,-0.25,1.30,-9.90,$ALT,658.60,-196.74520.8099,N,11748.4913,W,2,14,0.69,631.2,M,-29.4,M,,*47\r*40\r @B\u000f\r\n"2022-06-04 14:13:18
"||||||||||||-52,6969,$GNRMC,141314.00594,,,,\r$GNGGA,141315.000,3520.8099,N,11748.4913,W,2,14,0.69,631.1,M,-29.4,M,,*45\r\r\n"2022-06-04 14:13:18
"||||||||||||-53,6969,$ACCEL,-0.23,1.30,-9.84,$ALT,658.70,-196.78\u0001\r\n"2022-06-04 14:13:19
"||||||||||||-53,6969,$GNRMC,1411A8,4050D$GNGGA,141316.000,3520.8099,N,11748.4914,W,2,14,0.69,631.0,M,-29.4,M,,*40\r\r\n"2022-06-04 14:13:19
"||||||||||||-55,6969,$ACCEL,-0.24,1.31,-9.82,$ALT,658.68,-196.77099,N,11748.4914,W,2,14,0.69,631.0,M,-29.4,M,,*40\r\r\n"2022-06-04 14:13:20
"||||||||||||-54,6969,$GNRMC,141316.000,A,594,,,,E$GNGGA,141317.000,3520.8098,N,11748.4914,W,2,14,0.69,630.9,M,-29.4,M,,*48\r @B\u000f\r\n"2022-06-04 14:13:20
"||||||||||||-54,6969,$ACCEL,-0.23,1.31,-9.85,$ALT,658.71,-196.78\u0001\r\n"2022-06-04 14:13:21
"||||||||||||-53,6969,$GNRMC,141317.A814090D$GNGGA,141318.000,3520.8098,N,11748.4914,W,2,14,0.69,630.9,M,-29.4,M,,*47\r\r\n"2022-06-04 14:13:21
"||||||||||||-56,6969,$ACCEL,-0.23,1.31,-9.87,$ALT,658.91,-196.840.8098,N,11748.4914,W,2,14,0.69,630.9,M,-29.4,M,,*47\r\r\n"2022-06-04 14:13:22
"||||||||||||-55,6969,$GNRMC,141318.0A819.90D$GNGGA,141319.000,3520.8097,N,11748.4914,W,2,14,0.69,630.8,M,-29.4,M,,*48\r\r\n"2022-06-04 14:13:22
"||||||||||||-53,6969,$ACCEL,-0.23,1.30,-9.84,$ALT,658.81,-196.8120.8097,N,11748.4914,W,2,14,0.69,630.8,M,-29.4,M,,*48\r\r\n"2022-06-04 14:13:23
"||||||||||||-54,6969,$GNRMC,141319.00,011222*$GNGGA,141320.000,3520.8096,N,11748.4912,W,2,14,0.69,631.1,M,-29.4,M,,*4D\r\r\n"2022-06-04 14:13:23
"||||||||||||-52,6969,$ACCEL,-0.23,1.29,-9.85,$ALT,658.77,-196.79520.8096,N,11748.4912,W,2,14,0.69,631.1,M,-29.4,M,,*4D\r\r\n"2022-06-04 14:13:24
"||||||||||||-54,6969,$GNRMC,141320.00,0115326$GNGGA,141321.000,3520.8095,N,11748.4911,W,2,14,0.69,631.1,M,-29.4,M,,*4C\r\r\n"2022-06-04 14:13:24
"||||||||||||-53,6969,$ACCEL,-0.24,1.32,-9.87,$ALT,658.78,-196.80520.8095,N,11748.4911,W,2,14,0.69,631.1,M,-29.4,M,,*4C\r\r\n"2022-06-04 14:13:25
"||||||||||||-52,6969,$GNRMC,141321.,011..6*$GNGGA,141322.000,3520.8094,N,11748.4910,W,2,14,0.69,631.1,M,-29.4,M,,*4F\rC\r\r\n"2022-06-04 14:13:25
"||||||||||||-53,6969,$ACCEL,-0.24,1.30,-9.84,$ALT,658.72,-196.78\u0001\r\n"2022-06-04 14:13:26
"||||||||||||-52,6969,$GNRMC,141322.00,011..6*$GNGGA,141323.000,3520.8094,N,11748.4909,W,2,14,0.69,631.2,M,-29.4,M,,*45\r\r\n"2022-06-04 14:13:26
"||||||||||||-52,6969,$ACCEL,-0.22,1.31,-9.86,$ALT,658.56,-196.74520.8094,N,11748.4909,W,2,14,0.69,631.2,M,-29.4,M,,*45\r\r\n"2022-06-04 14:13:27
"||||||||||||-52,6969,$GNRMC,141323.0,.,4014,$GNGGA,141324.000,3520.8093,N,11748.4907,W,2,14,0.69,631.3,M,-29.4,M,,*4A\r\r\n"2022-06-04 14:13:27
"||||||||||||-53,6969,$ACCEL,-0.25,1.31,-9.84,$ALT,658.59,-196.7620.8093,N,11748.4907,W,2,14,0.69,631.3,M,-29.4,M,,*4A\r\r\n"2022-06-04 14:13:28
"||||||||||||-52,6969,$GNRMC,141324.00,.,4080D$GNGGA,141325.000,3520.8092,N,11748.4906,W,2,14,0.69,631.4,M,-29.4,M,,*4C\r\r\n"2022-06-04 14:13:28
"||||||||||||-54,6969,$ACCEL,-0.24,1.30,-9.83,$ALT,658.64,-196.78\u0001\r\n"2022-06-04 14:13:29
"||||||||||||-53,6969,$GNRMC,141325.002,8W10,\r$GNGGA,141326.000,3520.8091,N,11748.4906,W,2,14,0.69,631.4,M,-29.4,M,,*4C\r\r\n"2022-06-04 14:13:29
"||||||||||||-55,6969,$ACCEL,-0.23,1.30,-9.82,$ALT,658.60,-196.77520.8091,N,11748.4906,W,2,14,0.69,631.4,M,-29.4,M,,*4C\r\r\n"2022-06-04 14:13:30
"||||||||||||-54,6969,$GNRMC,141326.00514,,,,1$GNGGA,141327.000,3520.8091,N,11748.4905,W,2,14,0.69,631.3,M,-29.4,M,,*49\r\r\n"2022-06-04 14:13:30
"||||||||||||-54,6969,$ACCEL,-0.23,1.29,-9.84,$ALT,658.59,-196.78520.8091,N,11748.4905,W,2,14,0.69,631.3,M,-29.4,M,,*49\r\r\n"2022-06-04 14:13:31
"||||||||||||-53,6969,$GNRMC,141327.0514,,,,\r$GNGGA,141328.000,3520.8090,N,11748.4905,W,2,14,0.69,631.3,M,-29.4,M,,*47\r\r\r\n"2022-06-04 14:13:31
"||||||||||||-53,6969,$ACCEL,-0.23,1.29,-9.84,$ALT,658.56,-196.7720.8090,N,11748.4905,W,2,14,0.69,631.3,M,-29.4,M,,*47\r\r\r\n"2022-06-04 14:13:32
"||||||||||||-54,6969,$GNRMC,141328.000N.,10,,$ALT,658.56,-196.7720.8090,N,11748.4905,W,2,14,0.69,631.3,M,-29.4,M,,*47\r\r\r\n"2022-06-04 14:13:32
"||||||||||||-52,6969,$ACCEL,-0.24,1.32,-9.85,$ALT,658.55,-196.7820.8090,N,11748.4905,W,2,14,0.69,631.3,M,-29.4,M,,*47\r\r\r\n"2022-06-04 14:13:32
"||||||||||||-54,6969,$GNGGA,141329.000,3520.8090,N,11748.4905,W,2,14,0.69,631.2,M,-29.4,M,,*47\r9,631.3,M,-29.4,M,,*47\r\r\r\n"2022-06-04 14:13:32
"||||||||||||-52,6969,$ACCEL,-0.23,1.31,-9.82,$ALT,658.68,-196.81\u0001\r\n"2022-06-04 14:13:33
"||||||||||||-53,6969,$GNRMC,141329A819080D$GNGGA,141330.000,3520.8089,N,11748.4905,W,2,14,0.69,631.1,M,-29.4,M,,*44\r\r\n"2022-06-04 14:13:33
"||||||||||||-51,6969,$ACCEL,-0.24,1.29,-9.86,$ALT,658.67,-196.81\u0005R\r\n"2022-06-04 14:13:34
"||||||||||||-51,6969,$GNRMC,141330.000294,,,,\r$GNGGA,141331.000,3520.8088,N,11748.4905,W,2,14,0.69,631.1,M,-29.4,M,,*44\r,\u0001\r\n"2022-06-04 14:13:34
"||||||||||||-52,6969,$ACCEL,-0.23,1.30,-9.84,$ALT,658.55,-196.793520.8088,N,11748.4905,W,2,14,0.69,631.1,M,-29.4,M,,*44\r,\u0001\r\n"2022-06-04 14:13:37
"||||||||||||-53,6969,$GNRMC,141331.0A819..0D$GNGGA,141332.000,3520.8088,N,11748.4905,W,2,14,0.69,631.0,M,M\rC2,0102.6*$GNGGA,141333.000,3520 \r\n"2022-06-04 14:13:37
"||||||||||||-53,6969,$ACCEL,-0.23,1.30,-9.86,$ALT,658.44,-196.7520.8088,N,11748.4905,W,2,14,0.69,631.0,M,M\rC2,0102.6*$GNGGA,141333.000,3520 \r\n"2022-06-04 14:13:38
"||||||||||||-51,6969,$GNRMC,141333.000,A,38753526$GNGGA,141334.000,3520.8087,N,11748.4906,W,2,14,0.69,630.8,M,-29.4,M,,*45\r,141333.000,3520 \r\n"2022-06-04 14:13:38
"||||||||||||-54,6969,$ACCEL,-0.24,1.29,-9.86,$ALT,658.35,-196.74\u0001\r\n"2022-06-04 14:13:39
"||||||||||||-51,6969,$GNRMC,141334.00A814030D$GNGGA,141335.000,3520.8087,N,11748.4906,W,2,14,0.69,630.8,M,-29.4,M,,*44\r\r\n"2022-06-04 14:13:39
"||||||||||||-48,6969,$ACCEL,-0.18,1.28,-9.62,$ALT,658.42,-196.77520.8087,N,11748.4906,W,2,14,0.69,630.8,M,-29.4,M,,*44\r\r\n"2022-06-04 14:13:40
"||||||||||||-50,6969,$GNRMC,141335.00057460325$GNGGA,141336.000,3520.8086,N,11748.4906,W,2,14,0.69,630.7,M,-29.4,M,,*49\r`\r\n"2022-06-04 14:13:40
"||||||||||||-48,6969,$ACCEL,-0.28,1.31,-9.93,$ALT,658.31,-196.73\u0001\r\n"2022-06-04 14:13:41
"||||||||||||-48,6969,$GNRMC,141336.000,A,3520.8086,N,11748.4906,W,0.$GNGGA,141337.000,3520.8085,N,11748.4906,W,2,14,0.69,630.6,M,-29.4,M,,*\r\n"2022-06-04 14:13:41
"||||||||||||-49,6969,$ACCEL,-0.23,1.28,-9.92,$ALT,658.14,-196.66W,0.$GNGGA,141337.000,3520.8085,N,11748.4906,W,2,14,0.69,630.6,M,-29.4,M,,*\r\n"2022-06-04 14:13:42
"||||||||||||-50,6969,$GNRMC,141337.000,A,3520.808$GNGGA,141338.000,3520.8085,N,11748.4906,W,2,14,0.69,630.5,M,-29.4,M,,*46\r0.6,M,-29.4,M,,*\r\n"2022-06-04 14:13:42
"||||||||||||-50,6969,$ACCEL,-0.20,1.31,-9.75,$ALT,658.21,-196.63\u0005R\r\n"2022-06-04 14:13:43
"||||||||||||-51,6969,$GNRMC,141338.000,A,3520$GNGGA,141339.000,3520.8085,N,11748.4907,W,2,14,0.69,630.4,M,-29.4,M,,*47\r\r\n"2022-06-04 14:13:43
"||||||||||||-50,6969,$ACCEL,-0.21,1.29,-9.85,$ALT,658.20,-196.60\u0001\r\n"2022-06-04 14:13:44
"||||||||||||-50,6969,$GNRMC,141339.000,A,30N.,$GNGGA,141340.000,3520.8084,N,11748.4907,W,2,14,0.69,630.2,M,-29.4,M,,*4E\r`\r\n"2022-06-04 14:13:44
"||||||||||||-48,6969,$ACCEL,-0.24,1.29,-9.87,$ALT,658.20,-196.57\u0001\r\n"2022-06-04 14:13:45
"||||||||||||-50,6969,$GNRMC,141340.000,A5447682E$GNGGA,141341.000,3520.8084,N,11748.4907,W,2,14,0.69,630.2,M,-29.4,M,,*4F\r\r\n"2022-06-04 14:13:45
"||||||||||||-50,6969,$ACCEL,-0.23,1.31,-9.84,$ALT,658.22,-196.55\u0005R\r\n"2022-06-04 14:13:46
"||||||||||||-50,6969,$GNRMC,144,.,4070D$GNGGA,141342.000,3520.8084,N,11748.4907,W,2,14,0.69,630.1,M,-29.4,M,,*4F\r\r\n"2022-06-04 14:13:46
"||||||||||||-49,6969,$ACCEL,-0.24,1.30,-9.86,$ALT,658.08,-196.4984,N,11748.4907,W,2,14,0.69,630.1,M,-29.4,M,,*4F\r\r\n"2022-06-04 14:13:47
"||||||||||||-50,6969,$GNRMC,141342.A.,4070D$GNGGA,141343.000,3520.8084,N,11748.4910,W,2,14,0.69,630.0,M,-29.4,M,,*49\r\r\n"2022-06-04 14:13:47
"||||||||||||-51,6969,$ACCEL,-0.23,1.30,-9.84,$ALT,658.18,-196.480.8084,N,11748.4910,W,2,14,0.69,630.0,M,-29.4,M,,*49\r\r\n"2022-06-04 14:13:48
"||||||||||||-52,6969,$GNRMC,141343.000A.,4080D$GNGGA,141344.000,3520.8083,N,11748.4911,W,2,14,0.69,629.9,M,-29.4,M,,*49\r,\u0001\r\n"2022-06-04 14:13:48
"||||||||||||-50,6969,$ACCEL,-0.23,1.30,-9.84,$ALT,658.13,-196.45\u0001\r\n"2022-06-04 14:13:49
"||||||||||||-50,6969,$GNRMC,141344.0,.,4044,$GNGGA,141345.000,3520.8083,N,11748.4910,W,2,14,0.69,629.8,M,-29.4,M,,*48\r\r\n"2022-06-04 14:13:49
"||||||||||||-49,6969,$ACCEL,-0.22,1.30,-9.84,$ALT,658.19,-196.45\u0001\r\n"2022-06-04 14:13:50
"||||||||||||-49,6969,$GNRMC,141345.A.,4040D$GNGGA,141346.000,3520.8083,N,11748.4912,W,2,14,0.69,629.8,M,-29.4,M,,*49\r\r\n"2022-06-04 14:13:50
"||||||||||||-50,6969,$ACCEL,-0.24,1.30,-9.86,$ALT,658.07,-196.41\u0001\r\n"2022-06-04 14:13:51
"||||||||||||-51,6969,$GNRMC,141346.000,2,8W,,,\r$GNGGA,141347.000,3520.8083,N,11748.4912,W,2,14,0.69,629.8,M,-29.4,M,,*48\r\r\n"2022-06-04 14:13:51
"||||||||||||-51,6969,$ACCEL,-0.23,1.29,-9.84,$ALT,658.01,-196.36\u0001\r\n"2022-06-04 14:13:52
"||||||||||||-52,6969,$GNRMC,141347.0038729626$GNGGA,141348.000,3520.8083,N,11748.4912,W,2,14,0.69,629.7,M,-29.4,M,,*48\r\r\n"2022-06-04 14:13:52
"||||||||||||-50,6969,$ACCEL,-0.25,1.30,-9.84,$ALT,657.96,-196.32520.8083,N,11748.4912,W,2,14,0.69,629.7,M,-29.4,M,,*48\r\r\n"2022-06-04 14:13:53
"||||||||||||-50,6969,$GNRMC,141348.0,019..6*$GNGGA,141349.000,3520.8083,N,11748.4912,W,2,14,0.69,629.7,M,-29.4,M,,*49\r\r\n"2022-06-04 14:13:53
"||||||||||||-50,6969,$ACCEL,-0.24,1.30,-9.84,$ALT,658.27,-196.4020.8083,N,11748.4912,W,2,14,0.69,629.7,M,-29.4,M,,*49\r\r\n"2022-06-04 14:13:54
"||||||||||||-52,6969,$ACCEL,-0.23,1.29,-9.84,$ALT,658.34,-196.4320.8083,N,11748.4912,W,2,14,0.69,629.7,M,-29.4,M,,*49\r\r\n"2022-06-04 14:13:55
"||||||||||||-52,6969,$GNRMC,141350.0224,,,,\r$GNGGA,141351.000,3520.8079,N,11748.4914,W,2,14,0.69,629.6,M,-29.4,M,,*42\r\r\n"2022-06-04 14:13:55
"||||||||||||-51,6969,$ACCEL,-0.22,1.29,-9.85,$ALT,658.18,-196.3720.8079,N,11748.4914,W,2,14,0.69,629.6,M,-29.4,M,,*42\r\r\n"2022-06-04 14:13:56
"||||||||||||-53,6969,$GNRMC,141351.05974452E$GNGGA,141352.000,3520.8078,N,11748.4916,W,2,14,0.69,629.5,M,-29.4,M,,*41\r\r\n"2022-06-04 14:13:56
"||||||||||||-52,6969,$ACCEL,-0.22,1.30,-9.84,$ALT,658.27,-196.40\u0005R\r\n"2022-06-04 14:13:57
"||||||||||||-52,6969,$GNRMC,141352.0037713326$GNGGA,141353.000,3520.8078,N,11748.4917,W,2,14,0.69,629.5,M,-29.4,M,,*41\r\r\n"2022-06-04 14:13:57
"||||||||||||-49,6969,$ACCEL,-0.23,1.29,-9.85,$ALT,658.39,-196.43520.8078,N,11748.4917,W,2,14,0.69,629.5,M,-29.4,M,,*41\r\r\n"2022-06-04 14:13:58
"||||||||||||-50,6969,$GNRMC,141353.0,011332*$GNGGA,141354.000,3520.8077,N,11748.4917,W,2,14,0.69,629.4,M,-29.4,M,,*48\r\r\r\n"2022-06-04 14:13:58
"||||||||||||-51,6969,$ACCEL,-0.23,1.31,-9.86,$ALT,658.38,-196.42\u0005R\r\n"2022-06-04 14:13:59
"||||||||||||-52,6969,$GNRMC,141354.0A8,4080D$GNGGA,141355.000,3520.8077,N,11748.4919,W,2,14,0.69,629.3,M,-29.4,M,,*40\r\r\n"2022-06-04 14:13:59
"||||||||||||-53,6969,$ACCEL,-0.25,1.31,-9.86,$ALT,658.40,-196.42\u0001\r\n"2022-06-04 14:14:00
"||||||||||||-54,6969,$GNRMC,141355.000,37796526$GNGGA,141356.000,3520.8076,N,11748.4922,W,2,14,0.69,629.2,M,-29.4,M,,*4B\r\r\n"2022-06-04 14:14:00
"||||||||||||-54,6969,$ACCEL,-0.23,1.30,-9.85,$ALT,658.54,-196.46,3520.8076,N,11748.4922,W,2,14,0.69,629.2,M,-29.4,M,,*4B\r\r\n"2022-06-04 14:14:01
"||||||||||||-53,6969,$GNRMC,141356.00564,,,24$GNGGA,141357.000,3520.8075,N,11748.4923,W,2,14,0.69,629.2,M,-29.4,M,,*48\rB\r\r\n"2022-06-04 14:14:01
"||||||||||||-51,6969,$ACCEL,-0.21,1.30,-9.85,$ALT,658.43,-196.41520.8075,N,11748.4923,W,2,14,0.69,629.2,M,-29.4,M,,*48\rB\r\r\n"2022-06-04 14:14:02
"||||||||||||-52,6969,$GNRMC,1413570554,,,21$GNGGA,141358.000,3520.8074,N,11748.4925,W,2,14,0.69,629.2,M,-29.4,M,,*40\r8\rB\r\r\n"2022-06-04 14:14:02
"||||||||||||-52,6969,$ACCEL,-0.22,1.28,-9.85,$ALT,658.51,-196.430.8074,N,11748.4925,W,2,14,0.69,629.2,M,-29.4,M,,*40\r8\rB\r\r\n"2022-06-04 14:14:03
"||||||||||||-53,6969,$GNRMC,141358.0,012332*$GNGGA,141359.000,3520.8072,N,11748.4927,W,2,14,0.69,629.2,M,-29.4,M,,*45\r\rB\r\r\n"2022-06-04 14:14:03
"||||||||||||-52,6969,$ACCEL,-0.25,1.29,-9.87,$ALT,658.40,-196.40\u0001\r\n"2022-06-04 14:14:04
"||||||||||||-54,6969,$GNRMC,141359.0037777526$GNGGA,141400.000,3520.8070,N,11748.4928,W,2,14,0.69,629.1,M,-29.4,M,,*40\r\r\n"2022-06-04 14:14:04
"||||||||||||-53,6969,$ACCEL,-0.22,1.31,-9.84,$ALT,658.44,-196.39520.8070,N,11748.4928,W,2,14,0.69,629.1,M,-29.4,M,,*40\r\r\n"2022-06-04 14:14:05
"||||||||||||-53,6969,$GNRMC,141400.002,8W10,\r$GNGGA,141401.000,3520.8070,N,11748.4929,W,2,14,0.69,629.1,M,-29.4,M,,*40\r\r\n"2022-06-04 14:14:05
"||||||||||||-53,6969,$ACCEL,-0.23,1.30,-9.85,$ALT,658.51,-196.43\u0001\r\n"2022-06-04 14:14:06
"||||||||||||-53,6969,$GNRMC,141401.037124326$GNGGA,141402.000,3520.8069,N,11748.4931,W,2,14,0.69,629.0,M,-29.4,M,,*43\r\r\n"2022-06-04 14:14:06
"||||||||||||-51,6969,$ACCEL,-0.22,1.26,-9.77,$ALT,658.77,-196.5420.8069,N,11748.4931,W,2,14,0.69,629.0,M,-29.4,M,,*43\r\r\n"2022-06-04 14:14:07
"||||||||||||-51,6969,$GNRMC,141402.0002,8W1,,\r$GNGGA,141403.000,3520.8069,N,11748.4932,W,2,14,0.69,628.9,M,-29.4,M,,*49\r,\u0001\r\n"2022-06-04 14:14:07
"||||||||||||-52,6969,$ACCEL,-0.21,1.28,-9.78,$ALT,658.78,-196.563520.8069,N,11748.4932,W,2,14,0.69,628.9,M,-29.4,M,,*49\r,\u0001\r\n"2022-06-04 14:14:08
"||||||||||||-53,6969,$GNRMC,141403.00A819..6D$GNGGA,141404.000,3520.8068,N,11748.4933,W,2,14,0.69,628.9,M,-29.4,M,,*4E\r\r,\u0001\r\n"2022-06-04 14:14:08
"||||||||||||-49,6969,$ACCEL,-0.22,1.30,-9.81,$ALT,658.74,-196.56520.8068,N,11748.4933,W,2,14,0.69,628.9,M,-29.4,M,,*4E\r\r,\u0001\r\n"2022-06-04 14:14:09
"||||||||||||-50,6969,$GNRMC,141404.,0NW,,,\r$GNGGA,141405.000,3520.8066,N,11748.4935,W,2,14,0.69,628.9,M,-29.4,M,,*47\rE\r\r,\u0001\r\n"2022-06-04 14:14:09
"||||||||||||-52,6969,$ACCEL,-0.25,1.31,-9.88,$ALT,658.71,-196.560.8066,N,11748.4935,W,2,14,0.69,628.9,M,-29.4,M,,*47\rE\r\r,\u0001\r\n"2022-06-04 14:14:10
"||||||||||||-52,6969,$GNRMC,141405.00564,521$GNGGA,141406.000,3520.8064,N,11748.4936,W,2,14,0.69,628.8,M,-29.4,M,,*44\r\r\n"2022-06-04 14:14:10
"||||||||||||-55,6969,$ACCEL,-0.21,1.30,-9.84,$ALT,658.71,-196.5720.8064,N,11748.4936,W,2,14,0.69,628.8,M,-29.4,M,,*44\r\r\n"2022-06-04 14:14:11
"||||||||||||-55,6969,$GNRMC,141406.000,,01390D$GNGGA,141407.000,3520.8064,N,11748.4935,W,2,14,0.69,628.8,M,-29.4,M,,*46\r,\u0001\r\n"2022-06-04 14:14:11
"||||||||||||-55,6969,$ACCEL,-0.21,1.30,-9.84,$ALT,658.71,-196.573520.8064,N,11748.4935,W,2,14,0.69,628.8,M,-29.4,M,,*46\r,\u0001\r\n"2022-06-04 14:14:11
"||||||||||||-55,6969,$GNRMC,141407.0,.,4,444,$ALT,658.71,-19\r\n"2022-06-04 14:14:11
"||||||||||||-54,6969,$ACCEL,-0.22,1.29,-9.83,$ALT,658.85,-196.62\u0001\r\n"2022-06-04 14:14:12
"||||||||||||-57,6969,$ACCEL,-0.22,1.29,-9.83,$ALT,658.76,-196.59\u0005R\r\n"2022-06-04 14:14:12
"||||||||||||-56,6969,$GNRMC,141408.000N.,10,,$ALT,658.76,-19\r\n"2022-06-04 14:14:12
"||||||||||||-54,6969,$ACCEL,-0.23,1.30,-9.84,$ALT,658.71,-196.59\u0001\r\n"2022-06-04 14:14:13
"||||||||||||-53,6969,$GNRMC,141409.0,.,4060,$GNGGA,141410.000,3520.8062,N,11748.4932,W,2,14,0.69,628.5,M,-29.4,M,,*4C\r\r\n"2022-06-04 14:14:14
"||||||||||||-53,6969,$ACCEL,-0.23,1.29,-9.84,$ALT,658.70,-196.6020.8062,N,11748.4932,W,2,14,0.69,628.5,M,-29.4,M,,*4C\r\r\n"2022-06-04 14:14:14
"||||||||||||-53,6969,$GNRMC,141410.0000N8W10,$ALT,658.70,-19\r\n"2022-06-04 14:14:15
"||||||||||||-53,6969,$ACCEL,-0.23,1.29,-9.84,$ALT,658.70,-196.61\u0001\r\n"2022-06-04 14:14:16
"||||||||||||-53,6969,$GNGGA,141411.000,3520.8061,N,11748.4933,W,2,14,0.69,628.5,M,4FM1A814060D$GNGGA,141412.000,3520.8061,N,11748.4935,W,2, \r\n"2022-06-04 14:14:16
"||||||||||||-53,6969,$ACCEL,-0.23,1.29,-9.83,$ALT,658.68,-196.612,14,0.69,628.5,M,4FM1A814060D$GNGGA,141412.000,3520.8061,N,11748.4935,W,2, \r\n"2022-06-04 14:14:17
"||||||||||||-54,6969,$GN$GNGGA,141413.000,3520.8060,N,11748.4936,W,2,14,0.69,628.3,M,-29.4,M,,*4F\rGA,141412.000,3520.8061,N,11748.4935,W,2, \r\n"2022-06-04 14:14:17
"||||||||||||-52,6969,$ACCEL,-0.23,1.30,-9.84,$ALT,658.74,-196.64,W,2,14,0.69,628.3,M,-29.4,M,,*4F\rGA,141412.000,3520.8061,N,11748.4935,W,2, \r\n"2022-06-04 14:14:18
"||||||||||||-51,6969,$GNRMC,141413.000,A30137426$GNGGA,141414.000,3520.8059,N,11748.4936,W,2,14,0.69,628.3,M,-29.4,M,,*42\rN,11748.4935,W,2, \r\n"2022-06-04 14:14:18
"||||||||||||-52,6969,$ACCEL,-0.23,1.30,-9.84,$ALT,658.79,-196.670,3520.8059,N,11748.4936,W,2,14,0.69,628.3,M,-29.4,M,,*42\rN,11748.4935,W,2, \r\n"2022-06-04 14:14:19
"||||||||||||-51,6969,$GNRMC,141414.000594,$GNGGA,141415.000,3520.8058,N,11748.4935,W,2,14,0.69,628.3,M,-29.4,M,,*41\r\r\n"2022-06-04 14:14:19
"||||||||||||-53,6969,$ACCEL,-0.23,1.32,-9.84,$ALT,658.71,-196.66.8058,N,11748.4935,W,2,14,0.69,628.3,M,-29.4,M,,*41\r\r\n"2022-06-04 14:14:20
"||||||||||||-53,6969,$GNRMC,141415.000,A,3520.8058,N,11748.4070D$GNGGA,141416.000,3520.8058,N,11748.4935,W,2,14,0.69,628.2,M,-29.4,M,,*43\r\r\n"2022-06-04 14:14:20
"||||||||||||-52,6969,$ACCEL,-0.23,1.30,-9.84,$ALT,658.73,-196.65\u0005R\r\n"2022-06-04 14:14:20
"||||||||||||-53,6969,$GNRMC,141400,8W10,9.84,$ALT,658.73,-19\r\n"2022-06-04 14:14:20
"||||||||||||-52,6969,$ACCEL,-0.23,1.30,-9.84,$ALT,658.77,-196.67\u0001\r\n"2022-06-04 14:14:21
"||||||||||||-52,6969,$GNRMC,141417.000,A.,4070D$GNGGA,141418.000,3520.8060,N,11748.4936,W,2,15,0.69,628.1,M,-29.4,M,,*47\r\r\n"2022-06-04 14:14:22
"||||||||||||-52,6969,$ACCEL,-0.23,1.30,-9.84,$ALT,658.70,-196.69\u0001\r\n"2022-06-04 14:14:23
"||||||||||||-52,6969,$GNRMC,141418.000,A,3520.8060760426$GNGGA,141419.000,3520.8064,N,11748.4936,W,2,16,0.66,627.9,M,-29.4,M,,*49\r\r\n"2022-06-04 14:14:23
"||||||||||||-52,6969,$ACCEL,-0.23,1.29,-9.84,$ALT,658.69,-196.6941419.000,3520.8064,N,11748.4936,W,2,16,0.66,627.9,M,-29.4,M,,*49\r\r\n"2022-06-04 14:14:24
"||||||||||||-50,6969,$GNRM4,.,.,14,$GNGGA,141420.000,3520.8069,N,11748.4937,W,2,16,0.66,627.M,\rM2A819..0D$GNGGA,141421.000,3520.8073,N,1174 \r\n"2022-06-04 14:14:25
"||||||||||||-51,6969,$ACCEL,-0.23,1.31,-9.84,$ALT,658.72,-196.71,11748.4937,W,2,16,0.66,627.M,\rM2A819..0D$GNGGA,141421.000,3520.8073,N,1174 \r\n"2022-06-04 14:14:25
"||||||||||||-51,6969,$GNRMC,141421.000,A,.N.,14,$GNGGA,141422.000,3520.8075,N,11748.4938,W,2,16,0.66,627.6,M,-29.4,M,,*40\r,3520.8073,N,1174 \r\n"2022-06-04 14:14:26
"||||||||||||-53,6969,$ACCEL,-0.23,1.31,-9.83,$ALT,658.69,-196.700,3520.8075,N,11748.4938,W,2,16,0.66,627.6,M,-29.4,M,,*40\r,3520.8073,N,1174 \r\n"2022-06-04 14:14:26
"||||||||||||-50,6969,$GNRMC,141422.000554,,,,\r$GNGGA,141423.000,3520.8076,N,11748.4939,W,2,16,0.66,627.5,M,-29.4,M,,*40\r0\r,3520.8073,N,1174 \r\n"2022-06-04 14:14:27
"||||||||||||-53,6969,$ACCEL,-0.22,1.29,-9.83,$ALT,658.70,-196.70\u0001\r\n"2022-06-04 14:14:27
"||||||||||||-52,6969,$GNRMC,1414037799225$GNGGA,141424.000,3520.8078,N,11748.4941,W,2,16,0.66,627.4,M,-29.4,M,,*47\r\r\n"2022-06-04 14:14:28
"||||||||||||-52,6969,$ACCEL,-0.24,1.30,-9.86,$ALT,658.67,-196.69\u0001\r\n"2022-06-04 14:14:29
"||||||||||||-53,6969,$GNRMC,141424.000,A,3520.8078,N,11748.4941,W,0.06,11$GNGGA,141425.000,3520.8081,N,11748.4943,W,2,16,0.66,627.3,M,-29.4 \r\n"2022-06-04 14:14:29
"||||||||||||-54,6969,$ACCEL,-0.22,1.31,-9.84,$ALT,658.65,-196.71\u0001\r\n"2022-06-04 14:14:30
"||||||||||||-53,6969,$GNRMC,141425.000,A,3520.88$GNGGA,141426.000,3520.8083,N,11748.4944,W,2,16,0.66,627.2,M,-29.4,M,,*42\r\r\n"2022-06-04 14:14:30
"||||||||||||-53,6969,$ACCEL,-0.23,1.31,-9.84,$ALT,658.65,-196.710,3520.8083,N,11748.4944,W,2,16,0.66,627.2,M,-29.4,M,,*42\r\r\n"2022-06-04 14:14:31
"||||||||||||-53,6969,$GNRMC,141426.000,A,35014$GNGGA,141427.000,3520.8083,N,11748.4946,W,2,16,0.66,627.0,M,-29.4,M,,*43\r2\r\r\n"2022-06-04 14:14:31
"||||||||||||-49,6969,$ACCEL,-0.24,1.30,-9.84,$ALT,658.65,-196.71\u0001\r\n"2022-06-04 14:14:32
"||||||||||||-51,6969,$GNRMC,141427.000,A,$GNGGA,141428.000,3520.8085,N,11748.4945,W,2,16,0.66,627.1,M,-29.4,M,,*48\r\r\n"2022-06-04 14:14:32
"||||||||||||-45,6969,$ACCEL,-0.23,1.29,-9.84,$ALT,658.66,-196.748085,N,11748.4945,W,2,16,0.66,627.1,M,-29.4,M,,*48\r\r\n"2022-06-04 14:14:33
"||||||||||||-50,6969,$GNRMC,141428.000,A,3520.014022*$GNGGA,141429.000,3520.8085,N,11748.4945,W,2,16,0.66,627.1,M,-29.4,M,,*49\r\r\n"2022-06-04 14:14:33
"||||||||||||-51,6969,$ACCEL,-0.22,1.31,-9.83,$ALT,658.62,-196.73\u0001\r\n"2022-06-04 14:14:34
"||||||||||||-50,6969,$GNRMC,141402,8W1,,\r$GNGGA,141430.000,3520.8086,N,11748.4945,W,2,16,0.66,626.9,M,-29.4,M,,*4B\r\r\n"2022-06-04 14:14:34
"||||||||||||-52,6969,$ACCEL,-0.23,1.32,-9.83,$ALT,658.62,-196.73\u0001\r\n"2022-06-04 14:14:35
"||||||||||||-52,6969,$GNRMC,141430.038750226$GNGGA,141431.000,3520.8088,N,11748.4944,W,2,16,0.66,626.7,M,-29.4,M,,*4B\r\r\n"2022-06-04 14:14:35
"||||||||||||-53,6969,$ACCEL,-0.25,1.29,-9.84,$ALT,658.60,-196.7320.8088,N,11748.4944,W,2,16,0.66,626.7,M,-29.4,M,,*4B\r\r\n"2022-06-04 14:14:36
"||||||||||||-54,6969,$GNRMC,141431.0A8,4080D$GNGGA,141432.000,3520.8090,N,11748.4944,W,2,16,0.66,626.6,M,-29.4,M,,*40\r\r\n"2022-06-04 14:14:36
"||||||||||||-55,6969,$ACCEL,-0.23,1.31,-9.84,$ALT,658.61,-196.7420.8090,N,11748.4944,W,2,16,0.66,626.6,M,-29.4,M,,*40\r\r\n"2022-06-04 14:14:37
"||||||||||||-55,6969,$GNRMC,141432.00,.,4,14,$GNGGA,141433.000,3520.8089,N,11748.4944,W,2,16,0.66,626.6,M,-29.4,M,,*49\r\r\n"2022-06-04 14:14:37
"||||||||||||-54,6969,$ACCEL,-0.25,1.28,-9.84,$ALT,658.60,-196.75520.8089,N,11748.4944,W,2,16,0.66,626.6,M,-29.4,M,,*49\r\r\n"2022-06-04 14:14:38
"||||||||||||-57,6969,$GNRMC,141433.,0140226$GNGGA,141434.000,3520.8089,N,11748.4944,W,2,16,0.66,626.7,M,-29.4,M,,*4F\r\r\n"2022-06-04 14:14:38
"||||||||||||-57,6969,$ACCEL,-0.23,1.29,-9.83,$ALT,658.63,-196.760.8089,N,11748.4944,W,2,16,0.66,626.7,M,-29.4,M,,*4F\r\r\n"2022-06-04 14:14:39
"||||||||||||-56,6969,$GNRMC,141434.000594,,,24$GNGGA,141435.000,3520.8089,N,11748.4944,W,2,16,0.66,626.6,M,-29.4,M,,*4F\r`\r\n"2022-06-04 14:14:39
"||||||||||||-56,6969,$ACCEL,-0.24,1.29,-9.84,$ALT,658.57,-196.763520.8089,N,11748.4944,W,2,16,0.66,626.6,M,-29.4,M,,*4F\r`\r\n"2022-06-04 14:14:39
"||||||||||||-55,6969,$GNRMC,141435.0,.,.,14,$GNGGA,141436.000,3520.8089,N,11748.4944,W,2,16,0.66,626.6,M,-29.4,M,,*4C\rF\r`\r\n"2022-06-04 14:14:40
"||||||||||||-55,6969,$ACCEL,-0.25,1.29,-9.84,$ALT,658.57,-196.76\u0001\r\n"2022-06-04 14:14:40
"||||||||||||-54,6969,$GNRMC,141436.000,.,.,14,$GNGGA,141437.000,3520.8089,N,11748.4944,W,2,16,0.66,626.6,M,-29.4,M,,*4D\r`\r\n"2022-06-04 14:14:41
"||||||||||||-52,6969,$ACCEL,-0.26,1.30,-9.82,$ALT,658.56,-196.76\u0001\r\n"2022-06-04 14:14:41
"||||||||||||-53,6969,$GNRMC,141437.002,8W,,,\r$GNGGA,141438.000,3520.8089,N,11748.4944,W,2,16,0.66,626.6,M,-29.4,M,,*42\r\r\n"2022-06-04 14:14:42
"||||||||||||-54,6969,$ACCEL,-0.24,1.31,-9.84,$ALT,658.47,-196.74\u0005R\r\n"2022-06-04 14:14:42
"||||||||||||-54,6969,$GNRMC,141438.038744229$GNGGA,141439.000,3520.8089,N,11748.4944,W,2,15,0.69,626.6,M,-29.4,M,,*4F\r\r\n"2022-06-04 14:14:43
"||||||||||||-55,6969,$ACCEL,-0.24,1.31,-9.84,$ALT,658.51,-196.7520.8089,N,11748.4944,W,2,15,0.69,626.6,M,-29.4,M,,*4F\r\r\n"2022-06-04 14:14:43
"||||||||||||-57,6969,$GNRMC,141439.00N8W10,4,$ALT,658.51,-196.7520.8089,N,11748.4944,W,2,15,0.69,626.6,M,-29.4,M,,*4F\r\r\n"2022-06-04 14:14:43
"||||||||||||-52,6969,$ACCEL,-0.23,1.30,-9.84,$ALT,658.65,-196.8020.8089,N,11748.4944,W,2,15,0.69,626.6,M,-29.4,M,,*4F\r\r\n"2022-06-04 14:14:44
"||||||||||||-53,6969,$GNRMC,141440.0,.,4080D$GNGGA,141441.000,3520.8090,N,11748.4944,W,2,15,0.69,626.6,M,-29.4,M,,*48\r\r\n"2022-06-04 14:14:45
"||||||||||||-54,6969,$ACCEL,-0.22,1.29,-9.82,$ALT,658.66,-196.8020.8090,N,11748.4944,W,2,15,0.69,626.6,M,-29.4,M,,*48\r\r\n"2022-06-04 14:14:46
"||||||||||||-54,6969,$GNRMC,141441.0039740226$GNGGA,141442.000,3520.8090,N,11748.4944,W,2,15,0.69,626.6,M,-29.4,M,,*4B\r\r\n"2022-06-04 14:14:46
"||||||||||||-52,6969,$ACCEL,-0.25,1.30,-9.85,$ALT,658.63,-196.79\u0001\r\n"2022-06-04 14:14:47
"||||||||||||-51,6969,$GNRMC,141442.0504,8220$GNGGA,141443.000,3520.8090,N,11748.4944,W,2,15,0.69,626.6,M,-,\rC3A,4,14,$GNGGA,141444.000,3520 \r\n"2022-06-04 14:14:47
"||||||||||||-54,6969,$ACCEL,-0.22,1.28,-9.84,$ALT,658.70,-196.82\u0001\r\n"2022-06-04 14:14:48
"||||||||||||-52,6969,$GNRMC,141444.000,A,3529754228$GNGGA,141445.000,3520.8091,N,11748.4945,W,2,15,0.69,626.5,M,-29.4,M,,*4F\rB\u000f\r\n"2022-06-04 14:14:48
"||||||||||||-52,6969,$ACCEL,-0.23,1.30,-9.82,$ALT,658.71,-196.81\u0001\r\n"2022-06-04 14:14:49
"||||||||||||-51,6969,$GNRMC,141445.039753228$GNGGA,141446.000,3520.8091,N,11748.4944,W,2,15,0.69,626.4,M,-29.4,M,,*4C\r\r\n"2022-06-04 14:14:49
"||||||||||||-53,6969,$ACCEL,-0.23,1.30,-9.82,$ALT,658.68,-196.80\u0001\r\n"2022-06-04 14:14:50
"||||||||||||-53,6969,$GNRMC,141446.0AN.,10,2,$ALT,658.68,-19\r\n"2022-06-04 14:14:50
"||||||||||||-51,6969,$ACCEL,-0.24,1.30,-9.87,$ALT,658.70,-196.79\u0005R\r\n"2022-06-04 14:14:50
"||||||||||||-53,6969,$GNRMC,141447.000,A,3520.8091,N,11748.4944,W,0.4$GNGGA,141448.000,3520.8092,N,11748.4944,W,2,15,0.69,626.4,M,-29.4,M,, \r\n"2022-06-04 14:14:52
"||||||||||||-53,6969,$ACCEL,-0.22,1.30,-9.84,$ALT,658.70,-196.80W,0.4$GNGGA,141448.000,3520.8092,N,11748.4944,W,2,15,0.69,626.4,M,-29.4,M,, \r\n"2022-06-04 14:14:53
"||||||||||||-53,6969,$GNRMC,141448.000,A,3520.8092,$GNGGA,141449.000,3520.8092,N,11748.4944,W,2,15,0.69,626.4,M,-29.4,M,,*40\r.4,M,-29.4,M,, \r\n"2022-06-04 14:14:53
"||||||||||||-56,6969,$ACCEL,-0.23,1.30,-9.86,$ALT,658.60,-196.79\u0001\r\n"2022-06-04 14:14:54
"||||||||||||-52,6969,$GNRMC,141449.000,A,32,$GNGGA,141450.000,3520.8092,N,11748.4944,W,2,15,0.69,626.3,M,-29.4,\rM5A819..0D$GNGGA,141451.000 \r\n"2022-06-04 14:14:54
"||||||||||||-55,6969,$ACCEL,-0.23,1.30,-9.84,$ALT,658.66,-196.8020.8092,N,11748.4944,W,2,15,0.69,626.3,M,-29.4,\rM5A819..0D$GNGGA,141451.000 \r\n"2022-06-04 14:14:55
"||||||||||||-54,6969,$GNRMC,141451.000,A,359745228$GNGGA,141452.000,3520.8093,N,11748.4943,W,2,15,0.69,626.3,M,-29.4,M,,*4B\r@B\u000f\r\n"2022-06-04 14:14:55
"||||||||||||-54,6969,$ACCEL,-0.22,1.29,-9.84,$ALT,658.71,-196.81\u0001\r\n"2022-06-04 14:14:56
"||||||||||||-53,6969,$GNRMC,1415A819..6D$GNGGA,141453.000,3520.8094,N,11748.4943,W,2,15,0.69,626.2,M,-29.4,M,,*4C\r\r\n"2022-06-04 14:14:56
"||||||||||||-53,6969,$ACCEL,-0.24,1.30,-9.85,$ALT,658.67,-196.79\u0001\r\n"2022-06-04 14:14:57
"||||||||||||-50,6969,$GNRMC,141453.009734226$GNGGA,141454.000,3520.8096,N,11748.4941,W,2,15,0.69,626.2,M,-29.4,M,,*4B\r\r\n"2022-06-04 14:14:57
"||||||||||||-52,6969,$ACCEL,-0.23,1.30,-9.87,$ALT,658.73,-196.8020.8096,N,11748.4941,W,2,15,0.69,626.2,M,-29.4,M,,*4B\r\r\n"2022-06-04 14:14:58
"||||||||||||-53,6969,$GNRMC,141454.000,A,3520.8096,N,11748.4941,W,0.13,118$GNGGA,141455.000,3520.8097,N,11748.4939,W,2,15,0.69,626.2,M,-29. \r\n"2022-06-04 14:14:58
"||||||||||||-53,6969,$ACCEL,-0.23,1.29,-9.84,$ALT,658.72,-196.80\u0001\r\n"2022-06-04 14:14:59
"||||||||||||-53,6969,$GNRMC,141455.000,A,352001302$GNGGA,141456.000,3520.8098,N,11748.4938,W,2,15,0.69,626.2,M,-29.4,M,,*49\r@B\u000f\r\n"2022-06-04 14:15:00
"||||||||||||-50,6969,$ACCEL,-0.23,1.34,-9.85,$ALT,658.63,-196.74\u0001\r\n"2022-06-04 14:15:00
"||||||||||||-51,6969,$GNRMC,141456.00,.,$GNGGA,141457.000,3520.8100,N,11748.4938,W,2,15,0.69,626.1,M,-29.4,M,,*4B\r\r\n"2022-06-04 14:15:00
"||||||||||||-50,6969,$ACCEL,-0.03,1.29,-9.88,$ALT,658.63,-196.72100,N,11748.4938,W,2,15,0.69,626.1,M,-29.4,M,,*4B\r\r\n"2022-06-04 14:15:01
"||||||||||||-53,6969,$GNRMC,141457.000,A,352$GNGGA,141458.000,3520.8102,N,11748.4937,W,2,15,0.69,626.1,M,-29.4,M,,*49\r\r\n"2022-06-04 14:15:01
"||||||||||||-47,6969,$ACCEL,-0.02,1.29,-9.86,$ALT,658.60,-196.6920.8102,N,11748.4937,W,2,15,0.69,626.1,M,-29.4,M,,*49\r\r\n"2022-06-04 14:15:02
"||||||||||||-50,6969,$GNRMC,141458.000,A,35200132226$GNGGA,141459.000,3520.8104,N,11748.4936,W,2,15,0.69,626.1,M,-29.4,M,,*4F\r\r\n"2022-06-04 14:15:02
"||||||||||||-50,6969,$ACCEL,-0.03,1.28,-9.89,$ALT,658.45,-196.63\u0001\r\n"2022-06-04 14:15:03
"||||||||||||-50,6969,$GNRMC,1419,1133.6*$GNGGA,141500.000,3520.8106,N,11748.4935,W,2,15,0.69,626.0,M,-29.4,M,,*42\r\r\n"2022-06-04 14:15:03
"||||||||||||-50,6969,$ACCEL,-0.04,1.28,-9.89,$ALT,658.49,-196.64\u0001\r\n"2022-06-04 14:15:04
"||||||||||||-51,6969,$GNRMC,141500.,1132528$GNGGA,141501.000,3520.8107,N,11748.4935,W,2,15,0.69,625.9,M,-29.4,M,,*48\r\r\n"2022-06-04 14:15:04
"||||||||||||-52,6969,$ACCEL,-0.00,1.29,-9.87,$ALT,658.46,-196.610.8107,N,11748.4935,W,2,15,0.69,625.9,M,-29.4,M,,*48\r\r\n"2022-06-04 14:15:05
"||||||||||||-50,6969,$GNRMC,141501.000,,113352F$GNGGA,141502.000,3520.8109,N,11748.4934,W,2,15,0.69,625.9,M,-29.4,M,,*44\r\u0001\r\n"2022-06-04 14:15:05
"||||||||||||-51,6969,$ACCEL,-0.04,1.28,-9.88,$ALT,658.56,-196.63\u0001\r\n"2022-06-04 14:15:06
"||||||||||||-51,6969,$GNRMC,141502.0,.,4,20D$GNGGA,141503.000,3520.8110,N,11748.4935,W,2,15,0.69,625.8,M,-29.4,M,,*4D\r\r\n"2022-06-04 14:15:06
"||||||||||||-49,6969,$ACCEL,-0.04,1.29,-9.87,$ALT,658.56,-196.63\u0001\r\n"2022-06-04 14:15:07
"||||||||||||-54,6969,$GNRMC,141503A8,40.6*$GNGGA,141504.000,3520.8111,N,11748.4934,W,2,15,0.69,625.7,M,-29.4,M,,*45\r\r\n"2022-06-04 14:15:07
"||||||||||||-53,6969,$ACCEL,-0.03,1.29,-9.88,$ALT,658.60,-196.63.8111,N,11748.4934,W,2,15,0.69,625.7,M,-29.4,M,,*45\r\r\n"2022-06-04 14:15:08
"||||||||||||-54,6969,$GNRMC,141504.000A8,40.6*$GNGGA,141505.000,3520.8112,N,11748.4934,W,2,15,0.69,625.7,M,-29.4,M,,*47\r,\u0001\r\n"2022-06-04 14:15:08
"||||||||||||-51,6969,$ACCEL,-0.05,1.29,-9.86,$ALT,658.59,-196.61\u0001\r\n"2022-06-04 14:15:09
"||||||||||||-52,6969,$GNRMC,141505.0051746,,\r$GNGGA,141506.000,3520.8112,N,11748.4933,W,2,15,0.69,625.7,M,-29.4,M,,*43\r\r\n"2022-06-04 14:15:09
"||||||||||||-52,6969,$ACCEL,-0.03,1.29,-9.88,$ALT,658.70,-196.63520.8112,N,11748.4933,W,2,15,0.69,625.7,M,-29.4,M,,*43\r\r\n"2022-06-04 14:15:10
"||||||||||||-52,6969,$GNRMC,141506.00,1132025$GNGGA,141507.000,3520.8113,N,11748.4932,W,2,15,0.69,625.6,M,-29.4,M,,*43\r\r\n"2022-06-04 14:15:10
"||||||||||||-50,6969,$ACCEL,-0.03,1.29,-9.85,$ALT,658.67,-196.61\u0005R\r\n"2022-06-04 14:15:11
"||||||||||||-50,6969,$GNRMC,141507.3113352E$GNGGA,141508.000,3520.8113,N,11748.4933,W,2,15,0.69,625.6,M,-29.4,M,,*4D\r\r\n"2022-06-04 14:15:11
"||||||||||||-50,6969,$ACCEL,-0.03,1.27,-9.86,$ALT,658.61,-196.590.8113,N,11748.4933,W,2,15,0.69,625.6,M,-29.4,M,,*4D\r\r\n"2022-06-04 14:15:12
"||||||||||||-50,6969,$GNRMC,141508.000,53437,,\r$GNGGA,141509.000,3520.8114,N,11748.4932,W,2,15,0.69,626.0,M,-29.4,M,,*4F\r\u0001\r\n"2022-06-04 14:15:12
"||||||||||||-50,6969,$ACCEL,-0.03,1.28,-9.86,$ALT,658.54,-196.55,3520.8114,N,11748.4932,W,2,15,0.69,626.0,M,-29.4,M,,*4F\r\u0001\r\n"2022-06-04 14:15:13
"||||||||||||-50,6969,$GNRMC,141509.0,113.025$GNGGA,141510.000,3520.8115,N,11748.4932,W,2,15,0.69,625.9,M,-29.4,M,,*4C\r4F\r\u0001\r\n"2022-06-04 14:15:13
"||||||||||||-48,6969,$ACCEL,-0.01,1.30,-9.84,$ALT,658.63,-196.5720.8115,N,11748.4932,W,2,15,0.69,625.9,M,-29.4,M,,*4C\r4F\r\u0001\r\n"2022-06-04 14:15:14
"||||||||||||-48,6969,$GNRMC,141510.0A819.06*$GNGGA,141511.000,3520.8115,N,11748.4932,W,2,15,0.69,625.9,M,-29.4,M,,*4D\r4F\r\u0001\r\n"2022-06-04 14:15:14
"||||||||||||-48,6969,$ACCEL,-0.01,1.30,-9.84,$ALT,658.62,-196.5520.8115,N,11748.4932,W,2,15,0.69,625.9,M,-29.4,M,,*4D\r4F\r\u0001\r\n"2022-06-04 14:15:15
"||||||||||||-49,6969,$GNRMC,141511.00254,,0,,$ALT,658.62,-196.5520.8115,N,11748.4932,W,2,15,0.69,625.9,M,-29.4,M,,*4D\r4F\r\u0001\r\n"2022-06-04 14:15:15
"||||||||||||-51,6969,$ACCEL,-0.14,1.30,-9.87,$ALT,658.67,-196.5620.8115,N,11748.4932,W,2,15,0.69,625.9,M,-29.4,M,,*4D\r4F\r\u0001\r\n"2022-06-04 14:15:15
"||||||||||||-49,6969,$GNGGA,141512.000,3520.8116,N,11748.4933,W,2,15,0.69,625.9,M,-29.4,M,,*4C\r9,625.9,M,-29.4,M,,*4D\r4F\r\u0001\r\n"2022-06-04 14:15:15
"||||||||||||-51,6969,$ACCEL,-0.03,1.29,-9.85,$ALT,658.62,-196.53\u0005R\r\n"2022-06-04 14:15:17
"||||||||||||-51,6969,$GNRMC,141512.00564,,0,\r$GNGGA,141513.000,3520.8116,N,11748.4933,W,2,15,0.69,625.9,M,-29.4,M,,*4D\r\r\n"2022-06-04 14:15:17
"||||||||||||-51,6969,$ACCEL,-0.04,1.29,-9.88,$ALT,658.62,-196.52520.8116,N,11748.4933,W,2,15,0.69,625.9,M,-29.4,M,,*4D\r\r\n"2022-06-04 14:15:18
"||||||||||||-52,6969,$GNRMC,141513.3173152C$GNGGA,141514.000,3520.8117,N,11748.4933,W,2,15,0.69,625.9,M,-29.4,M,,*4B\rD\r\r\n"2022-06-04 14:15:18
"||||||||||||-50,6969,$ACCEL,-0.05,1.27,-9.86,$ALT,658.61,-196.51\u0001\r\n"2022-06-04 14:15:19
"||||||||||||-50,6969,$GNRMC,141514.00,113.025$GNGGA,141515.000,3520.8116,N,11748.4933,W,2,15,0.69,625.9,M,-2,G40264,,0,\r\n"2022-06-04 14:15:19
"||||||||||||-48,6969,$ACCEL,-0.05,1.30,-9.88,$ALT,658.63,-196.51520.8116,N,11748.4933,W,2,15,0.69,625.9,M,-2,G40264,,0,\r\n"2022-06-04 14:15:20
"||||||||||||-50,6969,$GNGGA,141516.000,3520.8117,N,11748.4933,W,2,15,0.69,625.9,M,-29.4,M,,*49\r69,625.9,M,-2,G40264,,0,\r\n"2022-06-04 14:15:20
"||||||||||||-52,6969,$ACCEL,-0.04,1.28,-9.86,$ALT,658.60,-196.492,15,0.69,625.9,M,-29.4,M,,*49\r69,625.9,M,-2,G40264,,0,\r\n"2022-06-04 14:15:21
"||||||||||||-54,6969,$GNRMC,141516.000,A,0,8W54,$GNGGA,141517.000,3520.8117,N,11748.4933,W,2,15,0.69,625.8,M,-29.4,M,,*49\r\r\n"2022-06-04 14:15:21
"||||||||||||-51,6969,$ACCEL,-0.48,1.34,-9.88,$ALT,658.49,-196.45\u0005R\r\n"2022-06-04 14:15:22
"||||||||||||-51,6969,$GNRMC,141517.000N.,24,$GNGGA,141518.000,3520.8117,N,11748.4934,W,2,15,0.69,625.8,M,-29.4,M,,*41\r\r\n"2022-06-04 14:15:22
"||||||||||||-51,6969,$ACCEL,-0.24,2.16,-10.13,$ALT,658.72,-196.51\r\n"2022-06-04 14:15:23
"||||||||||||-57,6969,$GNRMC,141518.0,119.025$GNGGA,141519.000,3520.8117,N,11748.4934,W,2,15,0.69,625.8,M,-29.4,M,,*40\r\r\n"2022-06-04 14:15:23
"||||||||||||-63,6969,$ACCEL,-0.24,2.16,-10.13,$ALT,658.86,-196.540.8117,N,11748.4934,W,2,15,0.69,625.8,M,-29.4,M,,*40\r\r\n"2022-06-04 14:15:23
"||||||||||||-51,6969,$GNRMC,141519.0002,8W54,,$ALT,658.86,-196.540.8117,N,11748.4934,W,2,15,0.69,625.8,M,-29.4,M,,*40\r\r\n"2022-06-04 14:15:24
"||||||||||||-57,6969,$ACCEL,3.11,2.94,-8.61,$ALT,658.74,-196.52540.8117,N,11748.4934,W,2,15,0.69,625.8,M,-29.4,M,,*40\r\r\n"2022-06-04 14:15:24
"||||||||||||-54,6969,$ACCEL,1.51,3.49,-9.54,$ALT,658.56,-196.44B\u0001\r\n"2022-06-04 14:15:25
"||||||||||||-63,6969,$GNRMC,141520.000,A.,40.6*$GNGGA,141521.000,3520.8116,N,11748.4935,W,2,15,0.69,625.8,M,-29.4,M,,*4B\r\r\n"2022-06-04 14:15:25
"||||||||||||-61,6969,$ACCEL,1.71,4.32,-8.82,$ALT,658.71,-196.510,3520.8116,N,11748.4935,W,2,15,0.69,625.8,M,-29.4,M,,*4B\r\r\n"2022-06-04 14:15:26
"||||||||||||-49,6969,$GNRMC,141521.000,A0N8W54,$GNGGA,141522.000,3520.8115,N,11748.4935,W,2,15,0.69,625.8,M,-29.4,M,,*4B\r\r\n"2022-06-04 14:15:26
"||||||||||||-50,6969,$ACCEL,5.07,1.89,-8.00,$ALT,658.57,-196.46B\u0001\r\n"2022-06-04 14:15:28
"||||||||||||-48,6969,$GNRMC,141522.0,.,.,20D$GNGGA,141523.000,3520.8114,N,11748.4935,W,2,15,0.69,625.8,M,-4BR5,.,40.0D$GNGGA,141524.000,352 \r\n"2022-06-04 14:15:28
"||||||||||||-50,6969,$ACCEL,2.13,1.67,-9.74,$ALT,658.76,-196.51520.8114,N,11748.4935,W,2,15,0.69,625.8,M,-4BR5,.,40.0D$GNGGA,141524.000,352 \r\n"2022-06-04 14:15:28
"||||||||||||-49,6969,$GNRMC,141524.000,A,30,8W10,658.76,-196.51520.8114,N,11748.4935,W,2,15,0.69,625.8,M,-4BR5,.,40.0D$GNGGA,141524.000,352 \r\n"2022-06-04 14:15:28
"||||||||||||-45,6969,$ACCEL,2.13,1.67,-9.74,$ALT,658.74,-196.50520.8114,N,11748.4935,W,2,15,0.69,625.8,M,-4BR5,.,40.0D$GNGGA,141524.000,352 \r\n"2022-06-04 14:15:29
"||||||||||||-45,6969,$GNGGA,141525.000,3520.8105,N,11748.4934,W,2,15,0.69,625.8,M,-29.4,M,,*4C\r9,625.8,M,-4BR5,.,40.0D$GNGGA,141524.000,352 \r\n"2022-06-04 14:15:29
"||||||||||||-49,6969,$ACCEL,-0.23,1.71,-9.62,$ALT,658.54,-196.462,15,0.69,625.8,M,-29.4,M,,*4C\r9,625.8,M,-4BR5,.,40.0D$GNGGA,141524.000,352 \r\n"2022-06-04 14:15:30
"||||||||||||-50,6969,$GNRMC,141525.002,8W,,,\r$GNGGA,141526.000,3520.8100,N,11748.4937,W,2,15,0.69,625.8,M,-29.4,M,,*49\rGNGGA,141524.000,352 \r\n"2022-06-04 14:15:30
"||||||||||||-50,6969,$ACCEL,-2.08,1.44,-9.58,$ALT,658.59,-196.48520.8100,N,11748.4937,W,2,15,0.69,625.8,M,-29.4,M,,*49\rGNGGA,141524.000,352 \r\n"2022-06-04 14:15:31
"||||||||||||-45,6969,$GNRMC,141526.0504,532D$GNGGA,141527.000,3520.8098,N,11748.4940,W,2,15,0.69,625.8,M,-29.4,M,,*48\r\rGNGGA,141524.000,352 \r\n"2022-06-04 14:15:31
"||||||||||||-47,6969,$ACCEL,-2.06,1.43,-9.58,$ALT,658.49,-196.45\u0005R\r\n"2022-06-04 14:15:33
"||||||||||||-48,6969,$GNRMC,141527.000,A,3520.8098,N,11748.4940,W,1.3$GNGGA,141528.000,3520.8096,N,11748.4941,W,2,15,0.69,625.8,M,-29.4,M,,\r\n"2022-06-04 14:15:33
"||||||||||||-44,6969,$ACCEL,-2.06,1.44,-9.58,$ALT,658.65,-196.49W,1.3$GNGGA,141528.000,3520.8096,N,11748.4941,W,2,15,0.69,625.8,M,-29.4,M,,\r\n"2022-06-04 14:15:34
"||||||||||||-42,6969,$GNRMC,141529.000,A,35819..6*$GNGGA,141530.000,3520.8099,N,11748.4943,W,2,15,0.69,625.8,M,-29.4,M,,*4C\r5.8,M,-29.4,M,,\r\n"2022-06-04 14:15:34
"||||||||||||-43,6969,$ACCEL,-2.04,1.44,-9.59,$ALT,658.54,-196.46\u0001\r\n"2022-06-04 14:15:35
"||||||||||||-42,6969,$GNRMC,141530.0A819..6D$GNGGA,141531.000,3520.8099,N,11748.4946,W,2,15,0.69,625.8,M,-29.4,M,,*48\r\r\n"2022-06-04 14:15:35
"||||||||||||-43,6969,$ACCEL,-2.04,1.43,-9.59,$ALT,658.46,-196.4420.8099,N,11748.4946,W,2,15,0.69,625.8,M,-29.4,M,,*48\r\r\n"2022-06-04 14:15:36
"||||||||||||-44,6969,$GNRMC,141531.00,0N.,34,$GNGGA,141532.000,3520.8101,N,11748.4947,W,2,15,0.69,625.8,M,-29.4,M,,*4A\r\r\n"2022-06-04 14:15:36
"||||||||||||-44,6969,$ACCEL,-2.05,1.44,-9.58,$ALT,658.42,-196.42\u0001\r\n"2022-06-04 14:15:37
"||||||||||||-44,6969,$GNRMC,141532.000,A,3520.8101,N,11748.4947,W,0.4$GNGGA,141533.000,3520.8104,N,11748.4948,W,2,15,0.69,625.7,M,-29.4,M,, \r\n"2022-06-04 14:15:37
"||||||||||||-43,6969,$ACCEL,-2.06,1.42,-9.58,$ALT,658.54,-196.45W,0.4$GNGGA,141533.000,3520.8104,N,11748.4948,W,2,15,0.69,625.7,M,-29.4,M,, \r\n"2022-06-04 14:15:38
"||||||||||||-44,6969,$GNRMC,141533.000,A,3520.8104$GNGGA,141534.000,3520.8107,N,11748.4949,W,2,15,0.69,625.7,M,-29.4,M,,*4B\r5.7,M,-29.4,M,, \r\n"2022-06-04 14:15:38
"||||||||||||-44,6969,$ACCEL,-2.03,1.42,-9.59,$ALT,658.72,-196.51000,3520.8107,N,11748.4949,W,2,15,0.69,625.7,M,-29.4,M,,*4B\r5.7,M,-29.4,M,, \r\n"2022-06-04 14:15:39
"||||||||||||-43,6969,$GNRMC,141534.000,A,352$GNGGA,141535.000,3520.8110,N,11748.4949,W,2,15,0.69,625.7,M,-29.4,M,,*4C\r\r\n"2022-06-04 14:15:39
"||||||||||||-47,6969,$ACCEL,-2.04,1.45,-9.61,$ALT,658.77,-196.5320.8110,N,11748.4949,W,2,15,0.69,625.7,M,-29.4,M,,*4C\r\r\n"2022-06-04 14:15:40
"||||||||||||-51,6969,$GNRMC,141535.000,A,3528$GNGGA,141536.000,3520.8115,N,11748.4949,W,2,15,0.69,625.8,M,-29.4,M,,*45\r\r\n"2022-06-04 14:15:40
"||||||||||||-35,6969,$ACCEL,-2.91,1.13,-9.51,$ALT,658.88,-196.57520.8115,N,11748.4949,W,2,15,0.69,625.8,M,-29.4,M,,*45\r\r\n"2022-06-04 14:15:41
"||||||||||||-41,6969,$GNRMC,141536.000,A,35814070D$GNGGA,141537.000,3520.8117,N,11748.4950,W,2,15,0.69,625.8,M,-29.4,M,,*4E\r@B\u000f\r\n"2022-06-04 14:15:41
"||||||||||||-39,6969,$ACCEL,-1.15,2.13,-9.36,$ALT,658.78,-196.53000,3520.8117,N,11748.4950,W,2,15,0.69,625.8,M,-29.4,M,,*4E\r@B\u000f\r\n"2022-06-04 14:15:42
"||||||||||||-47,6969,$GNRMC,14153.31706526$GNGGA,141538.000,3520.8119,N,11748.4951,W,2,14,0.74,625.8,M,-29.4,M,,*43\r,M,,*4E\r@B\u000f\r\n"2022-06-04 14:15:42
"||||||||||||-61,6969,$ACCEL,2.75,1.14,-9.64,$ALT,658.59,-196.470.8119,N,11748.4951,W,2,14,0.74,625.8,M,-29.4,M,,*43\r,M,,*4E\r@B\u000f\r\n"2022-06-04 14:15:43
"||||||||||||-47,6969,$GNRMC,141530594,,,,B$GNGGA,141539.000,3520.8121,N,11748.4951,W,2,15,0.69,625.8,M,-29.4,M,,*44\r\r\n"2022-06-04 14:15:43
"||||||||||||-45,6969,$ACCEL,2.75,1.14,-9.64,$ALT,658.57,-196.46B\u0001\r\n"2022-06-04 14:15:43
"||||||||||||-45,6969,$GNRMC,141539.0000N.,34,ALT,658.57,-196\r\n"2022-06-04 14:15:43
"||||||||||||-39,6969,$GNGGA,141540.000,3520.8120,N,11748.4951,W,2,15,0.69,625.8,M,-29.4,M,,*4B\r\r\n"2022-06-04 14:15:44
"||||||||||||-38,6969,$ACCEL,-0.71,1.33,-9.83,$ALT,658.65,-196.502,15,0.69,625.8,M,-29.4,M,,*4B\r\r\n"2022-06-04 14:15:45
"||||||||||||-37,6969,$ACCEL,-0.71,1.33,-9.83,$ALT,658.55,-196.46\u0005R\r\n"2022-06-04 14:15:45
"||||||||||||-38,6969,$GNRMC,141541.002,8W,0,,$ALT,658.55,-196.46\u0005R\r\n"2022-06-04 14:15:46
"||||||||||||-37,6969,$ACCEL,-0.70,1.32,-9.83,$ALT,658.53,-196.47\u0001\r\n"2022-06-04 14:15:46
"||||||||||||-38,6969,$GNRMC,141542.0,.,4150D$GNGGA,141543.000,3520.8123,N,11748.4944,W,2,15,0.69,626.1,M,-2,G40534,,0,\r\n"2022-06-04 14:15:47
"||||||||||||-37,6969,$ACCEL,-0.68,1.31,-9.82,$ALT,658.46,-196.4520.8123,N,11748.4944,W,2,15,0.69,626.1,M,-2,G40534,,0,\r\n"2022-06-04 14:15:48
"||||||||||||-37,6969,$GNGGA,141544.000,3520.8124,N,11748.4942,W,2,15,0.69,626.3,M,-29.4,M,,*41\r9,626.1,M,-2,G40534,,0,\r\n"2022-06-04 14:15:48
"||||||||||||-39,6969,$ACCEL,-0.68,1.32,-9.81,$ALT,658.59,-196.48\u0001\r\n"2022-06-04 14:15:49
"||||||||||||-39,6969,$GNRMC,141544.000,52724,,\r$GNGGA,141545.000,3520.8128,N,11748.4939,W,2,15,0.69,626.4,M,-29.4,M,,*47\r\r\n"2022-06-04 14:15:49
"||||||||||||-38,6969,$ACCEL,-0.69,1.32,-9.82,$ALT,658.56,-196.47,3520.8128,N,11748.4939,W,2,15,0.69,626.4,M,-29.4,M,,*47\r\r\n"2022-06-04 14:15:50
"||||||||||||-36,6969,$GNGGA,141546.000,3520.8131,N,11748.4939,W,2,14,0.73,626.5,M,-29.4,M,,*47\r0.69,626.4,M,-29.4,M,,*47\r\r\n"2022-06-04 14:15:50
"||||||||||||-37,6969,$ACCEL,-0.70,1.32,-9.83,$ALT,658.64,-196.49\u0001\r\n"2022-06-04 14:15:51
"||||||||||||-38,6969,$GNRMC,141546.000,,1138926$GNGGA,141547.000,3520.8133,N,11748.4941,W,2,15,0.69,626.7,M,-29.4,M,,*43\r\r\n"2022-06-04 14:15:51
"||||||||||||-39,6969,$ACCEL,-0.70,1.32,-9.83,$ALT,658.66,-196.49\u0001\r\n"2022-06-04 14:15:51
"||||||||||||-39,6969,$GNRMC,141547.002,8W34,,$ALT,658.66,-19\r\n"2022-06-04 14:15:51
"||||||||||||-40,6969,$ACCEL,-0.71,1.31,-9.81,$ALT,658.61,-196.49\u0001\r\n"2022-06-04 14:15:52
"||||||||||||-39,6969,$GNRMC,141548.000,A,0N.,50D$GNGGA,141549.000,3520.8135,N,11748.4936,W,2,14,0.74,626.7,M,-29.4,M,,*46\r\r\n"2022-06-04 14:15:53
"||||||||||||-39,6969,$ACCEL,-0.68,1.32,-9.82,$ALT,658.69,-196.510,3520.8135,N,11748.4936,W,2,14,0.74,626.7,M,-29.4,M,,*46\r\r\n"2022-06-04 14:15:54
"||||||||||||-40,6969,$GNRMC,141549.00,819.025$GNGGA,141550.000,3520.8138,N,11748.4935,W,2,14,0.74,626.8,M,-29.4,M,,*4F\r46\r\r\n"2022-06-04 14:15:54
