"Feather LoRa RX Test!\r\n"2022-04-09 17:04:04
"LoRa radio init OK!\r\n"2022-04-09 17:04:04
"Set Freq to: 915.00\r\n"2022-04-09 17:04:04
"||||||||||||-54,6969,$GNGGA,170403.000,3429.7279,N,11657.5584,W,2,18,0.58,884.3,M,-31.0,M,,*41\r |\u0002\r\n"2022-04-09 17:04:05
"||||||||||||-54,6969,$ACCEL,9.77,0.39,-0.47,$ALT,866.87,-261.61B\u0001\r\n"2022-04-09 17:04:06
"||||||||||||-54,6969,$GNRMC,170403.000,A,3429.7279,N,116$GNGGA,170404.000,3429.7279,N,11657.5584,W,2,18,0.58,884.3,M,-31.0,M,,*46\r\r\n"2022-04-09 17:04:06
"||||||||||||-54,6969,$ACCEL,9.79,0.20,-0.48,$ALT,866.96,-261.64\r\n"2022-04-09 17:04:07
"||||||||||||-54,6969,$GNRMC,170404.000,A,3429.7279,$GNGGA,170405.000,3429.7279,N,11657.5584,W,2,18,0.58,884.3,M,-31.0,M,,*47\r\r\n"2022-04-09 17:04:07
"||||||||||||-47,6969,$ACCEL,9.75,0.37,-0.90,$ALT,866.91,-261.635.000,3429.7279,N,11657.5584,W,2,18,0.58,884.3,M,-31.0,M,,*47\r\r\n"2022-04-09 17:04:08
"||||||||||||-42,6969,$GNRMC,170405.000,A,3429,$GNGGA,170406.000,3429.7280,N,11657.5585,W,2,18,0.58,884.3,M,-31.0,\rC6,715..4D$GNGGA,170407.0 \r\n"2022-04-09 17:04:08
"||||||||||||-43,6969,$ACCEL,9.70,-1.52,0.11,$ALT,866.88,-261.62,3429.7280,N,11657.5585,W,2,18,0.58,884.3,M,-31.0,\rC6,715..4D$GNGGA,170407.0 \r\n"2022-04-09 17:04:09
"||||||||||||-42,6969,$GNRMC,170407.000,A,34715.10D$GNGGA,170408.000,3429.7280,N,11657.5586,W,2,18,0.58,884.3,M,-31.0,M,,*4E\r$GNGGA,170407.0 \r\n"2022-04-09 17:04:09
"||||||||||||-42,6969,$ACCEL,9.75,-1.39,-0.14,$ALT,866.91,-261.64\u0005R\r\n"2022-04-09 17:04:10
"||||||||||||-41,6969,$GNRMC,170408.04056472A$GNGGA,170409.000,3429.7280,N,11657.5586,W,2,18,0.58,884.3,M,-31.0,M,,*4F\r\r\n"2022-04-09 17:04:10
"||||||||||||-54,6969,$ACCEL,9.74,-1.13,-0.15,$ALT,866.90,-261.6229.7280,N,11657.5586,W,2,18,0.58,884.3,M,-31.0,M,,*4F\r\r\n"2022-04-09 17:04:11
"||||||||||||-54,6969,$GNRMC,170409.0A715..0D$GNGGA,170410.000,3429.7280,N,11657.5586,W,2,18,0.58,884.3,M,-31.0,M,,*47\r\r\n"2022-04-09 17:04:11
"||||||||||||-53,6969,$ACCEL,9.33,-2.56,-1.33,$ALT,867.16,-261.7229.7280,N,11657.5586,W,2,18,0.58,884.3,M,-31.0,M,,*47\r\r\n"2022-04-09 17:04:12
"||||||||||||-52,6969,$GNRMC,170410.000,A,3429.7280,N,11657.5586,W,0.09$GNGGA,170411.000,3429.7280,N,11657.5586,W,2,18,0.58,884.2,M,-31.0,M,\r\n"2022-04-09 17:04:13
"||||||||||||-44,6969,$ACCEL,9.09,-3.38,-1.87,$ALT,867.26,-261.75\u0001\r\n"2022-04-09 17:04:13
"||||||||||||-42,6969,$GNRMC,170411.000,A,3429.7280$GNGGA,170412.000,3429.7281,N,11657.5586,W,2,18,0.58,884.2,M,-31.0,M,,*45\r@B\u000f\r\n"2022-04-09 17:04:14
"||||||||||||-57,6969,$ACCEL,9.46,-2.65,-1.79,$ALT,867.88,-261.94000,3429.7281,N,11657.5586,W,2,18,0.58,884.2,M,-31.0,M,,*45\r@B\u000f\r\n"2022-04-09 17:04:14
"||||||||||||-63,6969,$GNRMC,170412.000,A,342$GNGGA,170413.000,3429.7280,N,11657.5586,W,2,18,0.58,884.3,M,-31.0,M,,*44\r,,*45\r@B\u000f\r\n"2022-04-09 17:04:15
"||||||||||||-48,6969,$ACCEL,9.23,-1.23,-0.45,$ALT,867.55,-261.8429.7280,N,11657.5586,W,2,18,0.58,884.3,M,-31.0,M,,*44\r,,*45\r@B\u000f\r\n"2022-04-09 17:04:15
"||||||||||||-48,6969,$GNRMC,170413.000,A,342$GNGGA,170414.000,3429.7280,N,11657.5586,W,2,18,0.58,884.3,M,-31.0,M,,*43\r\r\n"2022-04-09 17:04:16
"||||||||||||-44,6969,$ACCEL,9.99,-0.14,0.16,$ALT,867.49,-261.83B\u0001\r\n"2022-04-09 17:04:17
"||||||||||||-43,6969,$GNRMC,170414.000,A,3429.7280,665126$GNGGA,170415.000,3429.7280,N,11657.5586,W,2,18,0.58,884.2,M,-31.0,M,,*43\r\r\n"2022-04-09 17:04:17
"||||||||||||-44,6969,$ACCEL,9.81,-0.18,-0.22,$ALT,867.32,-261.77170415.000,3429.7280,N,11657.5586,W,2,18,0.58,884.2,M,-31.0,M,,*43\r\r\n"2022-04-09 17:04:17
"||||||||||||-45,6969,$GNRMC,17041A.,5010,$GNGGA,170416.000,3429.7280,N,11657.5586,W,2,17,0.60,884.2,M,-31.0,M,,*44\r,M,-31.0,M,,*43\r\r\n"2022-04-09 17:04:18
"||||||||||||-42,6969,$ACCEL,9.82,-0.49,0.03,$ALT,867.61,-261.87.7280,N,11657.5586,W,2,17,0.60,884.2,M,-31.0,M,,*44\r,M,-31.0,M,,*43\r\r\n"2022-04-09 17:04:18
"||||||||||||-43,6969,$GNRMC,170416.00,215..4*$GNGGA,170417.000,3429.7280,N,11657.5586,W,2,18,0.58,884.2,M,-31.0,M,,*41\r\r\n"2022-04-09 17:04:19
"||||||||||||-45,6969,$ACCEL,9.90,-0.66,-0.02,$ALT,867.47,-261.83\u0001\r\n"2022-04-09 17:04:19
"||||||||||||-45,6969,$GNRMC,170417.000,2180.4*$GNGGA,170418.000,3429.7280,N,11657.5586,W,2,18,0.58,884.2,M,-31.0,M,,*4E\r`\r\n"2022-04-09 17:04:20
"||||||||||||-43,6969,$ACCEL,9.48,0.46,0.12,$ALT,867.15,-261.73\r\n"2022-04-09 17:04:20
"||||||||||||-42,6969,$GNRMC,170418.000,2,7W10,\r$GNGGA,170419.000,3429.7280,N,11657.5586,W,2,18,0.58,884.2,M,-31.0,M,,*4F\r\r\n"2022-04-09 17:04:21
"||||||||||||-41,6969,$ACCEL,9.92,-0.36,-0.41,$ALT,867.16,-261.74,3429.7280,N,11657.5586,W,2,18,0.58,884.2,M,-31.0,M,,*4F\r\r\n"2022-04-09 17:04:21
"||||||||||||-53,6969,$ACCEL,9.75,-0.29,-0.87,$ALT,867.16,-261.74\u0005R\r\n"2022-04-09 17:04:22
"||||||||||||-54,6969,$GNRMC,170420.000,A.,5019,$GNGGA,170421.000,3429.7280,N,11657.5588,W,2,18,0.58,884.2,M,-31.0,M,,*4A\r\r\n"2022-04-09 17:04:23
"||||||||||||-52,6969,$ACCEL,9.15,-0.45,0.68,$ALT,867.12,-261.71\r\n"2022-04-09 17:04:23
"||||||||||||-52,6969,$GNRMC,170421.0009N7W10,ALT,867.12,-261\r\n"2022-04-09 17:04:23
"||||||||||||-55,6969,$ACCEL,9.15,-0.45,0.68,$ALT,867.19,-261.75\r\n"2022-04-09 17:04:24
"||||||||||||-57,6969,$GNGGA,170422.000,3429.7279,N,11657.5588,W,2,18,0.58,884.2,M,-31.0,M,,*4F\r\r\n"2022-04-09 17:04:24
"||||||||||||-56,6969,$ACCEL,9.73,-0.86,-1.32,$ALT,867.03,-261.71\u0001\r\n"2022-04-09 17:04:25
"||||||||||||-56,6969,$GNRMC,170422.00,.,.,39,$GNGGA,170423.000,3429.7279,N,11657.5588,W,2,18,0.58,884.2,M,-31.0,M,,*4E\r\r\n"2022-04-09 17:04:25
"||||||||||||-58,6969,$ACCEL,9.69,-0.81,-1.27,$ALT,867.53,-261.86429.7279,N,11657.5588,W,2,18,0.58,884.2,M,-31.0,M,,*4E\r\r\n"2022-04-09 17:04:26
"||||||||||||-57,6969,$GNRMC,170423.000,.,5039,$GNGGA,170424.000,3429.7277,N,11657.5589,W,2,18,0.58,884.2,M,-31.0,M,,*46\r,\u0001\r\n"2022-04-09 17:04:26
"||||||||||||-59,6969,$ACCEL,9.63,-1.11,-1.24,$ALT,867.15,-261.743429.7277,N,11657.5589,W,2,18,0.58,884.2,M,-31.0,M,,*46\r,\u0001\r\n"2022-04-09 17:04:26
"||||||||||||-60,6969,$GNRMC,170424.000,215..4*$GNGGA,170425.000,3429.7277,N,11657.5590,W,2,18,0.58,884.2,M,-3M\r\n"2022-04-09 17:04:27
"||||||||||||-58,6969,$ACCEL,9.65,-0.86,-1.43,$ALT,867.28,-261.793429.7277,N,11657.5590,W,2,18,0.58,884.2,M,-3M\r\n"2022-04-09 17:04:27
"||||||||||||-57,6969,C5,2193.4*$GNGGA,170426.000,3429.7279,N,11657.5591,W,2,17,0.70,884.1,M,-31.0,M,,*45\rM,-3M\r\n"2022-04-09 17:04:28
"||||||||||||-57,6969,$ACCEL,9.65,-0.86,-1.52,$ALT,867.04,-261.7157.5591,W,2,17,0.70,884.1,M,-31.0,M,,*45\rM,-3M\r\n"2022-04-09 17:04:28
"||||||||||||-58,6969,$GNRMC,170426.000,A,3495,,,2C$GNGGA,170427.000,3429.7279,N,11657.5591,W,2,17,0.70,884.1,M,-31.0,M,,*44\r@B\u000f\r\n"2022-04-09 17:04:29
"||||||||||||-64,6969,$ACCEL,9.69,-0.44,-1.32,$ALT,867.26,-261.78000,3429.7279,N,11657.5591,W,2,17,0.70,884.1,M,-31.0,M,,*44\r@B\u000f\r\n"2022-04-09 17:04:29
"||||||||||||-60,6969,$GNRMC,170427.00,215..4*$GNGGA,170428.000,3429.7280,N,11657.5591,W,2,16,0.70,884.0,M,-31.0,M,,*4D\r,*44\r@B\u000f\r\n"2022-04-09 17:04:30
"||||||||||||-64,6969,$ACCEL,10.43,0.36,-0.41,$ALT,867.00,-261.70429.7280,N,11657.5591,W,2,16,0.70,884.0,M,-31.0,M,,*4D\r,*44\r@B\u000f\r\n"2022-04-09 17:04:30
"||||||||||||-64,6969,$GNRMC,170428.0,.,.,09,$GNGGA,170429.000,3429.7280,N,11657.5590,W,2,16,0.70,883.9,M,-31.0,M,,*43\r\r\n"2022-04-09 17:04:31
"||||||||||||-66,6969,$ACCEL,9.67,0.44,0.84,$ALT,867.19,-261.76\r\n"2022-04-09 17:04:31
"||||||||||||-60,6969,$GNRMC,170429.000,A205,,,,\r$GNGGA,170430.000,3429.7280,N,11657.5590,W,2,16,0.70,883.9,M,-31.0,M,,*4B\r\r\n"2022-04-09 17:04:32
"||||||||||||-59,6969,$ACCEL,9.83,0.11,-0.04,$ALT,867.01,-261.7200,3429.7280,N,11657.5590,W,2,16,0.70,883.9,M,-31.0,M,,*4B\r\r\n"2022-04-09 17:04:32
"||||||||||||-59,6969,$GNRMC,170430.000,A,7,5080D$GNGGA,170431.000,3429.7281,N,11657.5589,W,2,16,0.63,883.9,M,-31.0,M,,*41\r\r\n"2022-04-09 17:04:33
"||||||||||||-55,6969,$ACCEL,9.79,0.28,-0.60,$ALT,866.96,-261.7000,3429.7281,N,11657.5589,W,2,16,0.63,883.9,M,-31.0,M,,*41\r\r\n"2022-04-09 17:04:33
"||||||||||||-56,6969,$GNRMC,170431.00038692,25$GNGGA,170432.000,3429.7282,N,11657.5589,W,2,16,0.63,883.8,M,-31.0,M,,*40\r1\r\r\n"2022-04-09 17:04:34
"||||||||||||-55,6969,$ACCEL,9.81,0.52,-0.17,$ALT,866.99,-261.71,3429.7282,N,11657.5589,W,2,16,0.63,883.8,M,-31.0,M,,*40\r1\r\r\n"2022-04-09 17:04:34
"||||||||||||-55,6969,$GNRMC,170432.00,215..4*$GNGGA,170433.000,3429.7283,N,11657.5589,W,2,17,0.61,883.8,M,-31.0,M,,*43\r\r\n"2022-04-09 17:04:35
"||||||||||||-47,6969,$ACCEL,10.13,0.09,-0.35,$ALT,866.93,-261.69429.7283,N,11657.5589,W,2,17,0.61,883.8,M,-31.0,M,,*43\r\r\n"2022-04-09 17:04:35
"||||||||||||-48,6969,$GNRMC,170433.000A.,5082*$GNGGA,170434.000,3429.7283,N,11657.5589,W,2,17,0.61,883.8,M,-31.0,M,,*44\r`\r\n"2022-04-09 17:04:36
"||||||||||||-54,6969,$ACCEL,10.05,0.53,0.06,$ALT,867.10,-261.75\r\n"2022-04-09 17:04:36
"||||||||||||-50,6969,$GNRMC,170434.000,9N.W00D$GNGGA,170435.000,3429.7283,N,11657.5589,W,2,17,0.61,883.7,M,-31.0,M,,*4A\r`\r\n"2022-04-09 17:04:37
"||||||||||||-49,6969,$ACCEL,9.76,0.57,0.41,$ALT,866.96,-261.710,3429.7283,N,11657.5589,W,2,17,0.61,883.7,M,-31.0,M,,*4A\r`\r\n"2022-04-09 17:04:37
"||||||||||||-52,6969,$GNRMC,170435.000435,,,23$GNGGA,170436.000,3429.7283,N,11657.5591,W,2,17,0.61,883.7,M,-31.0,M,,*40\r`\r\n"2022-04-09 17:04:37
"||||||||||||-51,6969,$ACCEL,9.48,0.05,0.41,$ALT,867.07,-261.74\r\n"2022-04-09 17:04:38
"||||||||||||-51,6969,$GNRMC,170436.00,215..4*$GNGGA,170437.000,3429.7284,N,11657.5592,W,2,17,0.61,883.6,M,-31.0,M,,*44\r\r\n"2022-04-09 17:04:38
"||||||||||||-50,6969,$ACCEL,9.47,0.31,0.30,$ALT,866.96,-261.72,3429.7284,N,11657.5592,W,2,17,0.61,883.6,M,-31.0,M,,*44\r\r\n"2022-04-09 17:04:39
"||||||||||||-50,6969,$GNRMC,170437.0002,7W30,\r$GNGGA,170438.000,3429.7284,N,11657.5592,W,2,17,0.61,883.5,M,-31.0,M,,*48\r,\u0001\r\n"2022-04-09 17:04:39
"||||||||||||-48,6969,$ACCEL,10.01,0.57,-0.03,$ALT,866.90,-261.703429.7284,N,11657.5592,W,2,17,0.61,883.5,M,-31.0,M,,*48\r,\u0001\r\n"2022-04-09 17:04:40
"||||||||||||-48,6969,$GNRMC,170438.02,7W30,\r$GNGGA,170439.000,3429.7284,N,11657.5592,W,2,17,0.61,883.4,M,-31.0,M,,*48\r8\r,\u0001\r\n"2022-04-09 17:04:40
"||||||||||||-49,6969,$ACCEL,9.88,0.62,0.08,$ALT,867.02,-261.753429.7284,N,11657.5592,W,2,17,0.61,883.4,M,-31.0,M,,*48\r8\r,\u0001\r\n"2022-04-09 17:04:41
"||||||||||||-49,6969,$GNRMC,170439.000445,,,29$GNGGA,170440.000,3429.7283,N,11657.5592,W,2,17,0.61,883.4,M,-31.0,M,,*41\r,\u0001\r\n"2022-04-09 17:04:41
"||||||||||||-47,6969,$ACCEL,9.73,0.73,0.56,$ALT,867.19,-261.79\r\n"2022-04-09 17:04:42
"||||||||||||-48,6969,$GNRMC,170440.000,.,5079,$GNGGA,170441.000,3429.7283,N,11657.5592,W,2,17,0.61,883.4,M,-31.0,M,,*40\r`\r\n"2022-04-09 17:04:42
"||||||||||||-48,6969,$ACCEL,9.71,0.68,-0.03,$ALT,866.87,-261.70,3429.7283,N,11657.5592,W,2,17,0.61,883.4,M,-31.0,M,,*40\r`\r\n"2022-04-09 17:04:43
"||||||||||||-47,6969,$GNRMC,170441.000,.,5,09,$GNGGA,170442.000,3429.7283,N,11657.5592,W,2,17,0.61,883.3,M,-31.0,M,,*44\r`\r\n"2022-04-09 17:04:43
"||||||||||||-47,6969,$ACCEL,10.04,-0.36,-0.64,$ALT,866.94,-261.72429.7283,N,11657.5592,W,2,17,0.61,883.3,M,-31.0,M,,*44\r`\r\n"2022-04-09 17:04:44
"||||||||||||-59,6969,$GNRMC,170442.00038627026$GNGGA,170443.000,3429.7284,N,11657.5592,W,2,17,0.61,883.3,M,-31.0,M,,*42\r,\u0001\r\n"2022-04-09 17:04:44
"||||||||||||-60,6969,$ACCEL,8.53,-2.16,0.36,$ALT,867.10,-261.78,3429.7284,N,11657.5592,W,2,17,0.61,883.3,M,-31.0,M,,*42\r,\u0001\r\n"2022-04-09 17:04:45
"||||||||||||-64,6969,$GNRMC,170443.000A.,5070,$GNGGA,170444.000,3429.7284,N,11657.5592,W,2,16,0.63,883.3,M,-31.0,M,,*46\r,\u0001\r\n"2022-04-09 17:04:45
"||||||||||||-51,6969,$ACCEL,9.51,0.31,-1.38,$ALT,867.10,-261.78B\u0001\r\n"2022-04-09 17:04:46
"||||||||||||-53,6969,$GNRMC,170444.000,2,7W,,,\r$GNGGA,170445.000,3429.7284,N,11657.5592,W,2,17,0.61,883.3,M,-31.0,M,,*44\r\r\n"2022-04-09 17:04:46
"||||||||||||-68,6969,$ACCEL,9.57,-0.81,0.08,$ALT,866.84,-261.700,3429.7284,N,11657.5592,W,2,17,0.61,883.3,M,-31.0,M,,*44\r\r\n"2022-04-09 17:04:47
"||||||||||||-66,6969,$GNRMC,170445.000445,,0,\r$GNGGA,170446.000,3429.7284,N,11657.5592,W,2,17,0.61,883.3,M,-31.0,M,,*47\r`\r\n"2022-04-09 17:04:47
"||||||||||||-61,6969,$ACCEL,9.63,0.04,-0.80,$ALT,866.88,-261.72,3429.7284,N,11657.5592,W,2,17,0.61,883.3,M,-31.0,M,,*47\r`\r\n"2022-04-09 17:04:48
"||||||||||||-64,6969,$GNRMC,170446.00,219..4*$GNGGA,170447.000,3429.7283,N,11657.5591,W,2,17,0.61,883.3,M,-31.0,M,,*42\r\r`\r\n"2022-04-09 17:04:48
"||||||||||||-65,6969,$ACCEL,9.38,-0.85,0.84,$ALT,866.86,-261.713429.7283,N,11657.5591,W,2,17,0.61,883.3,M,-31.0,M,,*42\r\r`\r\n"2022-04-09 17:04:49
"||||||||||||-60,6969,$GNRMC,170447.009N.,09,$GNGGA,170448.000,3429.7283,N,11657.5588,W,2,17,0.61,883.2,M,-31.0,M,,*44\r\r\n"2022-04-09 17:04:49
"||||||||||||-58,6969,$ACCEL,9.76,0.46,-0.76,$ALT,867.17,-261.81429.7283,N,11657.5588,W,2,17,0.61,883.2,M,-31.0,M,,*44\r\r\n"2022-04-09 17:04:50
"||||||||||||-61,6969,$GNRMC,170448.000,3868112F$GNGGA,170449.000,3429.7283,N,11657.5587,W,2,17,0.61,883.2,M,-31.0,M,,*4A\r\u0001\r\n"2022-04-09 17:04:50
"||||||||||||-59,6969,$ACCEL,8.97,0.50,-0.07,$ALT,867.04,-261.76\r\n"2022-04-09 17:04:51
"||||||||||||-61,6969,$GNRMC,170449.003218292*$GNGGA,170450.000,3429.7283,N,11657.5587,W,2,17,0.61,883.2,M,-31.0,M,,*42\r\r\n"2022-04-09 17:04:51
"||||||||||||-63,6969,$ACCEL,8.97,0.50,-0.07,$ALT,867.16,-261.793429.7283,N,11657.5587,W,2,17,0.61,883.2,M,-31.0,M,,*42\r\r\n"2022-04-09 17:04:52
"||||||||||||-64,6969,$GNRMC,170450.009N.W10,$ALT,867.16,-261.793429.7283,N,11657.5587,W,2,17,0.61,883.2,M,-31.0,M,,*42\r\r\n"2022-04-09 17:04:52
"||||||||||||-66,6969,$ACCEL,10.46,0.69,0.11,$ALT,867.09,-261.78B\u0001\r\n"2022-04-09 17:04:52
"||||||||||||-54,6969,$GNRMC,170451.0002,7W10,\r$GNGGA,170452.000,3429.7281,N,11657.5584,W,2,17,0.61,883.2,M,-31.0,M,,*41\r`\r\n"2022-04-09 17:04:54
"||||||||||||-54,6969,$ACCEL,9.68,-0.75,0.02,$ALT,867.01,-261.77,3429.7281,N,11657.5584,W,2,17,0.61,883.2,M,-31.0,M,,*41\r`\r\n"2022-04-09 17:04:54
"||||||||||||-54,6969,$GNRMC,170452.000,218.125$GNGGA,170453.000,3429.7281,N,11657.5582,W,2,17,0.61,883.2,M,-31.0,M,,*46\r,\u0001\r\n"2022-04-09 17:04:55
"||||||||||||-59,6969,$ACCEL,9.79,-1.08,-0.21,$ALT,867.00,-261.773429.7281,N,11657.5582,W,2,17,0.61,883.2,M,-31.0,M,,*46\r,\u0001\r\n"2022-04-09 17:04:56
"||||||||||||-64,6969,$GNRMC,170453.00415,9,,\r$GNGGA,170454.000,3429.7282,N,11657.5579,W,2,17,0.61,883.2,M,-3,$1048697,,\r$GNGGA,170455.000,3\r\n"2022-04-09 17:04:56
"||||||||||||-58,6969,$ACCEL,9.62,1.44,-1.24,$ALT,866.99,-261.77B\u0001\r\n"2022-04-09 17:04:57
"||||||||||||-60,6969,$GNRMC,170455.000,A,3486733,\r$GNGGA,170456.000,3429.7281,N,11657.5579,W,2,17,0.61,883.1,M,-31.0,M,,*44\r@B\u000f\r\n"2022-04-09 17:04:57
"||||||||||||-66,6969,$ACCEL,9.73,0.91,-0.75,$ALT,867.03,-261.78.000,3429.7281,N,11657.5579,W,2,17,0.61,883.1,M,-31.0,M,,*44\r@B\u000f\r\n"2022-04-09 17:04:58
"||||||||||||-65,6969,$GNRMC,170456.00,9N.,80*$GNGGA,170457.000,3429.7281,N,11657.5578,W,2,17,0.61,883.1,M,-31.0,M,,*44\r,*44\r@B\u000f\r\n"2022-04-09 17:04:58
"||||||||||||-64,6969,$ACCEL,9.77,0.40,-0.61,$ALT,867.12,-261.813429.7281,N,11657.5578,W,2,17,0.61,883.1,M,-31.0,M,,*44\r,*44\r@B\u000f\r\n"2022-04-09 17:04:59
"||||||||||||-64,6969,$GNRMC,170457.003868132B$GNGGA,170458.000,3429.7281,N,11657.5577,W,2,16,0.63,883.1,M,-31.0,M,,*47\r,*44\r@B\u000f\r\n"2022-04-09 17:04:59
"||||||||||||-67,6969,$ACCEL,9.76,0.35,-0.42,$ALT,867.45,-261.923429.7281,N,11657.5577,W,2,16,0.63,883.1,M,-31.0,M,,*47\r,*44\r@B\u000f\r\n"2022-04-09 17:05:00
"||||||||||||-66,6969,$GNRMC,170458.000,A,3429.7281,N,11657.5577,W,0.$GNGGA,170459.000,3429.7281,N,11657.5576,W,2,17,0.61,883.1,M,-31.0,M,,*\r\n"2022-04-09 17:05:00
"||||||||||||-63,6969,$ACCEL,9.77,0.68,-0.39,$ALT,867.35,-261.89,W,0.$GNGGA,170459.000,3429.7281,N,11657.5576,W,2,17,0.61,883.1,M,-31.0,M,,*\r\n"2022-04-09 17:05:01
"||||||||||||-63,6969,$GNRMC,170459.000,A,3429.7281$GNGGA,170500.000,3429.7281,N,11657.5575,W,2,17,0.61,883.1,M,-31.0,M,,*4A\r.1,M,-31.0,M,,*\r\n"2022-04-09 17:05:01
"||||||||||||-64,6969,$ACCEL,9.77,0.58,-0.50,$ALT,867.21,-261.85\r\n"2022-04-09 17:05:02
"||||||||||||-60,6969,$GNRMC,170500.000,A,3429$GNGGA,170501.000,3429.7281,N,11657.5573,W,2,17,0.61,883.0,M,-31.0,M,,*4C\r\r\n"2022-04-09 17:05:02
"||||||||||||-60,6969,$ACCEL,9.78,0.41,-0.46,$ALT,867.32,-261.883429.7281,N,11657.5573,W,2,17,0.61,883.0,M,-31.0,M,,*4C\r\r\n"2022-04-09 17:05:03
"||||||||||||-60,6969,$GNRMC,170501.000,A,3429$GNGGA,170502.000,3429.7281,N,11657.5572,W,2,17,0.61,883.0,M,-31.0,M,,*4E\r\r\n"2022-04-09 17:05:03
"||||||||||||-60,6969,$ACCEL,9.76,0.56,-0.31,$ALT,867.49,-261.943429.7281,N,11657.5572,W,2,17,0.61,883.0,M,-31.0,M,,*4E\r\r\n"2022-04-09 17:05:05
"||||||||||||-60,6969,$GNRMC,170502.000,A,3429.7281150.4*$GNGGA,170503.000,3429.7281,N,11657.5571,W,2,17,0.61,883.0,M,-31.0,M,,*4C\r\r\n"2022-04-09 17:05:05
"||||||||||||-59,6969,$ACCEL,9.76,0.51,-0.50,$ALT,867.53,-261.96B\u0001\r\n"2022-04-09 17:05:06
"||||||||||||-59,6969,$GNRMC,1705.38171327$GNGGA,170504.000,3429.7281,N,11657.5571,W,2,17,0.61,882.9,M,-31.0,M,,*43\r\r\n"2022-04-09 17:05:06
"||||||||||||-60,6969,$ACCEL,9.77,0.43,-0.59,$ALT,867.26,-261.88.7281,N,11657.5571,W,2,17,0.61,882.9,M,-31.0,M,,*43\r\r\n"2022-04-09 17:05:07
"||||||||||||-60,6969,$GNRMC,170504.0009,7W79,$GNGGA,170505.000,3429.7282,N,11657.5572,W,2,17,0.61,882.9,M,-31.0,M,,*42\r\r\n"2022-04-09 17:05:07
"||||||||||||-65,6969,$ACCEL,9.76,0.42,-0.57,$ALT,867.26,-261.883429.7282,N,11657.5572,W,2,17,0.61,882.9,M,-31.0,M,,*42\r\r\n"2022-04-09 17:05:08
"||||||||||||-65,6969,$GNRMC,170505.00038628329$GNGGA,170506.000,3429.7283,N,11657.5571,W,2,17,0.61,882.9,M,-31.0,M,,*43\r`\r\n"2022-04-09 17:05:08
"||||||||||||-61,6969,$ACCEL,9.78,0.43,-0.50,$ALT,867.61,-261.99B\u0001\r\n"2022-04-09 17:05:09
"||||||||||||-61,6969,$GNRMC,170506.0A7,50.4*$GNGGA,170507.000,3429.7284,N,11657.5572,W,2,17,0.61,882.8,M,-31.0,M,,*47\r\r\n"2022-04-09 17:05:09
"||||||||||||-65,6969,$ACCEL,9.77,0.56,-0.32,$ALT,867.46,-261.95429.7284,N,11657.5572,W,2,17,0.61,882.8,M,-31.0,M,,*47\r\r\n"2022-04-09 17:05:10
"||||||||||||-65,6969,$GNRMC,170507.0,9N.,80D$GNGGA,170508.000,3429.7285,N,11657.5572,W,2,17,0.61,882.8,M,-31.0,M,,*49\r\r\n"2022-04-09 17:05:10
"||||||||||||-65,6969,$ACCEL,9.76,0.80,-0.22,$ALT,867.47,-261.95B\u0001\r\n"2022-04-09 17:05:11
"||||||||||||-66,6969,$GNRMC,170508.000,A.,50.4*$GNGGA,170509.000,3429.7286,N,11657.5573,W,2,17,0.61,882.8,M,-31.0,M,,*4A\r\u0001\r\n"2022-04-09 17:05:11
"||||||||||||-65,6969,$ACCEL,9.76,0.75,-0.26,$ALT,867.41,-261.910,3429.7286,N,11657.5573,W,2,17,0.61,882.8,M,-31.0,M,,*4A\r\u0001\r\n"2022-04-09 17:05:12
"||||||||||||-68,6969,$GNRMC,170509.0009N.,79,$GNGGA,170510.000,3429.7287,N,11657.5573,W,2,16,0.63,882.7,M,-31.0,M,,*4F\rA\r\u0001\r\n"2022-04-09 17:05:12
"||||||||||||-59,6969,$ACCEL,9.78,0.72,-0.17,$ALT,867.57,-261.993429.7287,N,11657.5573,W,2,16,0.63,882.7,M,-31.0,M,,*4F\rA\r\u0001\r\n"2022-04-09 17:05:13
"||||||||||||-61,6969,$GNRMC,170510.00048633,,\r$GNGGA,170511.000,3429.7287,N,11657.5572,W,2,16,0.64,882.7,M,-31.0,M,,*48\r\r\u0001\r\n"2022-04-09 17:05:13
"||||||||||||-64,6969,$ACCEL,9.78,0.61,-0.14,$ALT,867.42,-261.95,3429.7287,N,11657.5572,W,2,16,0.64,882.7,M,-31.0,M,,*48\r\r\u0001\r\n"2022-04-09 17:05:14
"||||||||||||-61,6969,$GNRMC,170511.00,2170325$GNGGA,170512.000,3429.7287,N,11657.5572,W,2,17,0.61,882.6,M,-31.0,M,,*4E\r\r\r\u0001\r\n"2022-04-09 17:05:14
"||||||||||||-64,6969,$ACCEL,9.79,0.65,-0.07,$ALT,867.37,-261.933429.7287,N,11657.5572,W,2,17,0.61,882.6,M,-31.0,M,,*4E\r\r\r\u0001\r\n"2022-04-09 17:05:15
"||||||||||||-58,6969,$GNRMC,170512.000,,2170325$GNGGA,170513.000,3429.7287,N,11657.5572,W,2,17,0.61,882.6,M,-31.0,M,,*4F\r\u0001\r\n"2022-04-09 17:05:15
"||||||||||||-57,6969,$ACCEL,9.81,0.69,-0.02,$ALT,867.47,-261.96B\u0001\r\n"2022-04-09 17:05:16
"||||||||||||-58,6969,$GNRMC,170513.00,.N.,80D$GNGGA,170514.000,3429.7287,N,11657.5572,W,2,17,0.61,882.6,M,-31.0,M,,*48\r\r\n"2022-04-09 17:05:16
"||||||||||||-57,6969,$ACCEL,9.78,0.60,-0.01,$ALT,867.53,-261.973429.7287,N,11657.5572,W,2,17,0.61,882.6,M,-31.0,M,,*48\r\r\n"2022-04-09 17:05:17
"||||||||||||-57,6969,$GNRMC,170514.00038625321$GNGGA,170515.000,3429.7287,N,11657.5572,W,2,17,0.61,882.6,M,-31.0,M,,*49\r`\r\n"2022-04-09 17:05:17
"||||||||||||-59,6969,$ACCEL,9.78,0.60,0.05,$ALT,867.40,-261.94\r\n"2022-04-09 17:05:18
"||||||||||||-57,6969,$GNRMC,170515.00,217.325$GNGGA,170516.000,3429.7287,N,11657.5572,W,2,17,0.61,882.5,M,-31.0,M,,*49\r\r\n"2022-04-09 17:05:18
"||||||||||||-60,6969,$ACCEL,9.77,0.69,0.01,$ALT,867.41,-261.96,3429.7287,N,11657.5572,W,2,17,0.61,882.5,M,-31.0,M,,*49\r\r\n"2022-04-09 17:05:19
"||||||||||||-61,6969,$GNRMC,170516.00,9N.,80,$GNGGA,170517.000,3429.7287,N,11657.5572,W,2,16,0.63,882.6,M,-31.0,M,,*48\r\r\n"2022-04-09 17:05:19
"||||||||||||-68,6969,$ACCEL,9.78,0.71,-0.06,$ALT,867.33,-261.93\r\n"2022-04-09 17:05:20
"||||||||||||-64,6969,$GNRMC,170517.00475,4,,\r$GNGGA,170518.000,3429.7287,N,11657.5572,W,2,17,0.61,882.6,M,-31.0,M,,*44\r\r\n"2022-04-09 17:05:20
"||||||||||||-58,6969,$ACCEL,9.76,0.73,-0.07,$ALT,867.43,-261.963429.7287,N,11657.5572,W,2,17,0.61,882.6,M,-31.0,M,,*44\r\r\n"2022-04-09 17:05:21
"||||||||||||-61,6969,$GNRMC,170518.000,715.325$GNGGA,170519.000,3429.7287,N,11657.5571,W,2,17,0.61,882.6,M,-31.0,M,,*46\r,\u0001\r\n"2022-04-09 17:05:21
"||||||||||||-60,6969,$ACCEL,9.76,0.75,-0.13,$ALT,867.50,-261.98,3429.7287,N,11657.5571,W,2,17,0.61,882.6,M,-31.0,M,,*46\r,\u0001\r\n"2022-04-09 17:05:22
"||||||||||||-60,6969,$GNRMC,170519.0002,5,,0,\r$GNGGA,170520.000,3429.7287,N,11657.5571,W,2,17,0.61,882.6,M,-31.0,M,,*4C\r,\u0001\r\n"2022-04-09 17:05:22
"||||||||||||-66,6969,$ACCEL,9.76,0.76,-0.15,$ALT,867.41,-261.96,3429.7287,N,11657.5571,W,2,17,0.61,882.6,M,-31.0,M,,*4C\r,\u0001\r\n"2022-04-09 17:05:23
"||||||||||||-70,6969,$GNRMC,170520.00047614,,\r$GNGGA,170521.000,3429.7287,N,11657.5571,W,2,16,0.64,882.6,M,-31.0,M,,*49\r,\u0001\r\n"2022-04-09 17:05:23
"||||||||||||-72,6969,$ACCEL,9.76,0.76,-0.15,$ALT,867.34,-261.93,3429.7287,N,11657.5571,W,2,16,0.64,882.6,M,-31.0,M,,*49\r,\u0001\r\n"2022-04-09 17:05:23
"||||||||||||-73,6969,$GNRMC,170521.0002,7W79,ALT,867.34,-261.93,3429.7287,N,11657.5571,W,2,16,0.64,882.6,M,-31.0,M,,*49\r,\u0001\r\n"2022-04-09 17:05:23
"||||||||||||-69,6969,$ACCEL,9.76,0.78,-0.23,$ALT,867.36,-261.95,3429.7287,N,11657.5571,W,2,16,0.64,882.6,M,-31.0,M,,*49\r,\u0001\r\n"2022-04-09 17:05:24
"||||||||||||-70,6969,$GNGGA,170522.000,3429.7287,N,11657.5570,W,2,17,0.61,882.6,M,-31.0,M,,*4F\r.64,882.6,M,-31.0,M,,*49\r,\u0001\r\n"2022-04-09 17:05:24
"||||||||||||-69,6969,$ACCEL,9.75,0.77,-0.38,$ALT,867.41,-261.97,2,17,0.61,882.6,M,-31.0,M,,*4F\r.64,882.6,M,-31.0,M,,*49\r,\u0001\r\n"2022-04-09 17:05:25
"||||||||||||-70,6969,$GNRMC,170522.0009N7W79,$GNGGA,170523.000,3429.7287,N,11657.5570,W,2,17,0.61,882.6,M,-31.0,M,,*4E\r\r,\u0001\r\n"2022-04-09 17:05:25
"||||||||||||-72,6969,$ACCEL,9.75,0.78,-0.27,$ALT,867.44,-261.993429.7287,N,11657.5570,W,2,17,0.61,882.6,M,-31.0,M,,*4E\r\r,\u0001\r\n"2022-04-09 17:05:26
"||||||||||||-75,6969,$GNRMC,170523.0009N.,89,$GNGGA,170524.000,3429.7287,N,11657.5570,W,2,17,0.61,882.5,M,-31.0,M,,*4A\r\r\n"2022-04-09 17:05:26
"||||||||||||-67,6969,$ACCEL,9.76,0.80,-0.21,$ALT,867.57,-262.033429.7287,N,11657.5570,W,2,17,0.61,882.5,M,-31.0,M,,*4A\r\r\n"2022-04-09 17:05:28
"||||||||||||-71,6969,$GNRMC,170524.000,715.325$GNGGA,170525.000,3429.7287,N,11657.5570,W,2,17,0.61,882.6,M,-08M2A.,50.4*$GNGGA,170526.000,3 \r\n"2022-04-09 17:05:28
"||||||||||||-70,6969,$ACCEL,9.76,0.80,-0.21,$ALT,867.46,-261.98,3429.7287,N,11657.5570,W,2,17,0.61,882.6,M,-08M2A.,50.4*$GNGGA,170526.000,3 \r\n"2022-04-09 17:05:28
"||||||||||||-68,6969,$GNRMC,170526.000,A,342,7W,0,67.46,-261.98,3429.7287,N,11657.5570,W,2,17,0.61,882.6,M,-08M2A.,50.4*$GNGGA,170526.000,3 \r\n"2022-04-09 17:05:28
"||||||||||||-70,6969,$ACCEL,9.76,0.74,-0.15,$ALT,867.38,-261.97B\u0001\r\n"2022-04-09 17:05:29
"||||||||||||-67,6969,$GNRMC,170527.00,217.325$GNGGA,170528.000,3429.7287,N,11657.5570,W,2,17,0.61,882.6,M,-31.0,M,,*45\r\r\n"2022-04-09 17:05:30
"||||||||||||-72,6969,$ACCEL,9.76,0.67,-0.01,$ALT,867.31,-261.95B\u0001\r\n"2022-04-09 17:05:31
"||||||||||||-71,6969,$GNRMC,170528.00A7,50.4*$GNGGA,170529.000,3429.7287,N,11657.5570,W,2,17,0.61,882.7,M,-31.0,M,,*45\r\r\n"2022-04-09 17:05:31
"||||||||||||-72,6969,$ACCEL,9.78,0.78,0.08,$ALT,867.31,-261.96,3429.7287,N,11657.5570,W,2,17,0.61,882.7,M,-31.0,M,,*45\r\r\n"2022-04-09 17:05:32
"||||||||||||-72,6969,$GNRMC,170529.000,A,3429.7287,N,11657.5570,W,0$GNGGA,170530.000,3429.7287,N,11657.5569,W,2,17,0.61,882.7,M,-31.0,M,,*4 \r\n"2022-04-09 17:05:32
"||||||||||||-76,6969,$ACCEL,9.77,0.75,0.07,$ALT,867.45,-262.00\r\n"2022-04-09 17:05:33
"||||||||||||-71,6969,$GNRC0A716032C$GNGGA,170531.000,3429.7287,N,11657.5569,W,2,17,0.61,882.7,M,-31.0,M,,*44\rB\u000f\r\n"2022-04-09 17:05:33
"||||||||||||-65,6969,$ACCEL,9.77,0.91,0.16,$ALT,867.22,-261.94\r\n"2022-04-09 17:05:34
"||||||||||||-59,6969,$GNRMC,170531.000,A,34.,5080D$GNGGA,170532.000,3429.7287,N,11657.5569,W,2,17,0.61,882.7,M,-31.0,M,,*47\r\r\n"2022-04-09 17:05:34
"||||||||||||-48,6969,$ACCEL,9.94,0.88,-0.35,$ALT,867.50,-262.02.000,3429.7287,N,11657.5569,W,2,17,0.61,882.7,M,-31.0,M,,*47\r\r\n"2022-04-09 17:05:35
"||||||||||||-48,6969,$GNRMC,170532.000,.N.,80D$GNGGA,170533.000,3429.7287,N,11657.5569,W,2,17,0.61,882.7,M,-31.0,M,,*46\r*47\r\r\n"2022-04-09 17:05:35
"||||||||||||-50,6969,$ACCEL,9.79,-1.97,-1.19,$ALT,866.65,-261.77\u0005R\r\n"2022-04-09 17:05:36
"||||||||||||-47,6969,$GNRMC,170533.000475,,,,\r$GNGGA,170534.000,3429.7287,N,11657.5569,W,2,17,0.61,882.7,M,-31.0,M,,*41\r`\r\n"2022-04-09 17:05:36
"||||||||||||-42,6969,$ACCEL,9.83,-0.27,-0.86,$ALT,866.89,-261.843429.7287,N,11657.5569,W,2,17,0.61,882.7,M,-31.0,M,,*41\r`\r\n"2022-04-09 17:05:37
"||||||||||||-47,6969,$GNRMC,17053409,5,80D$GNGGA,170535.000,3429.7287,N,11657.5569,W,2,17,0.61,882.7,M,-31.0,M,,*40\r*41\r`\r\n"2022-04-09 17:05:37
"||||||||||||-45,6969,$ACCEL,9.83,-0.27,-0.86,$ALT,866.93,-261.85\u0001\r\n"2022-04-09 17:05:37
"||||||||||||-48,6969,$GNRMC,170535.000,A,2,7W70,T,866.93,-261.85\u0001\r\n"2022-04-09 17:05:37
"||||||||||||-38,6969,$ACCEL,9.36,-1.60,0.61,$ALT,867.24,-261.955\u0001\r\n"2022-04-09 17:05:38
"||||||||||||-36,6969,$GNRMC,170536.00A216.325$GNGGA,170537.000,3429.7287,N,11657.5569,W,2,17,0.61,882.7,M,-31.0,M,,*42\r\r\n"2022-04-09 17:05:39
"||||||||||||-37,6969,$ACCEL,9.72,0.33,-1.31,$ALT,867.22,-261.96\r\n"2022-04-09 17:05:40
"||||||||||||-36,6969,$GNRMC,170537.00,.15..4*$GNGGA,170538.000,3429.7286,N,11657.5569,W,2,17,0.61,882.7,M,-31.0,M,,*4C\r\r\n"2022-04-09 17:05:40
"||||||||||||-36,6969,$ACCEL,9.71,0.36,-1.15,$ALT,867.11,-261.92B\u0001\r\n"2022-04-09 17:05:41
"||||||||||||-35,6969,$GNRMC,170538.000,2691726$GNGGA,170539.000,3429.7286,N,11657.5571,W,2,17,0.61,882.7,M,-M\r\n"2022-04-09 17:05:41
"||||||||||||-36,6969,$ACCEL,9.71,0.36,-1.14,$ALT,867.13,-261.93,3429.7286,N,11657.5571,W,2,17,0.61,882.7,M,-M\r\n"2022-04-09 17:05:42
"||||||||||||-37,6969,,9,2174.4*$GNGGA,170540.000,3429.7286,N,11657.5573,W,2,17,0.61,882.7,M,-31.0,M,,*48\r\r\n"2022-04-09 17:05:42
"||||||||||||-36,6969,$ACCEL,9.71,0.36,-1.14,$ALT,867.17,-261.94657.5573,W,2,17,0.61,882.7,M,-31.0,M,,*48\r\r\n"2022-04-09 17:05:42
"||||||||||||-35,6969,$GNRMC,170540.000,A,349N.,20,67.17,-261.94657.5573,W,2,17,0.61,882.7,M,-31.0,M,,*48\r\r\n"2022-04-09 17:05:42
"||||||||||||-40,6969,$ACCEL,9.70,0.78,-1.22,$ALT,866.98,-261.89657.5573,W,2,17,0.61,882.7,M,-31.0,M,,*48\r\r\n"2022-04-09 17:05:43
"||||||||||||-42,6969,$GNGGA,170541.000,3429.7286,N,11657.5574,W,2,17,0.61,882.6,M,-31.0,M,,*4F\r.0,M,,*48\r\r\n"2022-04-09 17:05:43
"||||||||||||-43,6969,$ACCEL,9.59,-1.38,0.26,$ALT,867.20,-261.96,2,17,0.61,882.6,M,-31.0,M,,*4F\r.0,M,,*48\r\r\n"2022-04-09 17:05:44
"||||||||||||-44,6969,$GNRMC,170541.0048640726$GNGGA,170542.000,3429.7285,N,11657.5574,W,2,17,0.61,882.5,M,-31.0,M,,*4C\r\r\n"2022-04-09 17:05:44
"||||||||||||-56,6969,$ACCEL,8.74,-2.44,2.15,$ALT,867.56,-262.07B\u0001\r\n"2022-04-09 17:05:45
"||||||||||||-57,6969,$GNRMC,170542.00A715..0D$GNGGA,170543.000,3429.7285,N,11657.5574,W,2,17,0.61,882.5,M,-31.0,M,,*4D\r\r\n"2022-04-09 17:05:45
"||||||||||||-48,6969,$ACCEL,9.73,-2.46,0.64,$ALT,867.19,-261.96B\u0001\r\n"2022-04-09 17:05:46
"||||||||||||-48,6969,$GNRMC,170543.000,A455,,,,1$GNGGA,170544.000,3429.7285,N,11657.5574,W,2,17,0.61,882.5,M,-30AR5,.,5,39,$GNGGA,170545.00 \r\n"2022-04-09 17:05:47
"||||||||||||-48,6969,$ACCEL,9.43,-3.00,0.49,$ALT,866.78,-261.84B\u0001\r\n"2022-04-09 17:05:47
"||||||||||||-49,6969,$GNRMC,170545.000,A,3428671926$GNGGA,170546.000,3429.7283,N,11657.5574,W,2,17,0.61,882.6,M,-31.0,M,,*4D\rB\u000f\r\n"2022-04-09 17:05:48
"||||||||||||-66,6969,$ACCEL,9.40,-2.97,0.67,$ALT,866.83,-261.856.000,3429.7283,N,11657.5574,W,2,17,0.61,882.6,M,-31.0,M,,*4D\rB\u000f\r\n"2022-04-09 17:05:48
"||||||||||||-60,6969,$GNRMC,170546.00A7,5000D$GNGGA,170547.000,3429.7283,N,11657.5572,W,2,17,0.61,882.7,M,-31.0,M,,*4B\r\r\n"2022-04-09 17:05:49
"||||||||||||-51,6969,$ACCEL,9.42,-2.95,0.73,$ALT,866.94,-261.88\r\n"2022-04-09 17:05:49
"||||||||||||-50,6969,$GNRMC,170547.0002,7W40,ALT,866.94,-261\r\n"2022-04-09 17:05:49
"||||||||||||-56,6969,$ACCEL,9.42,-2.95,0.73,$ALT,866.90,-261.87B\u0001\r\n"2022-04-09 17:05:50
"||||||||||||-54,6969,$ACCEL,9.43,-2.95,0.72,$ALT,867.19,-261.97B\u0001\r\n"2022-04-09 17:05:51
"||||||||||||-55,6969,$GNRMC,170548.000,A,3429.7283,N,11657.5573,W,$GNGGA,170549.000,3429.7284,N,11657.5573,W,2,17,0.61,882.6,M,-31.0,M,,*42 \r\n"2022-04-09 17:05:51
"||||||||||||-54,6969,$ACCEL,9.44,-2.89,0.75,$ALT,867.12,-261.94B\u0001\r\n"2022-04-09 17:05:52
"||||||||||||-54,6969,$GNRMC,170549.000,A,3429.7284,$GNGGA,170550.000,3429.7284,N,11657.5574,W,2,17,0.61,882.6,M,-31.0,M,,*4D\rB\u000f\r\n"2022-04-09 17:05:52
"||||||||||||-53,6969,$ACCEL,9.43,-2.87,0.80,$ALT,867.08,-261.940.000,3429.7284,N,11657.5574,W,2,17,0.61,882.6,M,-31.0,M,,*4D\rB\u000f\r\n"2022-04-09 17:05:53
"||||||||||||-53,6969,$GNRMC,170550.000,A,3429$GNGGA,170551.000,3429.7284,N,11657.5575,W,2,17,0.61,882.5,M,-31.0,M,,*4E\rN002,7W40,\r\n"2022-04-09 17:05:53
"||||||||||||-54,6969,$ACCEL,9.43,-2.87,0.80,$ALT,867.33,-262.01B\u0001\r\n"2022-04-09 17:05:54
"||||||||||||-53,6969,$ACCEL,9.41,-2.92,1.00,$ALT,867.18,-261.97B\u0001\r\n"2022-04-09 17:05:55
"||||||||||||-54,6969,$GNRMC,170552.000,A,342170925$GNGGA,170553.000,3429.7284,N,11657.5575,W,2,17,0.61,882.4,M,-31.0,M,,*4D\r@B\u000f\r\n"2022-04-09 17:05:55
"||||||||||||-53,6969,$ACCEL,9.41,-2.92,1.00,$ALT,867.03,-261.92\r\n"2022-04-09 17:05:56
"||||||||||||-51,6969,$GNRMC,17055044654,,\r$GNGGA,170554.000,3429.7283,N,11657.5576,W,2,17,0.61,882.2,M,-31.0,M,,*48\r\r\n"2022-04-09 17:05:56
"||||||||||||-54,6969,$ACCEL,9.41,-2.94,1.09,$ALT,867.22,-261.99B\u0001\r\n"2022-04-09 17:05:57
"||||||||||||-53,6969,$GNRMC,170554.00435,,0,\r$GNGGA,170555.000,3429.7282,N,11657.5576,W,2,17,0.61,882.1,M,-31.0,M,,*4B\r\r\n"2022-04-09 17:05:57
"||||||||||||-54,6969,$ACCEL,9.43,-2.81,1.25,$ALT,867.42,-262.04B\u0001\r\n"2022-04-09 17:05:57
"||||||||||||-54,6969,$GNRMC,170555.02,7W49,,$ALT,867.42,-262.04B\u0001\r\n"2022-04-09 17:05:57
"||||||||||||-53,6969,$ACCEL,9.43,-2.81,1.25,$ALT,866.55,-261.79\r\n"2022-04-09 17:05:58
"||||||||||||-56,6969,$ACCEL,9.43,-2.79,1.27,$ALT,866.80,-261.87B\u0001\r\n"2022-04-09 17:05:59
"||||||||||||-56,6969,$GNRMC,170556.000,A,34715.92*$GNGGA,170557.000,3429.7282,N,11657.5577,W,2,17,0.61,881.8,M,-31.0,M,,*42\r@B\u000f\r\n"2022-04-09 17:05:59
"||||||||||||-55,6969,$ACCEL,9.43,-2.83,1.29,$ALT,866.62,-261.81B\u0001\r\n"2022-04-09 17:06:00
"||||||||||||-54,6969,$GNRMC,170557.009N.,49,$GNGGA,170558.000,3429.7281,N,11657.5577,W,2,16,0.62,881.7,M,-31.0,M,,*43\r\r\n"2022-04-09 17:06:00
"||||||||||||-54,6969,$ACCEL,9.40,-2.87,1.26,$ALT,866.65,-261.83429.7281,N,11657.5577,W,2,16,0.62,881.7,M,-31.0,M,,*43\r\r\n"2022-04-09 17:06:01
"||||||||||||-54,6969,$GNRMC,170558.000,9N.,50,$GNGGA,170559.000,3429.7281,N,11657.5578,W,2,17,0.61,881.5,M,-3,$1048681,,\r$GNGGA,170600.000, \r\n"2022-04-09 17:06:02
"||||||||||||-54,6969,$ACCEL,9.40,-2.87,1.22,$ALT,866.88,-261.90,3429.7281,N,11657.5578,W,2,17,0.61,881.5,M,-3,$1048681,,\r$GNGGA,170600.000, \r\n"2022-04-09 17:06:02
"||||||||||||-55,6969,$GNRMC,170600.000,A,34715.92*$GNGGA,170601.000,3429.7281,N,11657.5578,W,2,17,0.61,881.3,M,-31.0,M,,*45\r@B\u000f\r\n"2022-04-09 17:06:03
"||||||||||||-54,6969,$ACCEL,9.41,-2.84,1.29,$ALT,866.93,-261.92B\u0001\r\n"2022-04-09 17:06:03
"||||||||||||-55,6969,$GNRMC,170601.0038689,21$GNGGA,170602.000,3429.7281,N,11657.5579,W,2,16,0.62,881.2,M,-31.0,M,,*44\r\r\n"2022-04-09 17:06:04
"||||||||||||-55,6969,$ACCEL,9.43,-2.74,1.20,$ALT,867.14,-261.98\r\n"2022-04-09 17:06:04
"||||||||||||-56,6969,$GNRMC,170602.00032170023$GNGGA,170603.000,3429.7281,N,11657.5580,W,2,16,0.62,881.1,M,-31.0,M,,*40\r,\u0001\r\n"2022-04-09 17:06:05
"||||||||||||-53,6969,$ACCEL,9.41,-2.86,1.28,$ALT,867.03,-261.99,3429.7281,N,11657.5580,W,2,16,0.62,881.1,M,-31.0,M,,*40\r,\u0001\r\n"2022-04-09 17:06:06
"||||||||||||-54,6969,$GNRMC,170603.000,A,3429.7281,N,11657.5580,W,0$GNGGA,170604.000,3429.7281,N,11657.5580,W,2,16,0.62,881.0,M,-31.0,M,,*4\r\n"2022-04-09 17:06:06
"||||||||||||-54,6969,$ACCEL,9.42,-2.82,1.25,$ALT,866.70,-261.85,W,0$GNGGA,170604.000,3429.7281,N,11657.5580,W,2,16,0.62,881.0,M,-31.0,M,,*4\r\n"2022-04-09 17:06:07
"||||||||||||-53,6969,$GNRMC,170604.000,A,3429.7281$GNGGA,170605.000,3429.7281,N,11657.5581,W,2,16,0.62,880.9,M,-31.0,M,,*4E\r0,M,-31.0,M,,*4\r\n"2022-04-09 17:06:07
"||||||||||||-55,6969,$ACCEL,9.39,-2.88,1.40,$ALT,867.03,-261.96.000,3429.7281,N,11657.5581,W,2,16,0.62,880.9,M,-31.0,M,,*4E\r0,M,-31.0,M,,*4\r\n"2022-04-09 17:06:08
"||||||||||||-56,6969,$GNRMC,170605.000,A,3429$GNGGA,170606.000,3429.7281,N,11657.5581,W,2,16,0.62,880.8,M,-31.0,M,,*4C\r,*4E\r0,M,-31.0,M,,*4\r\n"2022-04-09 17:06:08
"||||||||||||-56,6969,$ACCEL,9.40,-2.83,1.42,$ALT,867.10,-261.983429.7281,N,11657.5581,W,2,16,0.62,880.8,M,-31.0,M,,*4C\r,*4E\r0,M,-31.0,M,,*4\r\n"2022-04-09 17:06:09
"||||||||||||-56,6969,$GNRMC,170606.000,A,3429.$GNGGA,170607.000,3429.7281,N,11657.5582,W,2,17,0.61,880.7,M,-31.0,M,,*43\r`\r\n"2022-04-09 17:06:09
"||||||||||||-54,6969,$ACCEL,9.41,-2.79,1.46,$ALT,866.74,-261.88,3429.7281,N,11657.5582,W,2,17,0.61,880.7,M,-31.0,M,,*43\r`\r\n"2022-04-09 17:06:10
"||||||||||||-53,6969,$GNRMC,170607.000,A,3429.728N7W49,$GNGGA,170608.000,3429.7281,N,11657.5582,W,2,16,0.62,880.6,M,-31.0,M,,*4F\r\r\n"2022-04-09 17:06:10
"||||||||||||-53,6969,$ACCEL,9.40,-2.82,1.43,$ALT,866.74,-261.8770608.000,3429.7281,N,11657.5582,W,2,16,0.62,880.6,M,-31.0,M,,*4F\r\r\n"2022-04-09 17:06:11
"||||||||||||-54,6969,$GNRMC,170608,715.92*$GNGGA,170609.000,3429.7281,N,11657.5582,W,2,16,0.62,880.5,M,-31.0,M,,*4D\r-31.0,M,,*4F\r\r\n"2022-04-09 17:06:11
"||||||||||||-54,6969,$ACCEL,9.41,-2.79,1.48,$ALT,866.47,-261.809.7281,N,11657.5582,W,2,16,0.62,880.5,M,-31.0,M,,*4D\r-31.0,M,,*4F\r\r\n"2022-04-09 17:06:12
"||||||||||||-53,6969,$GNRMC,170609.00,218.925$GNGGA,170610.000,3429.7281,N,11657.5582,W,2,17,0.61,880.4,M,-31.0,M,,*46\r.0,M,,*4F\r\r\n"2022-04-09 17:06:12
"||||||||||||-54,6969,$ACCEL,9.41,-2.27,1.97,$ALT,866.05,-261.67\r\n"2022-04-09 17:06:13
"||||||||||||-56,6969,$GNRMC,170610.00415,4,,\r$GNGGA,170611.000,3429.7281,N,11657.5582,W,2,17,0.59,880.2,M,-31.0,M,,*4A\r\r\n"2022-04-09 17:06:13
"||||||||||||-56,6969,$ACCEL,9.46,-1.60,2.49,$ALT,866.09,-261.68B\u0001\r\n"2022-04-09 17:06:14
"||||||||||||-54,6969,$GNRMC,170611.00041524,,\r$GNGGA,170612.000,3429.7281,N,11657.5583,W,2,17,0.59,880.1,M,-31.0,M,,*4B\r`\r\n"2022-04-09 17:06:14
"||||||||||||-58,6969,$ACCEL,9.46,-1.60,2.49,$ALT,865.10,-261.38B\u0001\r\n"2022-04-09 17:06:15
"||||||||||||-57,6969,$GNRMC,170612.032180025$GNGGA,170613.000,3429.7281,N,11657.5584,W,2,17,0.59,880.0,M,-31.0,M,,*4C\r\r\n"2022-04-09 17:06:15
"||||||||||||-59,6969,$ACCEL,9.46,-1.43,2.63,$ALT,865.62,-261.53B\u0001\r\n"2022-04-09 17:06:16
"||||||||||||-58,6969,$GNRMC,170613.0003864102B$GNGGA,170614.000,3429.7281,N,11657.5585,W,2,18,0.58,879.9,M,-31.0,M,,*4B\r`\r\n"2022-04-09 17:06:16
"||||||||||||-54,6969,$ACCEL,9.42,-1.51,3.11,$ALT,866.04,-261.68,3429.7281,N,11657.5585,W,2,18,0.58,879.9,M,-31.0,M,,*4B\r`\r\n"2022-04-09 17:06:17
"||||||||||||-55,6969,$GNRMC,170614.0009N7W49,$GNGGA,170615.000,3429.7280,N,11657.5585,W,2,18,0.58,879.9,M,-31.0,M,,*4B\r\r\n"2022-04-09 17:06:17
"||||||||||||-58,6969,$ACCEL,9.40,-1.30,2.83,$ALT,866.44,-261.79\r\n"2022-04-09 17:06:17
"||||||||||||-59,6969,$GNRMC,170615.0002,7W,0,\u0018\r\n"2022-04-09 17:06:17
"||||||||||||-58,6969,$ACCEL,9.40,-1.30,2.83,$ALT,866.68,-261.87\r\n"2022-04-09 17:06:18
"||||||||||||-57,6969,$GNGGA,170616.000,3429.7280,N,11657.5586,W,2,18,0.58,879.8,M,-31.0,M,,*4A\r\r\n"2022-04-09 17:06:18
"||||||||||||-61,6969,$ACCEL,9.37,-1.35,2.97,$ALT,866.21,-261.73B\u0001\r\n"2022-04-09 17:06:19
"||||||||||||-56,6969,$GNRMC,170616.00A715.94*$GNGGA,170617.000,3429.7280,N,11657.5585,W,2,18,0.58,879.7,M,-31.0,M,,*47\r\r\n"2022-04-09 17:06:19
"||||||||||||-59,6969,$ACCEL,9.36,-1.44,3.01,$ALT,867.04,-261.983429.7280,N,11657.5585,W,2,18,0.58,879.7,M,-31.0,M,,*47\r\r\n"2022-04-09 17:06:20
"||||||||||||-59,6969,$GNRMC,170617.000,218.925$GNGGA,170618.000,3429.7280,N,11657.5586,W,2,17,0.60,879.7,M,-31.0,M,,*4F\r`\r\n"2022-04-09 17:06:20
"||||||||||||-58,6969,$ACCEL,9.36,-1.37,3.07,$ALT,867.17,-262.03,3429.7280,N,11657.5586,W,2,17,0.60,879.7,M,-31.0,M,,*4F\r`\r\n"2022-04-09 17:06:21
"||||||||||||-59,6969,$GNRMC,170618.000205,,0,\r$GNGGA,170619.000,3429.7281,N,11657.5585,W,2,18,0.58,879.7,M,-,\rM1A715..4*$GNGGA,170620.000,3 \r\n"2022-04-09 17:06:21
"||||||||||||-64,6969,$ACCEL,9.35,-1.40,2.95,$ALT,867.07,-261.99\r\n"2022-04-09 17:06:22
"||||||||||||-65,6969,$GNRMC,170620.000,A,342,7W,0,67.07,-261.99\r\n"2022-04-09 17:06:22
"||||||||||||-61,6969,$ACCEL,9.35,-1.40,2.95,$ALT,867.10,-262.00B\u0001\r\n"2022-04-09 17:06:22
"||||||||||||-61,6969,$GNGGA,170621.000,3429.7281,N,11657.5585,W,2,18,0.58,879.7,M,-31.0,M,,*43\r\r\n"2022-04-09 17:06:23
"||||||||||||-61,6969,$ACCEL,9.37,-1.16,3.04,$ALT,867.06,-262.00,2,18,0.58,879.7,M,-31.0,M,,*43\r\r\n"2022-04-09 17:06:23
"||||||||||||-61,6969,$GNRMC,170621.003818002D$GNGGA,170622.000,3429.7281,N,11657.5585,W,2,18,0.58,879.7,M,-31.0,M,,*40\r\r\n"2022-04-09 17:06:24
"||||||||||||-58,6969,$ACCEL,9.37,-1.07,3.11,$ALT,867.23,-262.063429.7281,N,11657.5585,W,2,18,0.58,879.7,M,-31.0,M,,*40\r\r\n"2022-04-09 17:06:24
"||||||||||||-57,6969,$GNRMC,170622.00A715.92*$GNGGA,170623.000,3429.7281,N,11657.5585,W,2,18,0.58,879.7,M,-31.0,M,,*41\r\r\n"2022-04-09 17:06:25
"||||||||||||-56,6969,$ACCEL,9.38,-0.82,3.16,$ALT,867.22,-262.063429.7281,N,11657.5585,W,2,18,0.58,879.7,M,-31.0,M,,*41\r\r\n"2022-04-09 17:06:26
"||||||||||||-56,6969,$GNRMC,170623.000,A,3429.7281,N,11657.5585,W,0$GNGGA,170624.000,3429.7280,N,11657.5585,W,2,18,0.58,879.8,M,-31.0,M,,*4 \r\n"2022-04-09 17:06:26
"||||||||||||-59,6969,$ACCEL,9.39,-0.85,3.10,$ALT,867.23,-262.07,W,0$GNGGA,170624.000,3429.7280,N,11657.5585,W,2,18,0.58,879.8,M,-31.0,M,,*4 \r\n"2022-04-09 17:06:26
"||||||||||||-59,6969,$GNR1040550,,\r$GNGGA,170625.000,3429.7280,N,11657.5585,W,2,18,0.58,879.8,M,-31.0,M,,*49\r\r\n"2022-04-09 17:06:27
"||||||||||||-60,6969,$ACCEL,9.39,-0.72,3.12,$ALT,867.17,-262.04N,11657.5585,W,2,18,0.58,879.8,M,-31.0,M,,*49\r\r\n"2022-04-09 17:06:27
"||||||||||||-59,6969,$GNRMC,170625.000,A,347150.4*$GNGGA,170626.000,3429.7280,N,11657.5585,W,2,18,0.58,879.9,M,-31.0,M,,*4B\r\r\n"2022-04-09 17:06:28
"||||||||||||-64,6969,$ACCEL,9.39,-0.69,3.11,$ALT,867.20,-262.06B\u0001\r\n"2022-04-09 17:06:28
"||||||||||||-58,6969,$GNRMC,170626.0009N.,59,$GNGGA,170627.000,3429.7280,N,11657.5584,W,2,18,0.58,879.9,M,-31.0,M,,*4B\r\r\n"2022-04-09 17:06:29
"||||||||||||-56,6969,$ACCEL,9.41,-0.50,3.11,$ALT,867.20,-262.063429.7280,N,11657.5584,W,2,18,0.58,879.9,M,-31.0,M,,*4B\r\r\n"2022-04-09 17:06:29
"||||||||||||-56,6969,$GNRMC,170627.000405,4,,\r$GNGGA,170628.000,3429.7280,N,11657.5584,W,2,18,0.58,879.9,M,-31.0,M,,*44\r`\r\n"2022-04-09 17:06:30
"||||||||||||-55,6969,$ACCEL,9.41,-0.41,3.12,$ALT,867.22,-262.07B\u0001\r\n"2022-04-09 17:06:30
"||||||||||||-55,6969,$GNRMC,170628,218.925$GNGGA,170629.000,3429.7280,N,11657.5584,W,2,18,0.58,879.9,M,-31.0,M,,*45\r\r\n"2022-04-09 17:06:31
"||||||||||||-54,6969,$ACCEL,9.42,-0.27,3.12,$ALT,867.18,-262.059.7280,N,11657.5584,W,2,18,0.58,879.9,M,-31.0,M,,*45\r\r\n"2022-04-09 17:06:31
"||||||||||||-55,6969,$GNRMC,170629.000,A715.94*$GNGGA,170630.000,3429.7280,N,11657.5584,W,2,18,0.58,879.9,M,-31.0,M,,*4D\r\r\n"2022-04-09 17:06:32
"||||||||||||-56,6969,$ACCEL,9.42,-0.21,3.07,$ALT,867.34,-262.100,3429.7280,N,11657.5584,W,2,18,0.58,879.9,M,-31.0,M,,*4D\r\r\n"2022-04-09 17:06:32
"||||||||||||-57,6969,$GNRMC,170630.00405,,0,\r$GNGGA,170631.000,3429.7280,N,11657.5584,W,2,18,0.58,879.9,M,-31.0,M,,*4C\rD\r\r\n"2022-04-09 17:06:33
"||||||||||||-55,6969,$ACCEL,9.42,-0.24,3.08,$ALT,867.23,-262.073429.7280,N,11657.5584,W,2,18,0.58,879.9,M,-31.0,M,,*4C\rD\r\r\n"2022-04-09 17:06:33
"||||||||||||-55,6969,$GNRMC,170631.000405,5,,\r$GNGGA,170632.000,3429.7280,N,11657.5583,W,2,18,0.58,879.9,M,-31.0,M,,*48\r`\r\n"2022-04-09 17:06:34
"||||||||||||-57,6969,$ACCEL,9.41,-0.27,3.08,$ALT,867.10,-262.03B\u0001\r\n"2022-04-09 17:06:34
"||||||||||||-60,6969,$GNRMC,170632.002,7W49,$ALT,867.10,-262.03B\u0001\r\n"2022-04-09 17:06:34
"||||||||||||-56,6969,$ACCEL,9.41,-0.27,3.08,$ALT,867.27,-262.09B\u0001\r\n"2022-04-09 17:06:35
"||||||||||||-56,6969,$GNRMC,170633.0009N7W49,$GNGGA,170634.000,3429.7280,N,11657.5583,W,2,18,0.58,879.9,M,-31.0,M,,*4E\r\r\n"2022-04-09 17:06:36
"||||||||||||-64,6969,$ACCEL,9.40,-0.22,3.08,$ALT,867.02,-262.003429.7280,N,11657.5583,W,2,18,0.58,879.9,M,-31.0,M,,*4E\r\r\n"2022-04-09 17:06:37
"||||||||||||-61,6969,$GNRMC,170634.00038636,,D$GNGGA,170635.000,3429.7280,N,11657.5583,W,2,18,0.58,880.0,M,-31.0,M,,*40\r`\r\n"2022-04-09 17:06:37
"||||||||||||-61,6969,$ACCEL,9.39,-0.15,3.09,$ALT,867.08,-262.03,3429.7280,N,11657.5583,W,2,18,0.58,880.0,M,-31.0,M,,*40\r`\r\n"2022-04-09 17:06:38
"||||||||||||-61,6969,$GNRMC,170637.000,A,34215.925$GNGGA,170638.000,3429.7279,N,11657.5583,W,2,18,0.58,880.0,M,-31.0,M,,*4B\r@B\u000f\r\n"2022-04-09 17:06:39
"||||||||||||-65,6969,$ACCEL,9.40,-0.10,3.10,$ALT,867.29,-262.10.000,3429.7279,N,11657.5583,W,2,18,0.58,880.0,M,-31.0,M,,*4B\r@B\u000f\r\n"2022-04-09 17:06:40
"||||||||||||-64,6969,$GNRMC,170638.000,2181025$GNGGA,170639.000,3429.7279,N,11657.5583,W,2,18,0.58,880.0,M,-31.0,M,,*4A\r`\r\n"2022-04-09 17:06:40
"||||||||||||-56,6969,$ACCEL,9.39,-0.10,3.10,$ALT,867.04,-262.03,3429.7279,N,11657.5583,W,2,18,0.58,880.0,M,-31.0,M,,*4A\r`\r\n"2022-04-09 17:06:41
"||||||||||||-59,6969,$GNRMC,170639.0037181020$GNGGA,170640.000,3429.7279,N,11657.5582,W,2,18,0.58,880.0,M,-31.0,M,,*45\r\r`\r\n"2022-04-09 17:06:41
"||||||||||||-58,6969,$ACCEL,9.41,-0.04,3.15,$ALT,867.12,-262.06B\u0001\r\n"2022-04-09 17:06:42
"||||||||||||-58,6969,$GNRMC,170640.000,A,3429.7279,N,11657.5582,W,0$GNGGA,170641.000,3429.7279,N,11657.5582,W,2,18,0.58,880.0,M,-31.0,M,,*4\r\n"2022-04-09 17:06:42
"||||||||||||-58,6969,$ACCEL,9.41,-0.09,3.11,$ALT,867.16,-262.06B\u0001\r\n"2022-04-09 17:06:43
"||||||||||||-57,6969,$GNRMC,170641.000,A,3429.7279$GNGGA,170642.000,3429.7279,N,11657.5582,W,2,18,0.58,880.0,M,-31.0,M,,*47\r@B\u000f\r\n"2022-04-09 17:06:43
"||||||||||||-56,6969,$ACCEL,9.40,-0.05,3.12,$ALT,867.33,-262.12.000,3429.7279,N,11657.5582,W,2,18,0.58,880.0,M,-31.0,M,,*47\r@B\u000f\r\n"2022-04-09 17:06:44
"||||||||||||-55,6969,$GNRMC,170642.000,A,3429.$GNGGA,170643.000,3429.7279,N,11657.5582,W,2,18,0.58,880.0,M,-31.0,M,,*46\r`\r\n"2022-04-09 17:06:44
"||||||||||||-58,6969,$ACCEL,9.39,-0.02,3.15,$ALT,867.16,-262.07\r\n"2022-04-09 17:06:45
"||||||||||||-58,6969,$GNRMC,170643.000,A,3429$GNGGA,170644.000,3429.7279,N,11657.5581,W,2,18,0.58,880.0,M,-31.0,M,,*42\r\r\n"2022-04-09 17:06:45
"||||||||||||-60,6969,$ACCEL,9.42,-0.03,3.17,$ALT,867.18,-262.083429.7279,N,11657.5581,W,2,18,0.58,880.0,M,-31.0,M,,*42\r\r\n"2022-04-09 17:06:46
"||||||||||||-60,6969,$GNRMC,170644.000,A,3429.72715..4*$GNGGA,170645.000,3429.7279,N,11657.5581,W,2,18,0.58,880.1,M,-31.0,M,,*42\r\r\n"2022-04-09 17:06:46
"||||||||||||-58,6969,$ACCEL,9.41,0.02,3.13,$ALT,867.35,-262.14170645.000,3429.7279,N,11657.5581,W,2,18,0.58,880.1,M,-31.0,M,,*42\r\r\n"2022-04-09 17:06:47
"||||||||||||-55,6969,$GNRMC,17064.3761402C$GNGGA,170646.000,3429.7280,N,11657.5581,W,2,18,0.58,880.1,M,-31.0,M,,*47\r\r\n"2022-04-09 17:06:47
"||||||||||||-58,6969,$ACCEL,9.41,0.13,3.13,$ALT,867.30,-262.1229.7280,N,11657.5581,W,2,18,0.58,880.1,M,-31.0,M,,*47\r\r\n"2022-04-09 17:06:48
"||||||||||||-57,6969,$GNRMC,170646.002,5,,0,ALT,867.30,-262.1229.7280,N,11657.5581,W,2,18,0.58,880.1,M,-31.0,M,,*47\r\r\n"2022-04-09 17:06:48
"||||||||||||-58,6969,$ACCEL,9.41,0.13,3.13,$ALT,867.13,-262.07\r\n"2022-04-09 17:06:48
"||||||||||||-58,6969,$GNRMC,170647.00,715.925$GNGGA,170648.000,3429.7280,N,11657.5580,W,2,18,0.58,880.1,M,-31.0,M,,*48\r\r\n"2022-04-09 17:06:50
"||||||||||||-58,6969,$ACCEL,9.39,0.11,3.17,$ALT,867.27,-262.12,3429.7280,N,11657.5580,W,2,18,0.58,880.1,M,-31.0,M,,*48\r\r\n"2022-04-09 17:06:50
"||||||||||||-61,6969,$GNRMC,170648.0009N.W49,$GNGGA,170649.000,3429.7280,N,11657.5580,W,2,18,0.58,880.1,M,-31.0,M,,*49\r\r\n"2022-04-09 17:06:51
"||||||||||||-64,6969,$ACCEL,9.41,0.29,3.10,$ALT,867.25,-262.11,3429.7280,N,11657.5580,W,2,18,0.58,880.1,M,-31.0,M,,*49\r\r\n"2022-04-09 17:06:52
"||||||||||||-67,6969,$GNRMC,170649.00,2181925$GNGGA,170650.000,3429.7280,N,11657.5580,W,2,18,0.58,880.1,M,-31,$,.38609023$GNGGA,170651.000, \r\n"2022-04-09 17:06:52
"||||||||||||-64,6969,$ACCEL,9.39,0.43,3.09,$ALT,867.18,-262.08\r\n"2022-04-09 17:06:53
"||||||||||||-61,6969,$GNRMC,170651.000,A,3428671029$GNGGA,170652.000,3429.7280,N,11657.5579,W,2,18,0.58,880.1,M,-31.0,M,,*45\rB\u000f\r\n"2022-04-09 17:06:53
"||||||||||||-65,6969,$ACCEL,9.40,0.44,3.03,$ALT,867.26,-262.11\r\n"2022-04-09 17:06:54
"||||||||||||-65,6969,$GNRMC,170652.00405,7,,\r$GNGGA,170653.000,3429.7280,N,11657.5579,W,2,18,0.58,880.1,M,-31.0,M,,*44\r\r\n"2022-04-09 17:06:54
"||||||||||||-60,6969,$ACCEL,9.36,0.26,3.18,$ALT,867.27,-262.08\r\n"2022-04-09 17:06:55
"||||||||||||-60,6969,$GNRMC,170653.000,,215.925$GNGGA,170654.000,3429.7280,N,11657.5578,W,2,18,0.58,880.1,M,-31.0,M,,*42\r\r\n"2022-04-09 17:06:55
"||||||||||||-67,6969,$ACCEL,9.36,0.34,3.31,$ALT,867.16,-262.0800,3429.7280,N,11657.5578,W,2,18,0.58,880.1,M,-31.0,M,,*42\r\r\n"2022-04-09 17:06:56
"||||||||||||-67,6969,$GNRMC,170654.000,A,3429.7280,N,11657.5578,W$GNGGA,170655.000,3429.7280,N,11657.5578,W,2,18,0.58,880.1,M,-31.0,M,,*43\r \r\n"2022-04-09 17:06:56
"||||||||||||-65,6969,$ACCEL,9.37,0.51,3.16,$ALT,867.18,-262.098,W$GNGGA,170655.000,3429.7280,N,11657.5578,W,2,18,0.58,880.1,M,-31.0,M,,*43\r \r\n"2022-04-09 17:06:57
"||||||||||||-69,6969,$GNRMC,170655.000,A,3429.7280,$GNGGA,170656.000,3429.7280,N,11657.5578,W,2,18,0.58,880.2,M,-31.0,M,,*43\r,-31.0,M,,*43\r \r\n"2022-04-09 17:06:57
"||||||||||||-71,6969,$ACCEL,9.37,0.63,3.16,$ALT,867.18,-262.0956.000,3429.7280,N,11657.5578,W,2,18,0.58,880.2,M,-31.0,M,,*43\r,-31.0,M,,*43\r \r\n"2022-04-09 17:06:58
"||||||||||||-79,6969,$GNRMC,170656.000,A,3429$GNGGA,170657.000,3429.7280,N,11657.5578,W,2,18,0.58,880.1,M,-31.0,M,,*41\r,,*43\r,-31.0,M,,*43\r \r\n"2022-04-09 17:06:58
"||||||||||||-70,6969,$ACCEL,9.38,0.55,3.04,$ALT,867.18,-262.10,3429.7280,N,11657.5578,W,2,18,0.58,880.1,M,-31.0,M,,*41\r,\r\n"2022-04-09 17:06:59
"||||||||||||-68,6969,$GNRMC,170657.000,A,3429.7$GNGGA,170658.000,3429.7280,N,11657.5577,W,2,18,0.58,880.1,M,-31.0,M,,*41\r\u0001\r\n"2022-04-09 17:06:59
"||||||||||||-66,6969,$ACCEL,9.37,0.44,3.11,$ALT,867.06,-262.06\r\n"2022-04-09 17:07:00
"||||||||||||-65,6969,$GNRMC,170658.000,A,3429.7280,N17102B$GNGGA,170659.000,3429.7280,N,11657.5577,W,2,18,0.58,880.2,M,-31.0,M,,*43\r\r\n"2022-04-09 17:07:00
"||||||||||||-64,6969,$ACCEL,9.37,0.57,3.14,$ALT,867.03,-262.04GA,170659.000,3429.7280,N,11657.5577,W,2,18,0.58,880.2,M,-31.0,M,,*43\r\r\n"2022-04-09 17:07:01
"||||||||||||-61,6969,$GNRMC,170659,715.92*$GNGGA,170700.000,3429.7280,N,11657.5577,W,2,17,0.60,880.2,M,-31.0,M,,*4A\r\r\n"2022-04-09 17:07:01
"||||||||||||-64,6969,$ACCEL,9.37,0.59,3.10,$ALT,867.08,-262.0729.7280,N,11657.5577,W,2,17,0.60,880.2,M,-31.0,M,,*4A\r\r\n"2022-04-09 17:07:02
"||||||||||||-61,6969,$GNRMC,170700.00040571,,\r$GNGGA,170701.000,3429.7279,N,11657.5577,W,2,17,0.60,880.2,M,-31.0,M,,*4D\r,\u0001\r\n"2022-04-09 17:07:02
"||||||||||||-67,6969,$ACCEL,9.36,0.52,3.24,$ALT,867.14,-262.08\r\n"2022-04-09 17:07:03
"||||||||||||-72,6969,$GNRMC,170701.00049679,,\r$GNGGA,170702.000,3429.7279,N,11657.5576,W,2,17,0.60,880.2,M,-31.0,M,,*4F\r`\r\n"2022-04-09 17:07:03
"||||||||||||-73,6969,$ACCEL,9.35,0.55,3.19,$ALT,867.15,-262.070,3429.7279,N,11657.5576,W,2,17,0.60,880.2,M,-31.0,M,,*4F\r`\r\n"2022-04-09 17:07:04
"||||||||||||-71,6969,$GNRMC,170702.0002,7W40,LT,867.15,-262.070,3429.7279,N,11657.5576,W,2,17,0.60,880.2,M,-31.0,M,,*4F\r`\r\n"2022-04-09 17:07:04
"||||||||||||-63,6969,$ACCEL,9.35,0.55,3.19,$ALT,866.94,-262.020,3429.7279,N,11657.5576,W,2,17,0.60,880.2,M,-31.0,M,,*4F\r`\r\n"2022-04-09 17:07:04
"||||||||||||-61,6969,$GNGGA,170703.000,3429.7279,N,11657.5576,W,2,18,0.58,880.2,M,-31.0,M,,*4A\r.60,880.2,M,-31.0,M,,*4F\r`\r\n"2022-04-09 17:07:04
"||||||||||||-61,6969,$ACCEL,9.36,0.63,3.15,$ALT,867.22,-262.11\r\n"2022-04-09 17:07:05
"||||||||||||-60,6969,$GNRMC,170703.0,2170025$GNGGA,170704.000,3429.7279,N,11657.5576,W,2,18,0.58,880.2,M,-31.0,M,,*4D\r\r\n"2022-04-09 17:07:05
"||||||||||||-77,6969,$ACCEL,9.37,0.57,3.12,$ALT,867.24,-262.123429.7279,N,11657.5576,W,2,18,0.58,880.2,M,-31.0,M,,*4D\r\r\n"2022-04-09 17:07:06
"||||||||||||-70,6969,$GNRMC,170704.000,A.,5,50D$GNGGA,170705.000,3429.7279,N,11657.5576,W,2,18,0.58,880.2,M,-31.0,M,,*4C\r\r\n"2022-04-09 17:07:06
"||||||||||||-65,6969,$ACCEL,9.35,0.62,3.22,$ALT,867.40,-262.1700,3429.7279,N,11657.5576,W,2,18,0.58,880.2,M,-31.0,M,,*4C\r\r\n"2022-04-09 17:07:09
"||||||||||||-68,6969,$GNRMC,170705.00037661,24$GNGGA,170706.000,3429.7279,N,11657.5576,W,2,18,0.58,880.2,M,-31,\rM0A715..4*$GNGGA,170707.000 \r\n"2022-04-09 17:07:09
"||||||||||||-70,6969,$ACCEL,9.33,0.65,3.19,$ALT,867.20,-262.100,3429.7279,N,11657.5576,W,2,18,0.58,880.2,M,-31,\rM0A715..4*$GNGGA,170707.000 \r\n"2022-04-09 17:07:09
"||||||||||||-71,6969,$GNRMC,170707.000,A,342,7W,0,7.20,-262.100,3429.7279,N,11657.5576,W,2,18,0.58,880.2,M,-31,\rM0A715..4*$GNGGA,170707.000 \r\n"2022-04-09 17:07:09
"||||||||||||-63,6969,$ACCEL,9.33,0.65,3.19,$ALT,867.34,-262.15\r\n"2022-04-09 17:07:10
"||||||||||||-57,6969,$GNRMC,170708.000,A9N.,50D$GNGGA,170709.000,3429.7278,N,11657.5575,W,2,18,0.58,880.2,M,-31.0,M,,*42\r\r\n"2022-04-09 17:07:11
"||||||||||||-56,6969,$ACCEL,9.33,0.69,3.27,$ALT,867.14,-262.1000,3429.7278,N,11657.5575,W,2,18,0.58,880.2,M,-31.0,M,,*42\r\r\n"2022-04-09 17:07:12
"||||||||||||-55,6969,$GNRMC,170709.0009N.W49,$GNGGA,170710.000,3429.7278,N,11657.5575,W,2,18,0.58,880.2,M,-31.0,M,,*4A\r2\r\r\n"2022-04-09 17:07:12
"||||||||||||-75,6969,$ACCEL,9.33,0.72,3.24,$ALT,867.06,-262.07\r\n"2022-04-09 17:07:13
"||||||||||||-59,6969,$GNRMC,170710.000,A,3429.7278,N,11657.5575,W$GNGGA,170711.000,3429.7278,N,11657.5574,W,2,18,0.58,880.2,M,-31.0,M,,*4A\r \r\n"2022-04-09 17:07:13
"||||||||||||-63,6969,$ACCEL,9.32,0.74,3.26,$ALT,867.28,-262.13\r\n"2022-04-09 17:07:14
"||||||||||||-64,6969,$GNRMC,11,.,50.4D$GNGGA,170712.000,3429.7277,N,11657.5574,W,2,18,0.58,880.2,M,-31.0,M,,*46\r]K\r\n"2022-04-09 17:07:14
"||||||||||||-60,6969,$ACCEL,9.31,0.71,3.24,$ALT,867.20,-262.11277,N,11657.5574,W,2,18,0.58,880.2,M,-31.0,M,,*46\r]K\r\n"2022-04-09 17:07:15
"||||||||||||-61,6969,$GNRMC,170712.000,A,3429,7W,0,.20,-262.11277,N,11657.5574,W,2,18,0.58,880.2,M,-31.0,M,,*46\r]K\r\n"2022-04-09 17:07:15
"||||||||||||-58,6969,$ACCEL,9.31,0.71,3.24,$ALT,867.22,-262.12\r\n"2022-04-09 17:07:15
"||||||||||||-57,6969,$ACCEL,9.33,0.72,3.25,$ALT,867.24,-262.13\r\n"2022-04-09 17:07:16
"||||||||||||-58,6969,$GNRMC,170713.00047642,,\r$GNGGA,170714.000,3429.7276,N,11657.5574,W,2,17,0.63,880.1,M,-31.0,M,,*45\r`\r\n"2022-04-09 17:07:16
"||||||||||||-63,6969,$ACCEL,9.31,0.75,3.30,$ALT,867.36,-262.160,3429.7276,N,11657.5574,W,2,17,0.63,880.1,M,-31.0,M,,*45\r`\r\n"2022-04-09 17:07:17
"||||||||||||-64,6969,$GNRMC,170714.000465,1,,\r$GNGGA,170715.000,3429.7275,N,11657.5574,W,2,18,0.58,880.1,M,-31.0,M,,*40\r`\r\n"2022-04-09 17:07:17
"||||||||||||-57,6969,$ACCEL,9.30,0.75,3.24,$ALT,867.43,-262.190,3429.7275,N,11657.5574,W,2,18,0.58,880.1,M,-31.0,M,,*40\r`\r\n"2022-04-09 17:07:19
"||||||||||||-57,6969,$GNRMC,170715.,215.925$GNGGA,170716.000,3429.7275,N,11657.5574,W,2,18,0.58,880.1,M,-303M1A7150.4*$GNGGA,170717.000,342 \r\n"2022-04-09 17:07:19
"||||||||||||-55,6969,$ACCEL,9.30,0.86,3.29,$ALT,867.44,-262.20\r\n"2022-04-09 17:07:20
"||||||||||||-54,6969,$GNRMC,170717.000,A,342.,5050D$GNGGA,170718.000,3429.7274,N,11657.5574,W,2,18,0.58,880.1,M,-31.0,M,,*4C\rB\u000f\r\n"2022-04-09 17:07:20
"||||||||||||-54,6969,$ACCEL,9.30,0.83,3.27,$ALT,867.49,-262.2218.000,3429.7274,N,11657.5574,W,2,18,0.58,880.1,M,-31.0,M,,*4C\rB\u000f\r\n"2022-04-09 17:07:21
"||||||||||||-55,6969,$GNRMC,170718.000,A7150.4*$GNGGA,170719.000,3429.7273,N,11657.5574,W,2,18,0.58,880.1,M,-31.0,M,,*4A\r*4C\rB\u000f\r\n"2022-04-09 17:07:21
"||||||||||||-56,6969,$ACCEL,9.29,0.81,3.24,$ALT,867.40,-262.1900,3429.7273,N,11657.5574,W,2,18,0.58,880.1,M,-31.0,M,,*4A\r*4C\rB\u000f\r\n"2022-04-09 17:07:22
"||||||||||||-54,6969,$GNRMC,170719.000,715.92*$GNGGA,170720.000,3429.7272,N,11657.5574,W,2,18,0.58,880.1,M,-31.0,M,,*41\r\r*4C\rB\u000f\r\n"2022-04-09 17:07:22
"||||||||||||-53,6969,$ACCEL,9.29,0.91,3.28,$ALT,867.24,-262.14\r\n"2022-04-09 17:07:23
"||||||||||||-55,6969,$GNRMC,170720.000,A,3429.7272,N,11657.5574,$GNGGA,170721.000,3429.7272,N,11657.5574,W,2,18,0.58,880.1,M,-31.0,M,,*40\r\r\n"2022-04-09 17:07:23
"||||||||||||-55,6969,$ACCEL,9.30,1.04,3.23,$ALT,867.26,-262.14\r\n"2022-04-09 17:07:24
"||||||||||||-58,6969,$GNRMC,170721.000,A,3429.7272,$GNGGA,170722.000,3429.7271,N,11657.5574,W,2,17,0.63,880.1,M,-31.0,M,,*47\rB\u000f\r\n"2022-04-09 17:07:24
"||||||||||||-56,6969,$ACCEL,9.29,1.10,3.21,$ALT,867.31,-262.1622.000,3429.7271,N,11657.5574,W,2,17,0.63,880.1,M,-31.0,M,,*47\rB\u000f\r\n"2022-04-09 17:07:25
"||||||||||||-58,6969,$GNRMC,170722.000,A,3429.7$GNGGA,170723.000,3429.7270,N,11657.5574,W,2,18,0.58,880.1,M,-31.0,M,,*40\r\u0001\r\n"2022-04-09 17:07:25
"||||||||||||-60,6969,$ACCEL,9.29,1.08,3.20,$ALT,867.25,-262.1400,3429.7270,N,11657.5574,W,2,18,0.58,880.1,M,-31.0,M,,*40\r\u0001\r\n"2022-04-09 17:07:26
"||||||||||||-59,6969,$GNRMC,170723.000,A,3429.$GNGGA,170724.000,3429.7270,N,11657.5574,W,2,18,0.58,880.1,M,-31.0,M,,*47\r\r\u0001\r\n"2022-04-09 17:07:26
"||||||||||||-54,6969,$ACCEL,9.29,1.12,3.15,$ALT,867.31,-262.17\r\n"2022-04-09 17:07:26
"||||||||||||-52,6969,$GNRMC,170724.000,A,3429.7270,N5,,0,62.17\r\n"2022-04-09 17:07:27
"||||||||||||-55,6969,$ACCEL,9.29,1.12,3.18,$ALT,867.35,-262.19\r\n"2022-04-09 17:07:27
"||||||||||||-54,6969,$GNGGA,170725.000,3429.7269,N,11657.5575,W,2,18,0.58,880.1,M,-31.0,M,,*4F\r\r\n"2022-04-09 17:07:27
"||||||||||||-59,6969,$ACCEL,9.29,1.08,3.22,$ALT,867.35,-262.19W,2,18,0.58,880.1,M,-31.0,M,,*4F\r\r\n"2022-04-09 17:07:28
"||||||||||||-56,6969,$GNRMC,170725.,215.925$GNGGA,170726.000,3429.7268,N,11657.5575,W,2,18,0.58,880.1,M,-31.0,M,,*4D\r\r\n"2022-04-09 17:07:28
"||||||||||||-55,6969,$ACCEL,9.29,1.12,3.18,$ALT,867.45,-262.22\r\n"2022-04-09 17:07:29
"||||||||||||-54,6969,$GNRMC,170726.0,9N.,50,$GNGGA,170727.000,3429.7268,N,11657.5575,W,2,18,0.58,880.1,M,-31.0,M,,*4C\r\r\n"2022-04-09 17:07:29
"||||||||||||-54,6969,$ACCEL,9.28,1.16,3.24,$ALT,867.45,-262.213429.7268,N,11657.5575,W,2,18,0.58,880.1,M,-31.0,M,,*4C\r\r\n"2022-04-09 17:07:30
"||||||||||||-57,6969,$GNRMC,170727.000,9N.,49,$GNGGA,170728.000,3429.7267,N,11657.5574,W,2,18,0.58,880.1,M,1,G702,7,,0,\r\n"2022-04-09 17:07:30
"||||||||||||-56,6969,$ACCEL,9.28,1.16,3.24,$ALT,867.46,-262.22\r\n"2022-04-09 17:07:31
"||||||||||||-57,6969,$GNRMC,170729.000,A,349N.,49,$GNGGA,170730.000,3429.7268,N,11657.5574,W,2,18,0.58,880.1,M,-31.0,M,,*4B\r\r\n"2022-04-09 17:07:32
"||||||||||||-70,6969,$ACCEL,9.26,1.26,3.19,$ALT,867.48,-262.23\r\n"2022-04-09 17:07:33
"||||||||||||-71,6969,$GNRMC,170730.000,A.,50.4*$GNGGA,170731.000,3429.7268,N,11657.5574,W,2,18,0.58,880.1,M,-31.0,M,,*4A\r\r\n"2022-04-09 17:07:33
"||||||||||||-64,6969,$ACCEL,9.27,1.26,3.19,$ALT,867.52,-262.2400,3429.7268,N,11657.5574,W,2,18,0.58,880.1,M,-31.0,M,,*4A\r\r\n"2022-04-09 17:07:34
"||||||||||||-61,6969,$GNRMC,170731.000,A36642022$GNGGA,170732.000,3429.7268,N,11657.5573,W,2,18,0.58,880.1,M,-31.0,M,,*4E\r\r\n"2022-04-09 17:07:34
"||||||||||||-69,6969,$ACCEL,9.26,1.30,3.20,$ALT,867.54,-262.26\r\n"2022-04-09 17:07:35
"||||||||||||-67,6969,$GNRMC,170732.00,.,5,50D$GNGGA,170733.000,3429.7268,N,11657.5573,W,2,18,0.58,880.1,M,-31.0,M,,*4F\r\r\n"2022-04-09 17:07:35
"||||||||||||-60,6969,$ACCEL,9.25,1.28,3.19,$ALT,867.48,-262.23,3429.7268,N,11657.5573,W,2,18,0.58,880.1,M,-31.0,M,,*4F\r\r\n"2022-04-09 17:07:36
"||||||||||||-56,6969,$GNRMC,170733.000,A,3429N7W49,$GNGGA,170734.000,3429.7268,N,11657.5573,W,2,18,0.58,880.1,M,-31.0,M,,*48\rB\u000f\r\n"2022-04-09 17:07:36
"||||||||||||-71,6969,$ACCEL,9.26,1.29,3.22,$ALT,867.49,-262.2434.000,3429.7268,N,11657.5573,W,2,18,0.58,880.1,M,-31.0,M,,*48\rB\u000f\r\n"2022-04-09 17:07:36
"||||||||||||-59,6969,$GNRMC,170734.000285,,0,LT,867.49,-262.2434.000,3429.7268,N,11657.5573,W,2,18,0.58,880.1,M,-31.0,M,,*48\rB\u000f\r\n"2022-04-09 17:07:36
"||||||||||||-59,6969,$ACCEL,9.26,1.29,3.22,$ALT,867.44,-262.23\r\n"2022-04-09 17:07:37
"||||||||||||-51,6969,$GNGGA,170735.000,3429.7267,N,11657.5573,W,2,18,0.58,880.1,M,-31.0,M,,*46\r\r\n"2022-04-09 17:07:37
"||||||||||||-58,6969,$ACCEL,9.24,1.34,3.23,$ALT,867.43,-262.22W,2,18,0.58,880.1,M,-31.0,M,,*46\r\r\n"2022-04-09 17:07:38
"||||||||||||-54,6969,$GNRMC,170735.00036634,28$GNGGA,170736.000,3429.7268,N,11657.5573,W,2,18,0.58,880.1,M,-31.0,M,,*4A\r,\u0001\r\n"2022-04-09 17:07:38
"||||||||||||-55,6969,$ACCEL,9.22,1.35,3.21,$ALT,867.47,-262.24\r\n"2022-04-09 17:07:38
"||||||||||||-58,6969,$GNRMC,170736.0002,5,,0,LT,867.47,-262.24\r\n"2022-04-09 17:07:39
"||||||||||||-55,6969,$ACCEL,9.22,1.35,3.21,$ALT,867.37,-262.21\r\n"2022-04-09 17:07:39
"||||||||||||-56,6969,$ACCEL,9.22,1.77,3.09,$ALT,867.42,-262.23\r\n"2022-04-09 17:07:41
"||||||||||||-56,6969,$GNRMC,170737.000,,2171025$GNGGA,170738.000,3429.7267,N,11657.5572,W,2,18,0.58,880.1,M,-,\rM3A715..4*$GNGGA,170739.000, \r\n"2022-04-09 17:07:41
"||||||||||||-57,6969,$ACCEL,9.18,2.06,2.85,$ALT,867.33,-262.2000,3429.7267,N,11657.5572,W,2,18,0.58,880.1,M,-,\rM3A715..4*$GNGGA,170739.000, \r\n"2022-04-09 17:07:42
"||||||||||||-56,6969,$GNRMC,170739.000,A,3426671023$GNGGA,170740.000,3429.7267,N,11657.5572,W,2,18,0.58,880.2,M,-31.0,M,7150.4*$GNGGA,17074 \r\n"2022-04-09 17:07:42
"||||||||||||-53,6969,$ACCEL,9.16,2.27,2.75,$ALT,867.34,-262.21\r\n"2022-04-09 17:07:43
"||||||||||||-53,6969,$GNRMC,170741.000,A,3426616,,B$GNGGA,170742.000,3429.7267,N,11657.5571,W,2,18,0.58,880.2,M,-31.0,M,,*47\rB\u000f\r\n"2022-04-09 17:07:43
"||||||||||||-53,6969,$ACCEL,9.16,2.36,2.78,$ALT,867.33,-262.2142.000,3429.7267,N,11657.5571,W,2,18,0.58,880.2,M,-31.0,M,,*47\rB\u000f\r\n"2022-04-09 17:07:45
"||||||||||||-54,6969,$GNRMC,170742.000,A,3429.7267,N,11657.5571,W,0.12,45.90,090422,$GNGGA,170743.000,3429.7267,N,11657.5571,W,2,18,0.58,88 \r\n"2022-04-09 17:07:45
"||||||||||||-54,6969,$ACCEL,9.17,2.35,2.69,$ALT,867.22,-262.171,W,0.12,45.90,090422,$GNGGA,170743.000,3429.7267,N,11657.5571,W,2,18,0.58,88 \r\n"2022-04-09 17:07:46
"||||||||||||-54,6969,$GNRMC,170743.0046617,,8$GNGGA,170744.000,3429.7267,N,11657.5570,W,2,18,0.58,880.2,M,-31.0,M,,*40\r.5571,W,2,18,0.58,88 \r\n"2022-04-09 17:07:46
"||||||||||||-53,6969,$ACCEL,9.17,2.35,2.68,$ALT,867.24,-262.18\r\n"2022-04-09 17:07:47
"||||||||||||-54,6969,$GNRMC,170744A7150.4*$GNGGA,170745.000,3429.7267,N,11657.5570,W,2,18,0.58,880.3,M,-31.0,M,,*40\r\r\n"2022-04-09 17:07:47
"||||||||||||-55,6969,$ACCEL,9.17,2.44,2.63,$ALT,867.29,-262.18\r\n"2022-04-09 17:07:47
"||||||||||||-53,6969,$GNRMC,170745.0002,7W40,LT,867.29,-262.\r\n"2022-04-09 17:07:47
