"Feather LoRa RX Test!\r\n"2022-06-04 00:18:34
"LoRa radio init OK!\r\n"2022-06-04 00:18:34
"Set Freq to: 915.00\r\n"2022-06-04 00:18:34
"||||||||||||-44,6969,$ACCEL,0.15,0.29,9.94,$ALT,680.33,-208.09\r\n"2022-06-04 00:18:35
"||||||||||||-44,6969,$GNRMC,001833.000,A,3520.8175,N,11748.4958,W,01726$GNGGA,001834.000,3520.8175,N,11748.4959,W,1,17,0.63,630.1,M,-29.4,M\r\n"2022-06-04 00:18:35
"||||||||||||-45,6969,$ACCEL,0.15,0.29,9.94,$ALT,680.35,-208.108,W,01726$GNGGA,001834.000,3520.8175,N,11748.4959,W,1,17,0.63,630.1,M,-29.4,M\r\n"2022-06-04 00:18:35
"||||||||||||-44,6969,$GNRMC,0018300N.W20,4,$ALT,680.35,-208.\r\n"2022-06-04 00:18:36
"||||||||||||-45,6969,$ACCEL,0.15,0.28,9.95,$ALT,680.19,-208.05\r\n"2022-06-04 00:18:36
"||||||||||||-44,6969,$ACCEL,0.14,0.28,9.95,$ALT,680.07,-208.01\r\n"2022-06-04 00:18:37
"||||||||||||-45,6969,$GNRMC,001835.000,A,3520.8175,N,1174$GNGGA,001836.000,3520.8175,N,11748.4962,W,1,17,0.63,630.1,M,-29.4,M,,*44\r W\r\n"2022-06-04 00:18:37
"||||||||||||-45,6969,$ACCEL,0.15,0.30,9.95,$ALT,680.03,-208.00\r\n"2022-06-04 00:18:38
"||||||||||||-45,6969,$GNRMC,001836.000$GNGGA,001837.000,3520.8174,N,11748.4963,W,1,17,0.63,630.1,M,-29.4,M,,*45\r\r\n"2022-06-04 00:18:38
"||||||||||||-44,6969,$ACCEL,0.14,0.30,9.95,$ALT,680.31,-208.08174,N,11748.4963,W,1,17,0.63,630.1,M,-29.4,M,,*45\r\r\n"2022-06-04 00:18:40
"||||||||||||-44,6969,$GNRMC,001837.000,A,3520.8174,N,11748.4963,W,0.08,$GNGGA,001838.000,3520.8174,N,11748.4963,W,1,17,0.63,630.0,M,-29.4,B\r\n"2022-06-04 00:18:40
"||||||||||||-44,6969,$ACCEL,0.15,0.29,9.94,$ALT,680.09,-208.02\r\n"2022-06-04 00:18:41
"||||||||||||-44,6969,$GNRMC,001839.000,A,35819..0A$GNGGA,001840.000,3520.8173,N,11748.4963,W,1,16,0.63,630.0,M,-29.4,M,,*42\r\r\n"2022-06-04 00:18:41
"||||||||||||-44,6969,$ACCEL,0.15,0.29,9.94,$ALT,680.07,-208.010.000,3520.8173,N,11748.4963,W,1,16,0.63,630.0,M,-29.4,M,,*42\r\r\n"2022-06-04 00:18:41
"||||||||||||-45,6969,$GNRMC,001840.00N.,30,$ALT,680.07,-208.010.000,3520.8173,N,11748.4963,W,1,16,0.63,630.0,M,-29.4,M,,*42\r\r\n"2022-06-04 00:18:41
"||||||||||||-45,6969,$ACCEL,0.14,0.29,9.95,$ALT,679.93,-207.960.000,3520.8173,N,11748.4963,W,1,16,0.63,630.0,M,-29.4,M,,*42\r\r\n"2022-06-04 00:18:42
"||||||||||||-44,6969,$GNGGA,001841.000,3520.8174,N,11748.4963,W,1,16,0.63,630.0,M,-29.4,M,,*44\r16,0.63,630.0,M,-29.4,M,,*42\r\r\n"2022-06-04 00:18:42
"||||||||||||-47,6969,$ACCEL,0.15,0.29,9.95,$ALT,680.06,-208.00\r\n"2022-06-04 00:18:43
"||||||||||||-44,6969,$GNRMC,001841.0005473192A$GNGGA,001842.000,3520.8175,N,11748.4964,W,1,16,0.63,630.0,M,-29.4,M,,*41\r`\r\n"2022-06-04 00:18:43
"||||||||||||-50,6969,$ACCEL,-0.22,0.83,9.26,$ALT,680.04,-208.01B\u0001\r\n"2022-06-04 00:18:44
"||||||||||||-45,6969,$GNRMC,001842.000,A,3520.8175,N,11748.4964,W,0.$GNGGA,001843.000,3520.8175,N,11748.4964,W,1,16,0.63,629.9,M,-29.4,M,,* \r\n"2022-06-04 00:18:44
"||||||||||||-50,6969,$ACCEL,-6.53,3.49,7.10,$ALT,679.88,-207.96,W,0.$GNGGA,001843.000,3520.8175,N,11748.4964,W,1,16,0.63,629.9,M,-29.4,M,,* \r\n"2022-06-04 00:18:45
"||||||||||||-59,6969,$GNRMC,001843.000,A,3520.8175$GNGGA,001844.000,3520.8175,N,11748.4965,W,1,16,0.63,629.9,M,-29.4,M,,*N102,8W20,9.4,M,,* \r\n"2022-06-04 00:18:46
"||||||||||||-60,6969,$ACCEL,-3.23,3.00,8.80,$ALT,679.57,-207.87B\u0001\r\n"2022-06-04 00:18:46
"||||||||||||-60,6969,$GNRMC,001845.000,A,3819040A$GNGGA,001846.000,3520.8175,N,11748.4967,W,1,16,0.63,629.9,M,-29.4,M,,*47\r @B\u000f\r\n"2022-06-04 00:18:47
"||||||||||||-69,6969,$ACCEL,-1.37,3.51,7.50,$ALT,679.67,-207.97B\u0001\r\n"2022-06-04 00:18:48
"||||||||||||-60,6969,$GNRMC,001846.000,37773926$GNGGA,001847.000,3520.8174,N,11748.4968,W,1,16,0.63,629.9,M,-29.4,M,,*48\r\r\n"2022-06-04 00:18:48
"||||||||||||-53,6969,$ACCEL,-5.21,1.55,5.52,$ALT,680.93,-208.37B\u0001\r\n"2022-06-04 00:18:49
"||||||||||||-53,6969,$GNRMC,0014A819..0A$GNGGA,001848.000,3520.8174,N,11748.4971,W,1,16,0.63,629.8,M,-29.4,M,,*4E\r\r\n"2022-06-04 00:18:49
"||||||||||||-50,6969,$ACCEL,1.75,-0.19,9.89,$ALT,680.22,-208.188174,N,11748.4971,W,1,16,0.63,629.8,M,-29.4,M,,*4E\r\r\n"2022-06-04 00:18:50
"||||||||||||-49,6969,$GNRMC,001848A819..6*$GNGGA,001849.000,3520.8174,N,11748.4974,W,1,17,0.63,629.8,M,-29.4,M,,*4B\r\r\n"2022-06-04 00:18:50
"||||||||||||-48,6969,$ACCEL,0.66,-0.66,9.66,$ALT,680.74,-208.36\r\n"2022-06-04 00:18:52
"||||||||||||-49,6969,$GNRMC,001849.000,A,3819..6*$GNGGA,001850.000,3520.8175,N,11748.4981,W,1,17,0.63,629.8,M,-29.4,M,,*48\r \r\n"2022-06-04 00:18:52
"||||||||||||-49,6969,$ACCEL,9.40,-0.71,1.86,$ALT,680.22,-208.20000,3520.8175,N,11748.4981,W,1,17,0.63,629.8,M,-29.4,M,,*48\r \r\n"2022-06-04 00:18:53
"||||||||||||-49,6969,$GNRMC,001850.0554,,,,7$GNGGA,001851.000,3520.8175,N,11748.4988,W,1,17,0.63,629.7,M,-29.4,M,,*4F\r,*48\r \r\n"2022-06-04 00:18:53
"||||||||||||-63,6969,$ACCEL,9.52,0.15,-0.36,$ALT,679.98,-208.13520.8175,N,11748.4988,W,1,17,0.63,629.7,M,-29.4,M,,*4F\r,*48\r \r\n"2022-06-04 00:18:54
"||||||||||||-60,6969,$GNRMC,001851.0002,8,,,,\r$GNGGA,001852.000,3520.8173,N,11748.4992,W,1,17,0.63,629.7,M,-29.4,M,,*41\r`\r\n"2022-06-04 00:18:54
"||||||||||||-55,6969,$ACCEL,9.27,-0.09,-3.55,$ALT,681.62,-208.643520.8173,N,11748.4992,W,1,17,0.63,629.7,M,-29.4,M,,*41\r`\r\n"2022-06-04 00:18:55
"||||||||||||-55,6969,$GNRMC,00185205342902C$GNGGA,001853.000,3520.8171,N,11748.4996,W,1,17,0.63,629.6,M,-29.4,M,,*47\r\r\n"2022-06-04 00:18:55
"||||||||||||-69,6969,$ACCEL,8.83,0.03,-4.64,$ALT,682.32,-208.86B\u0001\r\n"2022-06-04 00:18:56
"||||||||||||-65,6969,$GNRMC,001853.000514,,,2B$GNGGA,001854.000,3520.8172,N,11748.4996,W,1,17,0.63,629.6,M,-29.4,M,,*43\r`\r\n"2022-06-04 00:18:56
"||||||||||||-53,6969,$ACCEL,9.71,-0.77,-0.57,$ALT,682.26,-208.83\u0001\r\n"2022-06-04 00:18:57
"||||||||||||-51,6969,$GNRMC,001854,.,4084,$GNGGA,001855.000,3520.8172,N,11748.4995,W,1,17,0.63,629.6,M,-29.4,M,,*41\r\r\n"2022-06-04 00:18:57
"||||||||||||-54,6969,$ACCEL,0.30,0.08,9.86,$ALT,680.82,-208.3420.8172,N,11748.4995,W,1,17,0.63,629.6,M,-29.4,M,,*41\r\r\n"2022-06-04 00:18:58
"||||||||||||-54,6969,$GNRMC,001855.A819..0A$GNGGA,001856.000,3520.8171,N,11748.4997,W,1,16,0.66,629.6,M,-29.4,M,,*47\r\r\n"2022-06-04 00:18:58
"||||||||||||-53,6969,$ACCEL,0.25,0.11,9.94,$ALT,680.39,-208.24520.8171,N,11748.4997,W,1,16,0.66,629.6,M,-29.4,M,,*47\r\r\n"2022-06-04 00:18:59
"||||||||||||-54,6969,$GNRMC,001856.0002,8W,,,\r$GNGGA,001857.000,3520.8171,N,11748.4998,W,1,16,0.66,629.6,M,-29.4,M,,*49\r`\r\n"2022-06-04 00:18:59
"||||||||||||-54,6969,$ACCEL,0.25,0.11,9.95,$ALT,680.80,-208.43\r\n"2022-06-04 00:19:00
"||||||||||||-54,6969,$GNRMC,001857.00,.,4054,$GNGGA,001858.000,3520.8172,N,11748.4999,W,1,17,0.63,629.6,M,-29.4,M,,*40\r\r\n"2022-06-04 00:19:00
"||||||||||||-54,6969,$ACCEL,0.26,0.10,9.96,$ALT,680.70,-208.42,3520.8172,N,11748.4999,W,1,17,0.63,629.6,M,-29.4,M,,*40\r\r\n"2022-06-04 00:19:01
"||||||||||||-54,6969,$GNRMC,00185,.,4,54,$GNGGA,001859.000,3520.8174,N,11748.5000,W,1,17,0.63,629.6,M,-29.4,M,,*4F\r*40\r\r\n"2022-06-04 00:19:01
"||||||||||||-55,6969,$ACCEL,0.25,0.10,9.94,$ALT,679.79,-208.150.8174,N,11748.5000,W,1,17,0.63,629.6,M,-29.4,M,,*4F\r*40\r\r\n"2022-06-04 00:19:02
"||||||||||||-54,6969,$GNRMC,001859.0002,8W20,\r$GNGGA,001900.000,3520.8173,N,11748.5001,W,1,17,0.63,629.6,M,-29.4,M,,*44\r`\r\n"2022-06-04 00:19:02
"||||||||||||-55,6969,$ACCEL,0.25,0.10,9.95,$ALT,679.34,-208.03\r\n"2022-06-04 00:19:03
"||||||||||||-56,6969,$GNRMC,001900.000,37715026$GNGGA,001901.000,3520.8173,N,11748.5001,W,1,17,0.63,629.6,M,-29.4,M,,*45\r\u0001\r\n"2022-06-04 00:19:03
"||||||||||||-54,6969,$ACCEL,0.27,0.11,9.95,$ALT,680.60,-208.4400,3520.8173,N,11748.5001,W,1,17,0.63,629.6,M,-29.4,M,,*45\r\u0001\r\n"2022-06-04 00:19:04
"||||||||||||-56,6969,$GNRMC,001901.00,.,5054,$GNGGA,001902.000,3520.8173,N,11748.5002,W,1,16,0.65,629.6,M,-29.4,M,,*42\r\r\n"2022-06-04 00:19:04
"||||||||||||-54,6969,$ACCEL,0.27,0.11,9.95,$ALT,681.98,-208.88,3520.8173,N,11748.5002,W,1,16,0.65,629.6,M,-29.4,M,,*42\r\r\n"2022-06-04 00:19:04
"||||||||||||-57,6969,$GNRMC,001902.00AN.,20,ALT,681.98,-208.88,3520.8173,N,11748.5002,W,1,16,0.65,629.6,M,-29.4,M,,*42\r\r\n"2022-06-04 00:19:04
