Feather LoRa RX Test!

LoRa radio init OK!

Set Freq to: 915.00

||||||||||||-25,6969,$PMTK011,MTKGPS*0800,$

||||||||||||-27,6969,$ACCEL,0.00,0.00,0.00,$ALT,769.85,-225.42

||||||||||||-24,6969,$PMTK010,002*2D,0.00,$ALT,769.85,-225.42

||||||||||||-26,6969,$ACCEL,0.00,0.00,0.00,$ALT,769.84,-225.41

||||||||||||-25,6969,$GNGGA,235943.094,,,,,0,0,,,M,,M,,*51.

||||||||||||-26,6969,$ACCEL,0.44,0.47,10.52,$ALT,769.83,-225.39B

||||||||||||-25,6969,$GPGSA,A,1,,,,,,,,,,,,,,,*1E69.83,-225

||||||||||||-26,6969,$ACCEL,0.44,0.47,10.52,$ALT,769.92,-225.41B

||||||||||||-25,6969,$GLGSA,A,1,,,,,,,,,,,,,,,*0269.92,-225.41B

||||||||||||-26,6969,$ACCEL,0.44,0.47,10.52,$ALT,769.87,-225.39B

||||||||||||-26,6969,$GNRMC,235943.094,V,,,,,0.00,0.00,050180,,,N*58

||||||||||||-26,6969,$ACCEL,0.78,-0.63,10.18,$ALT,769.99,-225.41N*58

||||||||||||-26,6969,$GNVTG,0.00,T,,M,0.00,N,0.00,K,N*2C-225.41N*58

||||||||||||-26,6969,$ACCEL,0.78,-0.63,10.18,$ALT,770.20,-225.46N*58

||||||||||||-25,6969,$PMTK001,314,3*3610.18,$ALT,770.20,-225.46N*58

||||||||||||-26,6969,$ACCEL,0.78,-0.63,10.18,$ALT,770.04,-225.40

||||||||||||-25,6969,$PMTK001,220,2,100*2C8,$ALT,770.04,-225.40

||||||||||||-26,6969,$ACCEL,0.77,-0.62,10.19,$ALT,769.92,-225.36

||||||||||||-26,6969,$PGCMD,33,1*6C$GNGGA,235944.095,,,,,0,0,,,M,,M,,*57

||||||||||||-25,6969,$ACCEL,0.77,-0.62,10.19,$ALT,769.91,-225.34M,,M,,*57

||||||||||||-25,6969,$GNRMC,235944.095,V,,,,,0.00,0.ETX61011

||||||||||||-26,6969,$ACCEL,0.77,-0.62,10.19,$ALT,769.86,-225.34

||||||||||||-26,6969,$GNGGA,235945.095,,,,,0,0,,,M,,M,,*5625.34

||||||||||||-25,6969,$ACCEL,0.76,-0.64,10.21,$ALT,769.84,-225.33

||||||||||||-27,6969,$GNRMC,235945.095,V,,,,,0.00$GNGGA,235946.094,,,,,0,0,,,M,,M,,*54 

||||||||||||-26,6969,$ACCEL,0.78,-0.61,10.19,$ALT,769.83,-225.3294,,,,,0,0,,,M,,M,,*54 

||||||||||||-26,6969,$GNRMC,235946.094,V,,,,,0.00,0.00,05018,.3294,,,,,0,0,,,M,,M,,*54 

||||||||||||-26,6969,$ACCEL,0.78,-0.61,10.19,$ALT,769.86,-225.3394,,,,,0,0,,,M,,M,,*54 

||||||||||||-25,6969,$GNGGA,235947.094,,,,,0,0,,,M,,M,,*5525.3394,,,,,0,0,,,M,,M,,*54 

||||||||||||-26,6969,$ACCEL,0.78,-0.61,10.18,$ALT,769.82,-225.3094,,,,,0,0,,,M,,M,,*54 

||||||||||||-26,6969,$GNRMC,235947.094,V,,,,,0.00,0.00,050180,,C$GNGGA,235948.094,,,,,0,0,,,M,,M,,*5A

||||||||||||-26,6969,$ACCEL,0.76,-0.63,10.21,$ALT,769.83,-225.30

||||||||||||-26,6969,$ACCEL,0.76,-0.63,10.21,$ALT,769.83,-225.30

||||||||||||-26,6969,$GNRMC,235949.094,V,,,,,0.00,0.00,050180$GNGGA,235950.095,,,,,0,0,,,M,,M,,*52

||||||||||||-26,6969,$ACCEL,0.78,-0.61,10.19,$ALT,769.95,-225.32

||||||||||||-26,6969,$GNRMC,235950.095,V,,,,,0.00,0.00,050180,,,N*5B

||||||||||||-26,6969,$ACCEL,0.78,-0.61,10.19,$ALT,769.95,-225.30

||||||||||||-24,6969,$GNGGA,235951.095,,,,,0,0,,,M,,M,,*53

||||||||||||-27,6969,$ACCEL,0.72,-0.61,9.84,$ALT,769.89,-225.30

||||||||||||-27,6969,$GNRMC,235951.095,V,,,,,0.00,0.00,050180,,,N*5A$GNGGA,235951.641,,,,,0,0,,,M,,M,,*5C @B

||||||||||||-28,6969,$ACCEL,0.68,-0.68,10.23,$ALT,769.98,-225.31N*5A$GNGGA,235951.641,,,,,0,0,,,M,,M,,*5C @B

||||||||||||-29,6969,$GNRMC,235951.6$GNGGA,235952.641,,,,,0,0,,,M,,M,,*5F

||||||||||||-27,6969,$ACCEL,0.68,-0.68,10.23,$ALT,769.99,-225.30R

||||||||||||-28,6969,$GNRMC,235952.641,V,,,,,0.00,0.00,050180,,,N*56

||||||||||||-28,6969,$ACCEL,0.76,-0.65,10.22,$ALT,769.84,-225.25N*56

||||||||||||-28,6969,$GNGGA,190308.099,,,,,0,0,,,M,,M,,*5525.25N*56

||||||||||||-27,6969,$ACCEL,0.76,-0.65,10.22,$ALT,769.87,-225.27

||||||||||||-28,6969,$GNRMC,190308.099,V,,,,,0.00,0.00,120180,,,N*5A

||||||||||||-28,6969,$ACCEL,0.76,-0.65,10.22,$ALT,769.90,-225.27R

||||||||||||-28,6969,$GNGGA,190309.099,,,,,0,0,,,M,,M,,*5425.27R

||||||||||||-29,6969,$ACCEL,0.77,-0.62,10.20,$ALT,769.90,-225.27

||||||||||||-29,6969,$GNRMC,190309.099,V,,,,,0.00,0.00,120180,,,N*5B

||||||||||||-29,6969,$ACCEL,0.77,-0.62,10.20,$ALT,769.92,-225.26N*5B

||||||||||||-28,6969,$GNGGA,190310.099,,,,,0,0,,,M,,M,,*5C

||||||||||||-28,6969,$ACCEL,0.77,-0.62,10.20,$ALT,769.94,-225.26

||||||||||||-28,6969,$GNRMC,190310.099,V,,,,,0.00,0.00,120322,,,N*59

||||||||||||-28,6969,$ACCEL,0.77,-0.62,10.20,$ALT,769.94,-225.26

||||||||||||-28,6969,$GNGGA,190311.099,,,,,0,0,,,M,,M,,*5D2

||||||||||||-28,6969,$ACCEL,0.76,-0.64,10.20,$ALT,769.92,-225.25

||||||||||||-28,6969,$GNRMC,190311.099,V,,,,,0.00,0.00,120322,,,N*58

||||||||||||-28,6969,$ACCEL,0.76,-0.64,10.20,$ALT,769.91,-225.23

||||||||||||-28,6969,$GNGGA,190312.077,,,,,0,0,,,M,,M,,*5E2

||||||||||||-28,6969,$ACCEL,0.76,-0.62,10.21,$ALT,769.89,-225.23

||||||||||||-29,6969,$GNRMC,190312.077,V,,,,,0.00,0.00,120322,,,N*5B

||||||||||||-28,6969,$ACCEL,0.76,-0.62,10.21,$ALT,769.93,-225.24R

||||||||||||-28,6969,$GNGGA,190312.297,,,,,0,0,,,M,,M*N07$GNGGA,190313.297,,,,,0,0,,,M,,M,,*53

||||||||||||-28,6969,$ACCEL,0.77,-0.63,10.19,$ALT,769.89,-225.23190313.297,,,,,0,0,,,M,,M,,*53

||||||||||||-28,6969,$GNRMC,190313.297,V,,,,,0.00,0.00,120322,,,N*56$GNGGA,190314.297,,,,,0,0,,,M,,M,,*54 @B

||||||||||||-28,6969,$ACCEL,0.77,-0.64,10.21,$ALT,769.91,-225.22

||||||||||||-28,6969,$GNRMC,190314.297,V,,,,,0.00,0.00,120322,,,

||||||||||||-29,6969,$ACCEL,0.77,-0.64,10.21,$ALT,769.89,-225.22

||||||||||||-28,6969,$GNGGA,190315.297,,,,,0,0,,,M,,M,,*552

||||||||||||-33,6969,$ACCEL,0.78,-0.65,10.31,$ALT,769.89,-225.22

||||||||||||-33,6969,$GNRMC,190315.297,V,,,,,0.00,0.00,120322,,0$GNGGA,190316.297,,,,,0,0,,,M,,M,,*56

||||||||||||-32,6969,$ACCEL,0.81,-0.58,10.16,$ALT,769.90,-225.21$GNGGA,190316.297,,,,,0,0,,,M,,M,,*56

||||||||||||-32,6969,$GNRMC,190316.297,V,,,,,0.00,0.00,120322,,5$GNGGA,190317.297,,,,,0,0,,,M,,M,,*57

||||||||||||-32,6969,$ACCEL,0.81,-0.58,10.16,$ALT,769.91,-225.21$GNGGA,190317.297,,,,,0,0,,,M,,M,,*57

||||||||||||-31,6969,$GNRMC,190317.297,V,,,,,0.00,0.00,120322,,,N*52

||||||||||||-31,6969,$ACCEL,0.91,-0.64,10.19,$ALT,769.90,-225.21N*52

||||||||||||-29,6969,$GNGGA,190318.089,,,,,0,0,,,M,,M,,*5525.21N*52

||||||||||||-31,6969,$ACCEL,0.91,-0.64,10.19,$ALT,769.94,-225.21N*52

||||||||||||-29,6969,$GNRMC,190318.089,V,,,,,0.00,0.00,120322,,,N*50

||||||||||||-31,6969,$ACCEL,0.91,-0.64,10.19,$ALT,769.93,-225.22N*50

||||||||||||-29,6969,$GNGGA,190319.089,,,,,0,0,,,M,,M,,*54

||||||||||||-31,6969,$ACCEL,0.90,-0.60,10.20,$ALT,769.91,-225.21R

||||||||||||-31,6969,$GNRMC,190319.089,V,,,,,0.00,0.00,120322,,,N*$GNGGA,190320.089,,,,,0,0,,,M,,M,,*5E

||||||||||||-31,6969,$ACCEL,0.88,-0.61,10.20,$ALT,769.91,-225.20N*$GNGGA,190320.089,,,,,0,0,,,M,,M,,*5E

||||||||||||-29,6969,$GNRMC,190320.089,V,,,,,0.00,0.00,120322,,,N*5B

||||||||||||-32,6969,$ACCEL,0.88,-0.61,10.20,$ALT,769.90,-225.20

||||||||||||-31,6969,$GNGGA,190321.089,,,,,0,0,,,M,,M,,*5F25.20

||||||||||||-32,6969,$ACCEL,0.91,-0.60,10.20,$ALT,769.88,-225.20R

||||||||||||-32,6969,$GNRMC,190321.089,V,,,,,0.00,0.00,120322,,,N*5A

||||||||||||-32,6969,$ACCEL,0.91,-0.60,10.20,$ALT,769.89,-225.20N*5A

||||||||||||-32,6969,$GNGGA,190322.089,,,,,0,0,,,M,,M,,*5C25.20N*5A

||||||||||||-33,6969,$ACCEL,0.91,-0.60,10.20,$ALT,769.90,-225.20

||||||||||||-32,6969,$GNRMC,190322.089,V,,,,,0.00,0.00,120322,,,N*59

||||||||||||-32,6969,$ACCEL,0.89,-0.61,10.19,$ALT,769.90,-225.19N*59

||||||||||||-32,6969,$GNGGA,190323.089,,,,,0,0,,,M,,M,,*5D2

||||||||||||-32,6969,$ACCEL,0.89,-0.61,10.19,$ALT,769.90,-225.19

||||||||||||-32,6969,$GNRMC,190323.089,V,,,,,0.00,0.00,120322,,,N*58

||||||||||||-31,6969,$ACCEL,0.89,-0.61,10.21,$ALT,769.90,-225.20N*58

||||||||||||-31,6969,$GNGGA,190324.084,,,,,0,0,,,M,,M,,*572

||||||||||||-32,6969,$ACCEL,0.89,-0.61,10.21,$ALT,769.89,-225.19

||||||||||||-31,6969,$GNRMC,190324.084,V,,,,,0.00,0.00,120322,,,N*52

||||||||||||-32,6969,$ACCEL,0.90,-0.61,10.22,$ALT,769.88,-225.19N*52

||||||||||||-32,6969,$GNGGA,190324.302,,,,,0,,G13,,2,

||||||||||||-32,6969,$ACCEL,0.90,-0.61,10.22,$ALT,769.89,-225.19R

||||||||||||-31,6969,$GNGGA,190325.302,,,,,0,0,,,M,,M,,*5B25.19R

||||||||||||-31,6969,$ACCEL,0.89,-0.61,10.21,$ALT,769.85,-225.19R

||||||||||||-29,6969,$GNRMC,190325.302,V,,,,,0.00,0.00,120322,,,$GNGGA,190326.302,,,,,0,0,,,M,,M,,*58

||||||||||||-32,6969,$ACCEL,0.89,-0.61,10.21,$ALT,769.82,-225.17$GNGGA,190326.302,,,,,0,0,,,M,,M,,*58

||||||||||||-32,6969,$GNRMC,190326.302,V,,,,,0.00,0.00,120322,,,

||||||||||||-33,6969,$ACCEL,0.85,-0.62,10.22,$ALT,769.81,-225.16

||||||||||||-32,6969,$GNGGA,190327.302,,,,,0,0,,,M,,M,,*5925.16

||||||||||||-33,6969,$ACCEL,0.85,-0.62,10.22,$ALT,769.79,-225.16

||||||||||||-33,6969,$GNRMC,190327.302,V,,,,,0.00,0.00,120322,,C$GNGGA,190328.302,,,,,0,0,,,M,,M,,*56

||||||||||||-32,6969,$ACCEL,0.86,-0.61,10.21,$ALT,769.92,-225.19$GNGGA,190328.302,,,,,0,0,,,M,,M,,*56

||||||||||||-32,6969,$GNRMC,190328.302,V,,,,,0.00,0.00,120322,,,

||||||||||||-32,6969,$ACCEL,0.86,-0.61,10.21,$ALT,769.95,-225.19

||||||||||||-32,6969,$GNGGA,190329.302,,,,,0,0,,,M,,M,,*57

||||||||||||-34,6969,$ACCEL,0.85,-0.61,10.19,$ALT,769.94,-225.18R

||||||||||||-34,6969,$GNRMC,190329.302,V,,,,,0.00,0.00,120322,,,N*$GNGGA,190330.080,,,,,0,0,,,M,,M,,*56

||||||||||||-34,6969,$ACCEL,0.90,-0.60,10.21,$ALT,769.96,-225.20N*$GNGGA,190330.080,,,,,0,0,,,M,,M,,*56

||||||||||||-31,6969,$GNRMC,190330.080,V,,,,,0.00,0.00,1223$GNGGA,190330.299,3429$GNGGA,190332.000,3429.6963,N,11657.5503,W,1,10,0.84,883.9

||||||||||||-34,6969,$ACCEL,0.91,-0.62,10.20,$ALT,770.00,-225.19A,190330.299,3429$GNGGA,190332.000,3429.6963,N,11657.5503,W,1,10,0.84,883.9

||||||||||||-33,6969,$GNRMC,190332.000,A,3429.6963,N,11657.5503,W,0.03,0.00,120322,,,A*6A0332.000,3429.6963,N,11657.5503,W,1,10,0.84,883.9

||||||||||||-34,6969,$ACCEL,0.90,-0.60,10.20,$ALT,770.00,-225.20

||||||||||||-34,6969,$GNRMC,190333.00366261,$GNGGA,190334.000,3429.6962,N,11657.5496,W,1,10,0.84,883.0,M,-31.0,M,,*40

||||||||||||-33,6969,$ACCEL,0.91,-0.60,10.21,$ALT,769.96,-225.19429.6962,N,11657.5496,W,1,10,0.84,883.0,M,-31.0,M,,*40

||||||||||||-33,6969,$GNRMC,190334.000,A,2,7W02,$GNGGA,190335.000,3429.6962,N,11657.5497,W,1,09,0.89,882.5,M,-31.0,M,,*41

||||||||||||-32,6969,$ACCEL,0.91,-0.61,10.20,$ALT,769.95,-225.190,3429.6962,N,11657.5497,W,1,09,0.89,882.5,M,-31.0,M,,*41

||||||||||||-31,6969,$GNRMC,19033.36191,,$GNGGA,190336.000,3429.6959,N,11657.5495,W,1,10,0.84,882.8,M,-31.0,M,,*40,,*41

||||||||||||-37,6969,$ACCEL,0.89,-0.45,10.34,$ALT,769.92,-225.18.6959,N,11657.5495,W,1,10,0.84,882.8,M,-31.0,M,,*40,,*41

||||||||||||-42,6969,$GNRMC,190336.000,A,3429.,5003*$GNGGA,190337.000,3429.6952,N,11657.5492,W,1,10,0.84,874.3,M,-31.0,M,,*4F

||||||||||||-37,6969,$ACCEL,1.48,-7.05,5.93,$ALT,770.23,-225.2837.000,3429.6952,N,11657.5492,W,1,10,0.84,874.3,M,-31.0,M,,*4F

||||||||||||-35,6969,$GNRMC,190337.000,A,342914.022$GNGGA,190338.000,3429.6952,N,11657.5490,W,1,10,0.84,874.1,M,-31.0,M,,*40

||||||||||||-35,6969,$ACCEL,1.88,-2.28,7.88,$ALT,769.68,-225.138.000,3429.6952,N,11657.5490,W,1,10,0.84,874.1,M,-31.0,M,,*40

||||||||||||-35,6969,$GNRMC,190338.0035191,,$GNGGA,190339.000,3429.6952,N,11657.5489,W,1,10,0.84,873.9,M,-31.0,M,,*46

||||||||||||-37,6969,$ACCEL,0.66,-0.43,10.70,$ALT,769.65,-225.12

||||||||||||-36,6969,$GNRMC,190339.0002,7W00,$GNGGA,190340.000,3429.6954,N,11657.5498,W,1,15,0.65,871.1,M,-31.0,M,,*4E

||||||||||||-37,6969,$ACCEL,0.86,-0.40,10.23,$ALT,769.82,-225.17429.6954,N,11657.5498,W,1,15,0.65,871.1,M,-31.0,M,,*4E

||||||||||||-38,6969,$GNRMC,190340.000,A,3456851,$GNGGA,190341.000,3429.6956,N,11657.5497,W,1,15,0.65,872.0,M,-31.0,M,,*40@B

||||||||||||-42,6969,$ACCEL,0.84,-0.37,10.06,$ALT,769.92,-225.19

||||||||||||-44,6969,$GNRMC,190341.02,7,,2,$GNGGA,190342.000,3429.6957,N,11657.5497,W,1,15,0.65,871.4,M,-31.0,M,,*45

||||||||||||-40,6969,$ACCEL,0.85,-0.42,10.12,$ALT,769.98,-225.229.6957,N,11657.5497,W,1,15,0.65,871.4,M,-31.0,M,,*45

||||||||||||-42,6969,$GNRMC,190342.0002,7W,2,$GNGGA,190343.000,3429.6958,N,11657.5497,W,1,15,0.65,871.3,M,-31.0,M,,*4C

||||||||||||-47,6969,$ACCEL,0.83,-0.44,10.20,$ALT,769.91,-225.18429.6958,N,11657.5497,W,1,15,0.65,871.3,M,-31.0,M,,*4C

||||||||||||-47,6969,$GNRMC,190343.0002,7W,2,$GNGGA,190344.000,3429.6957,N,11657.5498,W,1,15,0.65,871.5,M,-31.0,M,,*4D

||||||||||||-47,6969,$ACCEL,0.86,-0.42,10.19,$ALT,769.92,-225.18429.6957,N,11657.5498,W,1,15,0.65,871.5,M,-31.0,M,,*4D

||||||||||||-47,6969,$GNRMC,190344.000,9190028$GNGGA,190345.000,3429.6957,N,11657.5499,W,1,15,0.65,871.5,M,-31.0,M,,*4D`

||||||||||||-47,6969,$ACCEL,1.00,-0.37,10.19,$ALT,770.14,-225.24R

||||||||||||-45,6969,$GNRMC,190345.0A6,50026$GNGGA,190346.000,3429.6957,N,11657.5498,W,1,15,0.66,871.3,M,-31.0,M,,*4A

||||||||||||-47,6969,$ACCEL,0.99,-0.37,10.19,$ALT,770.09,-225.2329.6957,N,11657.5498,W,1,15,0.66,871.3,M,-31.0,M,,*4A

||||||||||||-47,6969,$GNRMC,190346.000,35190,,$GNGGA,190347.000,3429.6957,N,11657.5498,W,1,15,0.66,871.0,M,-31.0,M,,*48

||||||||||||-45,6969,$ACCEL,1.00,-0.37,10.21,$ALT,770.13,-225.24

||||||||||||-47,6969,$GNRMC,190347.0002,7W00,$GNGGA,190348.000,3429.6957,N,11657.5499,W,1,15,0.66,870.6,M,-31.0,M,,*41

||||||||||||-45,6969,$ACCEL,0.99,-0.36,10.20,$ALT,769.94,-225.18

||||||||||||-47,6969,$GNRMC,190348.000356951,$GNGGA,190349.000,3429.6957,N,11657.5501,W,1,15,0.66,870.5,M,-31.0,M,,*43`

||||||||||||-47,6969,$ACCEL,1.00,-0.38,10.21,$ALT,769.95,-225.183429.6957,N,11657.5501,W,1,15,0.66,870.5,M,-31.0,M,,*43`

||||||||||||-45,6969,$GNRMC,190349.000,.N.,.3*$GNGGA,190350.000,3429.6957,N,11657.5503,W,1,15,0.66,870.5,M,-31.0,M,,*49`

||||||||||||-45,6969,$ACCEL,0.98,-0.38,10.21,$ALT,769.81,-225.14

||||||||||||-45,6969,$GNRMC,190350.00A615.026$GNGGA,190351.000,3429.6958,N,11657.5505,W,1,15,0.66,870.3,M,-31.0,M,,*47

||||||||||||-45,6969,$ACCEL,0.99,-0.37,10.19,$ALT,769.92,-225.16429.6958,N,11657.5505,W,1,15,0.66,870.3,M,-31.0,M,,*47

||||||||||||-45,6969,$GNRMC,190351.00,.,50.3*$GNGGA,190352.000,3429.6958,N,11657.5507,W,1,15,0.66,870.3,M,-31.0,M,,*46

||||||||||||-48,6969,$ACCEL,0.98,-0.37,10.19,$ALT,769.71,-225.06

||||||||||||-50,6969,$GNRMC,190352.000,9N.,.0A$GNGGA,190353.000,3429.6958,N,11657.5508,W,1,15,0.66,870.3,M,-31.0,M,,*48`

||||||||||||-51,6969,$ACCEL,0.97,-0.38,10.15,$ALT,769.97,-225.11

||||||||||||-51,6969,$GNRMC,190353.0002,7W02,$GNGGA,190354.000,3429.6959,N,11657.5509,W,1,15,0.66,870.1,M,-31.0,M,,*4D

||||||||||||-48,6969,$ACCEL,0.99,-0.38,10.20,$ALT,769.76,-225.05429.6959,N,11657.5509,W,1,15,0.66,870.1,M,-31.0,M,,*4D

||||||||||||-49,6969,$GNRMC,190354.00035692,,$GNGGA,190355.000,3429.6959,N,11657.5511,W,1,16,0.63,870.1,M,-31.0,M,,*43`

||||||||||||-50,6969,$ACCEL,0.99,-0.38,10.20,$ALT,769.81,-225.063429.6959,N,11657.5511,W,1,16,0.63,870.1,M,-31.0,M,,*43`

||||||||||||-51,6969,$GNRMC,190355.000,A496121,LT,769.81,-225.063429.6959,N,11657.5511,W,1,16,0.63,870.1,M,-31.0,M,,*43`

||||||||||||-50,6969,$ACCEL,1.00,-0.38,10.15,$ALT,769.72,-225.013429.6959,N,11657.5511,W,1,16,0.63,870.1,M,-31.0,M,,*43`

||||||||||||-50,6969,$GNGGA,190356.000,3429.6960,N,11657.5512,W,1,16,0.63,870.0,M,-31.0,M,,*48.63,870.1,M,-31.0,M,,*43`

||||||||||||-50,6969,$ACCEL,0.97,-0.37,10.16,$ALT,769.84,-225.02

||||||||||||-50,6969,$GNRMC,190356.36610,,$GNGGA,190357.000,3429.6960,N,11657.5513,W,1,16,0.63,869.9,M,-31.0,M,,*49

||||||||||||-49,6969,$ACCEL,0.97,-0.37,10.16,$ALT,769.99,-225.06

||||||||||||-47,6969,$GNRMC,190357.000405,,1,$ALT,769.99,-22

||||||||||||-48,6969,$ACCEL,0.98,-0.36,10.18,$ALT,769.97,-225.05

||||||||||||-49,6969,$GNRMC,190358.00A6,50026$GNGGA,190359.000,3429.6961,N,11657.5515,W,1,16,0.63,869.8,M,3,G90415,,1,

||||||||||||-48,6969,$ACCEL,1.00,-0.36,10.17,$ALT,769.93,-225.05429.6961,N,11657.5515,W,1,16,0.63,869.8,M,3,G90415,,1,

||||||||||||-47,6969,$GNGGA,190400.000,3429.6961,N,11657.5515,W,1,16,0.63,869.8,M,-31.0,M,,*4A63,869.8,M,3,G90415,,1,

||||||||||||-48,6969,$ACCEL,1.00,-0.36,10.19,$ALT,769.90,-225.041,16,0.63,869.8,M,-31.0,M,,*4A63,869.8,M,3,G90415,,1,

||||||||||||-48,6969,$GNRMC,190400.000,A,346,50026$GNGGA,190401.000,3429.6961,N,11657.5515,W,1,17,0.63,869.6,M,-31.0,M,,*46571,

||||||||||||-48,6969,$ACCEL,1.00,-0.36,10.19,$ALT,769.86,-225.03

||||||||||||-47,6969,$GNRMC,190402.000,A,34915.02D$GNGGA,190403.000,3429.6961,N,11657.5516,W,1,17,0.63,869.2,M,-31.0,M,,*41@B

||||||||||||-47,6969,$ACCEL,0.98,-0.36,10.19,$ALT,769.97,-225.03000,3429.6961,N,11657.5516,W,1,17,0.63,869.2,M,-31.0,M,,*41@B

||||||||||||-48,6969,$GNRMC,190403.000A6,50026$GNGGA,190404.000,3429.6961,N,11657.5516,W,1,17,0.63,869.0,M,-31.0,M,,*44*41@B

||||||||||||-45,6969,$ACCEL,0.98,-0.38,10.20,$ALT,769.91,-225.003429.6961,N,11657.5516,W,1,17,0.63,869.0,M,-31.0,M,,*44*41@B

||||||||||||-45,6969,$GNRMC,190404.000,A,34615.026$GNGGA,190405.000,3429.6961,N,11657.5516,W,1,17,0.63,868.9,M,-31.0,M,,*4D@B

||||||||||||-45,6969,$ACCEL,0.98,-0.38,10.21,$ALT,769.94,-225.02

||||||||||||-45,6969,$GNRMC,190405.036660,,$GNGGA,190406.000,3429.6961,N,11657.5516,W,1,17,0.63,868.8,M,-31.0,M,,*4F

||||||||||||-45,6969,$ACCEL,0.95,-0.37,10.20,$ALT,769.83,-224.9929.6961,N,11657.5516,W,1,17,0.63,868.8,M,-31.0,M,,*4F

||||||||||||-44,6969,$GNRMC,190406.000,A,342,5,,2,$GNGGA,190407.000,3429.6960,N,11657.5515,W,1,17,0.63,868.6,M,-31.0,M,,*42@B

||||||||||||-44,6969,$ACCEL,0.95,-0.39,10.18,$ALT,769.78,-224.98000,3429.6960,N,11657.5515,W,1,17,0.63,868.6,M,-31.0,M,,*42@B

||||||||||||-45,6969,$GNRMC,190407.00,.,5,.3*$GNGGA,190408.000,3429.6960,N,11657.5514,W,1,17,0.63,868.5,M,-31.0,M,,*4F,*42@B

||||||||||||-45,6969,$ACCEL,0.95,-0.39,10.18,$ALT,769.85,-224.99R

||||||||||||-47,6969,$GNRMC,190408.00205,,2,,$ALT,769.85,-22

||||||||||||-50,6969,$ACCEL,0.96,-0.36,10.19,$ALT,769.88,-224.99

||||||||||||-44,6969,$GNRMC,190409.0,.,5,.3*$GNGGA,190410.000,3429.6959,N,11657.5513,W,1,17,0.63,868.3,M,-31.0,M,,*4D

||||||||||||-45,6969,$ACCEL,0.97,-0.37,10.19,$ALT,770.04,-225.0029.6959,N,11657.5513,W,1,17,0.63,868.3,M,-31.0,M,,*4D

||||||||||||-43,6969,$GNRMC,190410.000,A35631,,$GNGGA,190411.000,3429.6959,N,11657.5512,W,1,17,0.63,868.1,M,-31.0,M,,*4F

||||||||||||-47,6969,$ACCEL,0.98,-0.35,10.19,$ALT,769.98,-224.990,3429.6959,N,11657.5512,W,1,17,0.63,868.1,M,-31.0,M,,*4F

||||||||||||-47,6969,$GNRMC,190411.09N.,.0A$GNGGA,190412.000,3429.6958,N,11657.5511,W,1,17,0.63,868.0,M,-3,$1.35619,,$GNGGA,190413.000,342 

||||||||||||-47,6969,$ACCEL,0.93,-0.38,10.21,$ALT,770.01,-225.00

||||||||||||-45,6969,$GNRMC,190413.000,A,3425110,,$GNGGA,190414.000,3429.6958,N,11657.5509,W,1,17,0.63,868.0,M,-31.0,M,,*40B

||||||||||||-44,6969,$ACCEL,0.95,-0.36,10.20,$ALT,769.98,-225.00

||||||||||||-45,6969,$GNRMC,190414.00035695,,$GNGGA,190415.000,3429.6957,N,11657.5508,W,1,17,0.63,868.0,M,-31.0,M,,*4F,

||||||||||||-44,6969,$ACCEL,0.95,-0.38,10.20,$ALT,769.95,-224.99R

||||||||||||-45,6969,$GNRMC,190415.00456851,$GNGGA,190416.000,3429.6957,N,11657.5507,W,1,17,0.63,868.0,M,-31.0,M,,*43

||||||||||||-44,6969,$ACCEL,0.95,-0.38,10.21,$ALT,769.90,-224.98

||||||||||||-43,6969,$GNRMC,190416.000,A,3429.6957,N,11657.5507,W,$GNGGA,190417.000,3429.6957,N,11657.5506,W,1,17,0.63,868.0,M,-31.0,M,,*43 

||||||||||||-45,6969,$ACCEL,0.96,-0.37,10.22,$ALT,769.86,-224.97W,$GNGGA,190417.000,3429.6957,N,11657.5506,W,1,17,0.63,868.0,M,-31.0,M,,*43 

||||||||||||-44,6969,$GNRMC,190417.000,A,3429.6957,$GNGGA,190418.000,3429.6957,N,11657.5506,W,1,17,0.63,868.0,M,-31.0,M,,*4CM,-31.0,M,,*43 

||||||||||||-44,6969,$ACCEL,0.95,-0.38,10.22,$ALT,769.89,-224.98.000,3429.6957,N,11657.5506,W,1,17,0.63,868.0,M,-31.0,M,,*4CM,-31.0,M,,*43 

||||||||||||-45,6969,$GNRMC,190418.000,A,3429.$GNGGA,190419.000,3429.6957,N,11657.5505,W,1,17,0.63,868.0,M,-31.0,M,,*4E,*4CM,-31.0,M,,*43 

||||||||||||-45,6969,$ACCEL,0.94,-0.37,10.22,$ALT,769.91,-224.993429.6957,N,11657.5505,W,1,17,0.63,868.0,M,-31.0,M,,*4E,*4CM,-31.0,M,,*43 

||||||||||||-45,6969,$GNRMC,190419.000,A,3429$GNGGA,190420.000,3429.6956,N,11657.5504,W,1,17,0.63,868.0,M,-31.0,M,,*44,*4CM,-31.0,M,,*43 

||||||||||||-45,6969,$ACCEL,0.94,-0.38,10.21,$ALT,769.91,-224.99R

||||||||||||-45,6969,$GNRMC,190420.000,A,3429.6956451,$GNGGA,190421.000,3429.6956,N,11657.5503,W,1,17,0.63,868.0,M,-31.0,M,,*42

||||||||||||-44,6969,$ACCEL,0.94,-0.38,10.21,$ALT,769.90,-224.980421.000,3429.6956,N,11657.5503,W,1,17,0.63,868.0,M,-31.0,M,,*42

||||||||||||-45,6969,$GNRMC,190420466371,.21,$ALT,769.90,-22

||||||||||||-45,6969,$ACCEL,0.94,-0.38,10.23,$ALT,769.89,-224.99

||||||||||||-44,6969,$GNRMC,190422.00A615.026$GNGGA,190423.000,3429.6955,N,11657.5500,W,1,17,0.63,868.0,M,-31.0,M,,*40

||||||||||||-49,6969,$ACCEL,0.94,-0.37,10.21,$ALT,769.85,-224.98429.6955,N,11657.5500,W,1,17,0.63,868.0,M,-31.0,M,,*40

||||||||||||-50,6969,$GNRMC,190423.00,.,5,.3*$GNGGA,190424.000,3429.6955,N,11657.5500,W,1,17,0.63,868.1,M,-31.0,M,,*46

||||||||||||-47,6969,$ACCEL,0.94,-0.37,10.21,$ALT,769.84,-224.97429.6955,N,11657.5500,W,1,17,0.63,868.1,M,-31.0,M,,*46

||||||||||||-47,6969,$GNRMC,190424.000255,,2,

||||||||||||-47,6969,$ACCEL,0.92,-0.39,10.23,$ALT,769.86,-224.98R

||||||||||||-49,6969,$GNGGA,190425.000,3429.6955,N,11657.5499,W,2,17,0.63,868.1,M,05M2A.,50026$GNGGA,190426.000,3429.6955,N,11657.5499,W,2, 

||||||||||||-53,6969,$ACCEL,0.91,-0.39,10.21,$ALT,769.88,-224.992,17,0.63,868.1,M,05M2A.,50026$GNGGA,190426.000,3429.6955,N,11657.5499,W,2, 

||||||||||||-55,6969,$GNRMC,190426.000,A,342919.021$GNGGA,190427.000,3429.6955,N,11657.5499,W,2,17,0.63,868.2,M,-31.0,M,,*441657.5499,W,2, 

||||||||||||-51,6969,$ACCEL,0.87,-0.39,10.23,$ALT,769.85,-224.98

||||||||||||-51,6969,$GNRMC,190427.00,.,50.3*$GNGGA,190428.000,3429.6955,N,11657.5499,W,2,17,0.63,868.2,M,-31.0,M,,*40D$GNGGA,190429.000,34 

||||||||||||-51,6969,$ACCEL,0.89,-0.38,10.22,$ALT,769.85,-224.99429.6955,N,11657.5499,W,2,17,0.63,868.2,M,-31.0,M,,*40D$GNGGA,190429.000,34 

||||||||||||-51,6969,$GNRMC,190429.000,A,3429.6955,N,11657.5499,W,0.05,0.00,120322,,,D$GNGGA,190430.000,3429.6956,N,11657.5499,W,2,17,0.63, 

||||||||||||-51,6969,$ACCEL,0.86,-0.39,10.22,$ALT,769.87,-224.99W,0.05,0.00,120322,,,D$GNGGA,190430.000,3429.6956,N,11657.5499,W,2,17,0.63, 

||||||||||||-51,6969,$GNRMC,1904300465951,22,$ALT,769.87,-22

||||||||||||-52,6969,$ACCEL,0.86,-0.39,10.22,$ALT,769.87,-224.99

||||||||||||-51,6969,$GNRMC,190431.000,A,3429.6955,N,119.02B$GNGGA,190432.000,3429.6955,N,11657.5499,W,2,17,0.63,868.3,M,-31.0,M,,*41

||||||||||||-52,6969,$ACCEL,0.85,-0.39,10.23,$ALT,769.82,-224.99R

||||||||||||-51,6969,$GNRMC,1904309,7W00D$GNGGA,190433.000,3429.6955,N,11657.5499,W,2,17,0.63,868.3,M,-31.0,M,,*40

||||||||||||-51,6969,$ACCEL,0.86,-0.40,10.24,$ALT,769.83,-225.00R

||||||||||||-51,6969,$GNRMC,190433.000,A,3429.6955,N,11657.5499,$GNGGA,190434.000,3429.6955,N,11657.5500,W,2,17,0.63,868.3,M,-31.0,M,,*46

||||||||||||-50,6969,$ACCEL,0.84,-0.39,10.22,$ALT,769.87,-225.01

||||||||||||-50,6969,$GNRMC,190.,9100,2D$GNGGA,190435.000,3429.6955,N,11657.5500,W,2,17,0.63,868.3,M,-31.0,M,,*47

||||||||||||-44,6969,$ACCEL,0.79,-0.41,10.26,$ALT,769.83,-225.00955,N,11657.5500,W,2,17,0.63,868.3,M,-31.0,M,,*47

||||||||||||-43,6969,$GNRMC,190435.000,A,3425600,,$GNGGA,190436.000,3429.6955,N,11657.5501,W,2,17,0.63,868.3,M,-31.0,M,,*45B

||||||||||||-45,6969,$ACCEL,0.80,-0.40,10.23,$ALT,769.80,-225.00.000,3429.6955,N,11657.5501,W,2,17,0.63,868.3,M,-31.0,M,,*45B

||||||||||||-45,6969,$GNRMC,190436.A615.026$GNGGA,190437.000,3429.6955,N,11657.5501,W,2,17,0.63,868.4,M,-31.0,M,,*43,M,,*45B

||||||||||||-45,6969,$ACCEL,0.80,-0.40,10.25,$ALT,769.80,-225.009.6955,N,11657.5501,W,2,17,0.63,868.4,M,-31.0,M,,*43,M,,*45B

||||||||||||-45,6969,$GNRMC,190437.000,,915.02D$GNGGA,190438.000,3429.6955,N,11657.5501,W,2,17,0.63,868.4,M,-31.0,M,,*4C*45B

||||||||||||-47,6969,$ACCEL,0.80,-0.40,10.23,$ALT,769.78,-225.00

||||||||||||-47,6969,$GNRMC,1903,.,5003*$GNGGA,190439.000,3429.6956,N,11657.5501,W,2,17,0.63,868.4,M,-31.0,M,,*4E

||||||||||||-45,6969,$ACCEL,0.80,-0.40,10.22,$ALT,769.83,-225.02956,N,11657.5501,W,2,17,0.63,868.4,M,-31.0,M,,*4E

||||||||||||-44,6969,$GNRMC,190439.000,35615,,$GNGGA,190440.000,3429.6956,N,11657.5502,W,2,17,0.63,868.4,M,-31.0,M,,*43

||||||||||||-44,6969,$ACCEL,0.80,-0.41,10.23,$ALT,769.85,-225.01

||||||||||||-44,6969,$GNRMC,190440.002,7W02,$GNGGA,190441.000,3429.6956,N,11657.5502,W,2,17,0.63,868.3,M,-31.0,M,,*45

||||||||||||-44,6969,$ACCEL,0.80,-0.41,10.23,$ALT,770.00,-225.0429.6956,N,11657.5502,W,2,17,0.63,868.3,M,-31.0,M,,*45

||||||||||||-45,6969,$GNRMC,190441.000,465,71,ALT,770.00,-22

||||||||||||-43,6969,$ACCEL,0.80,-0.39,10.21,$ALT,769.80,-224.97

||||||||||||-42,6969,$ACCEL,0.80,-0.40,10.21,$ALT,769.81,-224.98

||||||||||||-42,6969,$GNRMC,190442.000,915.026$GNGGA,190443.000,3429.6956,N,11657.5501,W,2,17,0.63,868.1,M,-31.0,M,,*46`

||||||||||||-43,6969,$ACCEL,0.81,-0.41,10.20,$ALT,769.90,-224.993429.6956,N,11657.5501,W,2,17,0.63,868.1,M,-31.0,M,,*46`

||||||||||||-44,6969,$GNRMC,190443.000A6,50026$GNGGA,190444.000,3429.6956,N,11657.5502,W,2,17,0.63,868.0,M,-31.0,M,,*43`

||||||||||||-42,6969,$ACCEL,0.80,-0.40,10.22,$ALT,769.95,-225.013429.6956,N,11657.5502,W,2,17,0.63,868.0,M,-31.0,M,,*43`

||||||||||||-44,6969,$GNRMC,190444.00035600,,$GNGGA,190445.000,3429.6956,N,11657.5502,W,2,17,0.63,867.9,M,-M1.0,M,,*43`

||||||||||||-44,6969,$ACCEL,0.80,-0.40,10.22,$ALT,769.94,-224.99

||||||||||||-44,6969,,.35100,,$GNGGA,190446.000,3429.6956,N,11657.5503,W,2,17,0.63,867.8,M,-31.0,M,,*47

||||||||||||-43,6969,$ACCEL,0.80,-0.41,10.21,$ALT,770.01,-225.0057.5503,W,2,17,0.63,867.8,M,-31.0,M,,*47

||||||||||||-43,6969,$GNRMC,190446.000,A,3426150026$GNGGA,190447.000,3429.6956,N,11657.5503,W,2,17,0.63,867.7,M,-31.0,M,,*49

||||||||||||-43,6969,$ACCEL,0.80,-0.40,10.21,$ALT,769.98,-225.00

||||||||||||-44,6969,$GNRMC,190447.0035638,,$GNGGA,190448.000,3429.6956,N,11657.5503,W,2,17,0.63,867.7,M,-31.0,M,,*46

||||||||||||-43,6969,$ACCEL,0.80,-0.41,10.22,$ALT,769.94,-224.99429.6956,N,11657.5503,W,2,17,0.63,867.7,M,-31.0,M,,*46

||||||||||||-44,6969,$GNRMC,190448.00,.,5,.3*$GNGGA,190449.000,3429.6956,N,11657.5503,W,2,17,0.63,867.6,M,-31.0,M,,*46

||||||||||||-43,6969,$ACCEL,0.80,-0.41,10.23,$ALT,769.96,-225.01429.6956,N,11657.5503,W,2,17,0.63,867.6,M,-31.0,M,,*46

||||||||||||-43,6969,$GNRMC,190449.000,A,6,50026$GNGGA,190450.000,3429.6956,N,11657.5503,W,2,17,0.63,867.5,M,-31.0,M,,*4D

||||||||||||-44,6969,$ACCEL,0.80,-0.40,10.22,$ALT,769.97,-225.010,3429.6956,N,11657.5503,W,2,17,0.63,867.5,M,-31.0,M,,*4D

||||||||||||-43,6969,$GNRMC,190450.000,A,.N.,.3*$GNGGA,190451.000,3429.6955,N,11657.5503,W,2,17,0.63,867.5,M,-31.0,M,,*4F

||||||||||||-44,6969,$ACCEL,0.81,-0.40,10.22,$ALT,769.99,-225.020,3429.6955,N,11657.5503,W,2,17,0.63,867.5,M,-31.0,M,,*4F

||||||||||||-45,6969,$GNRMC,190451.00255,,2,,$ALT,769.99,-225.020,3429.6955,N,11657.5503,W,2,17,0.63,867.5,M,-31.0,M,,*4F

||||||||||||-53,6969,$ACCEL,0.81,-0.40,10.22,$ALT,769.99,-225.01

||||||||||||-44,6969,$GNRMC,190452.000A6150026$GNGGA,190453.000,3429.6955,N,11657.5502,W,2,17,0.63,867.4,M,-31.0,M,,*4D`

||||||||||||-42,6969,$ACCEL,0.79,-0.42,10.55,$ALT,769.85,-224.98

||||||||||||-42,6969,$GNRMC,190453.00A.,5002*$GNGGA,190454.000,3429.6954,N,11657.5502,W,2,17,0.63,867.4,M,-31.0,M,,*4B

||||||||||||-41,6969,$ACCEL,0.84,-0.37,10.58,$ALT,769.80,-224.96R

||||||||||||-41,6969,$GNRMC,190454.000445,,2,$ALT,769.80,-224.96R

||||||||||||-43,6969,$ACCEL,0.75,-0.40,10.37,$ALT,769.92,-225.00

||||||||||||-42,6969,$GNGGA,190455.000,3429.6954,N,11657.5502,W,2,17,0.63,867.4,M,-0AM4,.,50.3*$GNGGA,190456.000,3429.6954,N,11657.5502,W,2 

||||||||||||-38,6969,$ACCEL,0.77,-0.41,10.27,$ALT,769.96,-225.012,17,0.63,867.4,M,-0AM4,.,50.3*$GNGGA,190456.000,3429.6954,N,11657.5502,W,2 

||||||||||||-42,6969,$GNRMC,190456.000,A,342.,50026$GNGGA,190457.000,3429.6954,N,11657.5502,W,2,17,0.63,867.4,M,-31.0,M,,*4811657.5502,W,2 

||||||||||||-33,6969,$ACCEL,0.85,-0.39,10.21,$ALT,770.06,-225.03.000,3429.6954,N,11657.5502,W,2,17,0.63,867.4,M,-31.0,M,,*4811657.5502,W,2 

||||||||||||-34,6969,$GNRMC,190457.0009N7W00D$GNGGA,190458.000,3429.6954,N,11657.5502,W,2,17,0.63,867.5,M,-31.0,M,,*024$GNGGA,190459.000,34 

||||||||||||-34,6969,$ACCEL,0.98,-0.41,10.22,$ALT,770.01,-225.02429.6954,N,11657.5502,W,2,17,0.63,867.5,M,-31.0,M,,*024$GNGGA,190459.000,34 

||||||||||||-34,6969,$GNRMC,190459.000,A,3429.6954,N,11657.5502,W,0.07,0.00,120322,,,D$GNGGA,190500.000,3429.6953,N,11657.5501,W,2,17,0.63, 

||||||||||||-34,6969,$ACCEL,0.93,-0.39,10.22,$ALT,770.02,-225.02W,0.07,0.00,120322,,,D$GNGGA,190500.000,3429.6953,N,11657.5501,W,2,17,0.63, 

||||||||||||-35,6969,$GNRMC,190500,910.02D$GNGGA,190501.000,3429.6954,N,11657.5501,W,2,17,0.63,867.6,M,-31.0,M,,*4B

||||||||||||-35,6969,$ACCEL,0.94,-0.39,10.25,$ALT,770.08,-225.03.6954,N,11657.5501,W,2,17,0.63,867.6,M,-31.0,M,,*4B

||||||||||||-34,6969,$GNRMC,190501.009N.W00D$GNGGA,190502.000,3429.6953,N,11657.5501,W,2,17,0.63,867.6,M,-31.0,M,,*4F

||||||||||||-35,6969,$ACCEL,0.94,-0.38,10.20,$ALT,770.10,-225.0329.6953,N,11657.5501,W,2,17,0.63,867.6,M,-31.0,M,,*4F

||||||||||||-34,6969,$GNRMC,190502.0,50.3*$GNGGA,190503.000,3429.6953,N,11657.5501,W,2,17,0.63,867.6,M,-31.0,M,,*4EF

||||||||||||-35,6969,$ACCEL,0.95,-0.39,10.23,$ALT,770.06,-225.02.6953,N,11657.5501,W,2,17,0.63,867.6,M,-31.0,M,,*4EF

||||||||||||-34,6969,$GNRMC,190503.000,A,3429.6953,N,11657.5501,W,0.05,0.00,1203$GNGGA,190504.000,3429.6953,N,11657.5501,W,2,17,0.63,867.6,

||||||||||||-34,6969,$ACCEL,0.95,-0.38,10.20,$ALT,770.02,-225.01W,0.05,0.00,1203$GNGGA,190504.000,3429.6953,N,11657.5501,W,2,17,0.63,867.6,

||||||||||||-35,6969,$GNRMC,190504.000,A,3$GNGGA,190505.000,3429.6953,N,11657.5500,W,2,17,0.63,867.5,M,-31.0,M,,*4A5501,W,2,17,0.63,867.6,

||||||||||||-35,6969,$ACCEL,0.94,-0.38,10.21,$ALT,770.09,-225.02

||||||||||||-34,6969,$GNRMC,190505.000,A,342$GNGGA,190506.000,3429.6953,N,11657.5500,W,2,17,0.63,867.5,M,-31.0,M,,*49

||||||||||||-35,6969,$ACCEL,0.94,-0.38,10.21,$ALT,770.10,-225.02

||||||||||||-35,6969,$GNRMC,190506.000,A,3$GNGGA,190507.000,3429.6953,N,11657.5501,W,2,18,0.58,867.5,M,-31.0,M,,*4E

||||||||||||-34,6969,$ACCEL,0.97,-0.37,10.21,$ALT,770.09,-225.02R

||||||||||||-34,6969,$GNRMC,190507.000,A,3429.6953,N,11655.026$GNGGA,190508.000,3429.6953,N,11657.5501,W,2,18,0.59,867.5,M,-31.0,M,,*40

||||||||||||-34,6969,$ACCEL,0.97,-0.37,10.21,$ALT,770.16,-225.03NGGA,190508.000,3429.6953,N,11657.5501,W,2,18,0.59,867.5,M,-31.0,M,,*40

||||||||||||-35,6969,$GNRMC,1900435,,2,10.21,$ALT,770.16,-225.03NGGA,190508.000,3429.6953,N,11657.5501,W,2,18,0.59,867.5,M,-31.0,M,,*40

||||||||||||-35,6969,$ACCEL,0.95,-0.37,10.21,$ALT,770.13,-225.03NGGA,190508.000,3429.6953,N,11657.5501,W,2,18,0.59,867.5,M,-31.0,M,,*40

||||||||||||-35,6969,$GNGGA,190509.000,3429.6953,N,11657.5501,W,2,18,0.58,867.5,M,-31.0,M,,*4057.5501,W,2,18,0.59,867.5,M,-31.0,M,,*40

||||||||||||-35,6969,$ACCEL,0.95,-0.38,10.20,$ALT,770.10,-225.02R

||||||||||||-34,6969,$GNRMC,190509.000,9100,24$GNGGA,190510.000,3429.6953,N,11657.5502,W,2,18,0.58,867.4,M,-31.0,M,,*4A,

||||||||||||-34,6969,$ACCEL,0.95,-0.38,10.21,$ALT,770.07,-225.013429.6953,N,11657.5502,W,2,18,0.58,867.4,M,-31.0,M,,*4A,

||||||||||||-35,6969,$GNRMC,190510.000,9100020$GNGGA,190511.000,3429.6953,N,11657.5502,W,2,18,0.58,867.3,M,-31.0,M,,*4C,

||||||||||||-34,6969,$ACCEL,0.95,-0.39,10.21,$ALT,769.84,-224.963429.6953,N,11657.5502,W,2,18,0.58,867.3,M,-31.0,M,,*4C,

||||||||||||-34,6969,$GNRMC,190511.000A615.026$GNGGA,190512.000,3429.6954,N,11657.5502,W,2,18,0.59,867.3,M,C1A6150026$GNGGA,190513.000,342

||||||||||||-35,6969,$ACCEL,0.96,-0.39,10.21,$ALT,769.85,-224.97

||||||||||||-34,6969,$GNRMC,190513.000,A,3425601,,$GNGGA,190514.000,3429.6954,N,11657.5503,W,2,18,0.59,867.2,M,-31.0,M,,*4FB

||||||||||||-34,6969,$ACCEL,0.94,-0.39,10.21,$ALT,770.03,-225.01R

||||||||||||-34,6969,$GNRMC,190514.00A6,50026$GNGGA,190515.000,3429.6954,N,11657.5503,W,2,18,0.58,867.2,M,-31.0,M,,*4F

||||||||||||-35,6969,$ACCEL,0.95,-0.38,10.20,$ALT,770.06,-225.01429.6954,N,11657.5503,W,2,18,0.58,867.2,M,-31.0,M,,*4F

||||||||||||-35,6969,$GNRMC,190515.000A.,5002*$GNGGA,190516.000,3429.6954,N,11657.5503,W,2,18,0.59,867.2,M,-31.0,M,,*4D`

||||||||||||-34,6969,$ACCEL,0.95,-0.39,10.22,$ALT,770.08,-225.023429.6954,N,11657.5503,W,2,18,0.59,867.2,M,-31.0,M,,*4D`

||||||||||||-34,6969,$GNRMC,190516.000,A,3429.6954,N,11657.5503,W,$GNGGA,190517.000,3429.6954,N,11657.5504,W,2,18,0.59,867.2,M,-31.0,M,,*4B 

||||||||||||-34,6969,$ACCEL,0.95,-0.39,10.21,$ALT,770.15,-225.03W,$GNGGA,190517.000,3429.6954,N,11657.5504,W,2,18,0.59,867.2,M,-31.0,M,,*4B 

||||||||||||-34,6969,$GNRMC,190517.000,A,3429.6954,$GNGGA,190518.000,3429.6955,N,11657.5504,W,2,18,0.58,867.2,M,-31.0,M,,*44M,-31.0,M,,*4B 

||||||||||||-34,6969,$ACCEL,0.96,-0.38,10.20,$ALT,770.15,-225.02.000,3429.6955,N,11657.5504,W,2,18,0.58,867.2,M,-31.0,M,,*44M,-31.0,M,,*4B 

||||||||||||-37,6969,$GNRMC,190518.000,A,3429$GNGGA,190519.000,3429.6955,N,11657.5505,W,2,18,0.59,867.2,M,-31.0,M,,*45

||||||||||||-43,6969,$ACCEL,0.80,-0.37,10.22,$ALT,770.12,-225.02429.6955,N,11657.5505,W,2,18,0.59,867.2,M,-31.0,M,,*45

||||||||||||-43,6969,$GNRMC,190519.000,A,3429.$GNGGA,190520.000,3429.6956,N,11657.5505,W,2,18,0.58,867.2,M,-31.0,M,,*4D`

||||||||||||-43,6969,$ACCEL,0.79,-0.42,10.23,$ALT,770.16,-225.03R

||||||||||||-43,6969,$GNRMC,190520.000,A,3429.695,5,,2,$GNGGA,190521.000,3429.6956,N,11657.5505,W,2,18,0.59,867.1,M,-31.0,M,,*4E

||||||||||||-42,6969,$ACCEL,0.79,-0.42,10.22,$ALT,770.18,-225.050521.000,3429.6956,N,11657.5505,W,2,18,0.59,867.1,M,-31.0,M,,*4E

||||||||||||-43,6969,$GNRMC,190521,615.026$GNGGA,190522.000,3429.6956,N,11657.5504,W,2,18,0.59,867.0,M,-31.0,M,,*4D

||||||||||||-42,6969,$ACCEL,0.79,-0.41,10.22,$ALT,770.18,-225.06.6956,N,11657.5504,W,2,18,0.59,867.0,M,-31.0,M,,*4D

||||||||||||-43,6969,$GNRMC,190522.0039101,,B$GNGGA,190523.000,3429.6956,N,11657.5505,W,2,18,0.58,866.9,M,-31.0,M,,*44

||||||||||||-42,6969,$ACCEL,0.80,-0.41,10.22,$ALT,770.17,-225.08

||||||||||||-42,6969,$GNRMC,190523.000,2,7W00,$GNGGA,190524.000,3429.6955,N,11657.5504,W,2,18,0.59,866.9,M,-31.0,M,,*40`

||||||||||||-43,6969,$ACCEL,0.78,-0.40,10.23,$ALT,770.17,-225.103429.6955,N,11657.5504,W,2,18,0.59,866.9,M,-31.0,M,,*40`

||||||||||||-42,6969,$GNRMC,190524.00035648,,$GNGGA,190525.000,3429.6955,N,11657.5504,W,2,18,0.58,866.9,M,-31.0,M,,*40`

||||||||||||-42,6969,$ACCEL,0.80,-0.40,10.23,$ALT,770.17,-225.11

||||||||||||-43,6969,$GNRMC,190525.,9100,27$GNGGA,190526.000,3429.6955,N,11657.5504,W,2,18,0.59,866.9,M,-31.0,M,,*42

||||||||||||-43,6969,$ACCEL,0.79,-0.40,10.23,$ALT,770.13,-225.10

||||||||||||-42,6969,$GNRMC,190526.000,.,5,.3*$GNGGA,190527.000,3429.6954,N,11657.5504,W,2,18,0.59,866.9,M,-31.0,M,,*42`

||||||||||||-41,6969,$ACCEL,0.79,-0.41,10.24,$ALT,770.14,-225.12

||||||||||||-43,6969,$GNRMC,190527.00,.,5,.3*$GNGGA,190528.000,3429.6954,N,11657.5504,W,2,18,0.59,866.9,M,-31.0,M,,*4D

||||||||||||-42,6969,$ACCEL,0.79,-0.40,10.22,$ALT,770.18,-225.14429.6954,N,11657.5504,W,2,18,0.59,866.9,M,-31.0,M,,*4D

||||||||||||-42,6969,$GNRMC,190528.0002,7W00,$GNGGA,190529.000,3429.6954,N,11657.5504,W,2,18,0.59,866.8,M,-31.0,M,,*4D

||||||||||||-43,6969,$ACCEL,0.78,-0.42,10.21,$ALT,770.19,-225.10429.6954,N,11657.5504,W,2,18,0.59,866.8,M,-31.0,M,,*4D

||||||||||||-43,6969,$GNRMC,190529.0009N.,00D$GNGGA,190530.000,3429.6954,N,11657.5504,W,2,18,0.59,866.8,M,-31.0,M,,*45

||||||||||||-42,6969,$ACCEL,0.79,-0.41,10.21,$ALT,770.23,-225.09429.6954,N,11657.5504,W,2,18,0.59,866.8,M,-31.0,M,,*45

||||||||||||-42,6969,$GNRMC,190530.000,A35645,,$GNGGA,190531.000,3429.6954,N,11657.5504,W,2,18,0.58,866.7,M,-31.0,M,,*4A

||||||||||||-43,6969,$ACCEL,0.79,-0.41,10.21,$ALT,770.22,-225.090,3429.6954,N,11657.5504,W,2,18,0.58,866.7,M,-31.0,M,,*4A

||||||||||||-43,6969,$GNRMC,190531.09N.,00D$GNGGA,190532.000,3429.6955,N,11657.5504,W,2,18,0.59,866.7,M,-31.0,M,,*49,*4A

||||||||||||-42,6969,$ACCEL,0.79,-0.41,10.20,$ALT,770.19,-225.089.6955,N,11657.5504,W,2,18,0.59,866.7,M,-31.0,M,,*49,*4A

||||||||||||-42,6969,$GNRMC,190532.000,39100,,F$GNGGA,190533.000,3429.6955,N,11657.5505,W,2,18,0.59,866.7,M,-31.0,M,,*49

||||||||||||-43,6969,$ACCEL,0.79,-0.41,10.20,$ALT,770.24,-225.07,3429.6955,N,11657.5505,W,2,18,0.59,866.7,M,-31.0,M,,*49

||||||||||||-43,6969,$GNRMC,190533.000255,,2,$ALT,770.24,-22

||||||||||||-42,6969,$ACCEL,0.79,-0.41,10.19,$ALT,770.22,-225.08

||||||||||||-43,6969,$GNRMC,190534.000,2,5,,2,$GNGGA,190535.000,3429.6955,N,11657.5505,W,2,18,0.58,866.5,M,-31.0,M,,*4C`

||||||||||||-44,6969,$ACCEL,0.79,-0.41,10.22,$ALT,770.22,-225.103429.6955,N,11657.5505,W,2,18,0.58,866.5,M,-31.0,M,,*4C`

||||||||||||-43,6969,$GNRMC,190535.000,910.029$GNGGA,190536.000,3429.6955,N,11657.5505,W,2,18,0.58,866.4,M,-31.0,M,,*4E,

||||||||||||-43,6969,$ACCEL,0.79,-0.42,10.21,$ALT,770.19,-225.103429.6955,N,11657.5505,W,2,18,0.58,866.4,M,-31.0,M,,*4E,

||||||||||||-43,6969,$GNRMC,190536.000,910.025$GNGGA,190537.000,3429.6954,N,11657.5505,W,2,18,0.59,866.3,M,-3,8M3A6150026$GNGGA,190538.000,

||||||||||||-43,6969,$ACCEL,0.79,-0.41,10.23,$ALT,770.19,-225.09

||||||||||||-43,6969,$GNRMC,190538.000,A,34.,50.3*$GNGGA,190539.000,3429.6954,N,11657.5506,W,2,18,0.59,866.2,M,-31.0,M,,*44@B

||||||||||||-42,6969,$ACCEL,0.80,-0.40,10.22,$ALT,770.20,-225.10

||||||||||||-43,6969,$GNRMC,190539.0039101,,0$GNGGA,190540.000,3429.6953,N,11657.5506,W,2,18,0.59,866.1,M,-31.0,M,,*4E

||||||||||||-43,6969,$ACCEL,0.79,-0.40,10.21,$ALT,770.21,-225.10

||||||||||||-43,6969,$GNRMC,190540.00,615.026$GNGGA,190541.000,3429.6953,N,11657.5506,W,2,17,0.61,866.0,M,-31.0,M,,*4A

||||||||||||-43,6969,$ACCEL,0.80,-0.41,10.22,$ALT,770.20,-225.10429.6953,N,11657.5506,W,2,17,0.61,866.0,M,-31.0,M,,*4A

||||||||||||-42,6969,$GNRMC,190541.000,A,3429.6953,N,11657.5506,W,0.$GNGGA,190542.000,3429.6953,N,11657.5506,W,2,18,0.59,866.0,M,-31.0,M,,*

||||||||||||-44,6969,$ACCEL,0.79,-0.41,10.22,$ALT,770.22,-225.08W,0.$GNGGA,190542.000,3429.6953,N,11657.5506,W,2,18,0.59,866.0,M,-31.0,M,,*

||||||||||||-43,6969,$GNRMC,190542.000,A,3429.6953$GNGGA,190543.000,3429.6952,N,11657.5506,W,2,18,0.59,866.0,M,-31.0,M,,*4D.0,M,-31.0,M,,*

||||||||||||-43,6969,$ACCEL,0.79,-0.39,10.22,$ALT,770.21,-225.08000,3429.6952,N,11657.5506,W,2,18,0.59,866.0,M,-31.0,M,,*4D.0,M,-31.0,M,,*

||||||||||||-43,6969,$GNRMC,190543.000,A,3429$GNGGA,190544.000,3429.6952,N,11657.5506,W,2,18,0.59,866.0,M,-31.0,M,,*4A

||||||||||||-42,6969,$ACCEL,0.79,-0.40,10.21,$ALT,770.23,-225.09429.6952,N,11657.5506,W,2,18,0.59,866.0,M,-31.0,M,,*4A

||||||||||||-43,6969,$GNRMC,190544.000,A,3429$GNGGA,190545.000,3429.6951,N,11657.5506,W,2,18,0.59,866.0,M,-31.0,M,,*48

||||||||||||-43,6969,$ACCEL,0.78,-0.40,10.21,$ALT,770.30,-225.11429.6951,N,11657.5506,W,2,18,0.59,866.0,M,-31.0,M,,*48

||||||||||||-42,6969,$GNRMC,190545.000,A,3429.695,.,.3*$GNGGA,190546.000,3429.6950,N,11657.5506,W,2,18,0.59,865.9,M,-31.0,M,,*40

||||||||||||-43,6969,$ACCEL,0.78,-0.42,10.22,$ALT,770.29,-225.11

||||||||||||-43,6969,$GNRMC,190546A615.026$GNGGA,190547.000,3429.6950,N,11657.5506,W,2,18,0.59,865.9,M,-31.0,M,,*41

||||||||||||-43,6969,$ACCEL,0.76,-0.40,9.97,$ALT,770.25,-225.099.6950,N,11657.5506,W,2,18,0.59,865.9,M,-31.0,M,,*41

||||||||||||-40,6969,$GNRMC,190547.009N.,.0D$GNGGA,190548.000,3429.6949,N,11657.5506,W,2,18,0.59,865.9,M,-31.0,M,,*46

||||||||||||-43,6969,$ACCEL,0.77,-0.41,10.22,$ALT,770.34,-225.10

||||||||||||-42,6969,$GNRMC,190548.000A.,5002*$GNGGA,190549.000,3429.6949,N,11657.5506,W,2,18,0.59,865.9,M,-31.0,M,,*47`

||||||||||||-43,6969,$ACCEL,0.79,-0.41,10.22,$ALT,770.27,-225.09

||||||||||||-43,6969,$GNRMC,190549.00,9N.,.3D$GNGGA,190550.000,3429.6949,N,11657.5506,W,2,18,0.59,865.9,M,-31.0,M,,*4F

||||||||||||-43,6969,$ACCEL,0.79,-0.41,10.20,$ALT,770.22,-225.09429.6949,N,11657.5506,W,2,18,0.59,865.9,M,-31.0,M,,*4F

||||||||||||-43,6969,$GNRMC,190550.0A6150026$GNGGA,190551.000,3429.6948,N,11657.5506,W,2,18,0.59,865.9,M,-31.0,M,,*4F

||||||||||||-44,6969,$ACCEL,0.79,-0.41,10.22,$ALT,770.26,-225.1129.6948,N,11657.5506,W,2,18,0.59,865.9,M,-31.0,M,,*4F

||||||||||||-43,6969,$GNRMC,190551.000A615.026$GNGGA,190552.000,3429.6948,N,11657.5506,W,2,18,0.59,865.9,M,-31.0,M,,*4C`

||||||||||||-44,6969,$ACCEL,0.78,-0.42,10.22,$ALT,770.20,-225.103429.6948,N,11657.5506,W,2,18,0.59,865.9,M,-31.0,M,,*4C`

||||||||||||-44,6969,$GNRMC,190552.000,34660,,$GNGGA,190553.000,3429.6948,N,11657.5506,W,2,18,0.59,865.9,M,-31.0,M,,*4D

||||||||||||-43,6969,$ACCEL,0.77,-0.41,10.22,$ALT,770.18,-225.09R

||||||||||||-43,6969,$GNRMC,190553.0034660,,$GNGGA,190554.000,3429.6948,N,11657.5505,W,2,18,0.59,865.9,M,-31.0,M,,*49

||||||||||||-43,6969,$ACCEL,0.79,-0.42,10.23,$ALT,770.15,-225.09R

||||||||||||-43,6969,$GNRMC,190554.00,615.026$GNGGA,190555.000,3429.6948,N,11657.5505,W,2,18,0.59,865.8,M,-31.0,M,,*49

||||||||||||-43,6969,$ACCEL,0.78,-0.41,10.22,$ALT,770.17,-225.10

||||||||||||-43,6969,$GNRMC,190555.000,,9100022$GNGGA,190556.000,3429.6949,N,11657.5505,W,2,18,0.59,865.8,M,-31.0,M,,*4B

||||||||||||-44,6969,$ACCEL,0.79,-0.41,10.21,$ALT,770.16,-225.10,3429.6949,N,11657.5505,W,2,18,0.59,865.8,M,-31.0,M,,*4B

||||||||||||-43,6969,$GNRMC,190556.00295,,2,$GNGGA,190557.000,3429.6949,N,11657.5505,W,2,18,0.59,865.8,M,-31.0,M,,*4A

||||||||||||-44,6969,$ACCEL,0.78,-0.41,10.23,$ALT,770.15,-225.1029.6949,N,11657.5505,W,2,18,0.59,865.8,M,-31.0,M,,*4A

||||||||||||-44,6969,$GNRMC,190557.000,.,50.3*$GNGGA,190558.000,3429.6950,N,11657.5505,W,2,18,0.59,865.8,M,-31.0,M,,*4D,

||||||||||||-43,6969,$ACCEL,0.78,-0.42,10.23,$ALT,770.17,-225.11R

||||||||||||-43,6969,$GNRMC,190558.000A615.026$GNGGA,190559.000,3429.6950,N,11657.5505,W,2,18,0.59,865.8,M,-31.0,M,,*4C,

||||||||||||-43,6969,$ACCEL,0.78,-0.41,10.21,$ALT,770.22,-225.143429.6950,N,11657.5505,W,2,18,0.59,865.8,M,-31.0,M,,*4C,

||||||||||||-44,6969,$GNRMC,190559.0035100,,$GNGGA,190600.000,3429.6950,N,11657.5505,W,2,18,0.59,865.8,M,-31.0,M,,*43

||||||||||||-43,6969,$ACCEL,0.78,-0.41,10.21,$ALT,770.28,-225.14

||||||||||||-42,6969,$GNRMC,190600.000205,,2,$ALT,770.28,-225.14

||||||||||||-43,6969,$ACCEL,0.79,-0.41,10.22,$ALT,770.20,-225.12

||||||||||||-42,6969,$GNRMC,190601.000,2,7W00,$GNGGA,190602.000,3429.6950,N,11657.5506,W,2,18,0.59,865.8,M,-31.0,M,,*42`

||||||||||||-44,6969,$ACCEL,0.79,-0.41,10.22,$ALT,770.16,-225.153429.6950,N,11657.5506,W,2,18,0.59,865.8,M,-31.0,M,,*42`

||||||||||||-43,6969,$GNRMC,190602.00,9100,2A$GNGGA,190603.000,3429.6950,N,11657.5506,W,2,18,0.59,865.8,M,-31.0,M,,*43`

||||||||||||-43,6969,$ACCEL,0.78,-0.42,10.21,$ALT,770.30,-225.17429.6950,N,11657.5506,W,2,18,0.59,865.8,M,-31.0,M,,*43`

||||||||||||-42,6969,$GNRMC,190603.0009,7W00D$GNGGA,190604.000,3429.6950,N,11657.5506,W,2,18,0.59,865.8,M,-304M0A.,5003*$GNGGA,190605.000,3 

||||||||||||-43,6969,$ACCEL,0.79,-0.41,10.22,$ALT,770.30,-225.17429.6950,N,11657.5506,W,2,18,0.59,865.8,M,-304M0A.,5003*$GNGGA,190605.000,3 

||||||||||||-42,6969,$GNRMC,190605.000,A,345670,,$GNGGA,190606.000,3429.6950,N,11657.5507,W,2,18,0.59,865.8,M,-31.0,M,,*47@B

||||||||||||-43,6969,$ACCEL,0.79,-0.40,10.21,$ALT,770.33,-225.19

||||||||||||-43,6969,$GNRMC,190606.000,9100023$GNGGA,190607.000,3429.6950,N,11657.5507,W,2,18,0.59,865.8,M,-31.0,M,,*46`

||||||||||||-41,6969,$ACCEL,0.78,-0.41,10.18,$ALT,770.64,-225.283429.6950,N,11657.5507,W,2,18,0.59,865.8,M,-31.0,M,,*46`

||||||||||||-42,6969,$GNRMC,190607.00,9N.,.0D$GNGGA,190608.000,3429.6950,N,11657.5508,W,2,18,0.59,865.8,M,-31.0,M,,*46`

||||||||||||-43,6969,$ACCEL,0.79,-0.40,10.19,$ALT,770.38,-225.18429.6950,N,11657.5508,W,2,18,0.59,865.8,M,-31.0,M,,*46`

||||||||||||-43,6969,$GNRMC,190608.000,A,3429.6950,N,11657.5508,W,0$GNGGA,190609.000,3429.6950,N,11657.5509,W,2,18,0.59,865.8,M,-31.0,M,,*4 

||||||||||||-42,6969,$ACCEL,0.78,-0.41,10.19,$ALT,770.33,-225.14W,0$GNGGA,190609.000,3429.6950,N,11657.5509,W,2,18,0.59,865.8,M,-31.0,M,,*4 

||||||||||||-43,6969,$GNRMC,190609.000,A,3429.6950$GNGGA,190610.000,3429.6950,N,11657.5509,W,2,18,0.59,865.8,M,-31.0,M,,*4E@B

||||||||||||-43,6969,$ACCEL,0.78,-0.40,10.21,$ALT,770.23,-225.11000,3429.6950,N,11657.5509,W,2,18,0.59,865.8,M,-31.0,M,,*4E@B

||||||||||||-43,6969,$GNRMC,190610.000,A,3429.$GNGGA,190611.000,3429.6950,N,11657.5509,W,2,18,0.59,865.8,M,-31.0,M,,*4F*4E@B

||||||||||||-43,6969,$ACCEL,0.80,-0.41,10.20,$ALT,770.26,-225.123429.6950,N,11657.5509,W,2,18,0.59,865.8,M,-31.0,M,,*4F*4E@B

||||||||||||-43,6969,$GNRMC,190611.000,A,3429$GNGGA,190612.000,3429.6950,N,11657.5509,W,2,18,0.59,865.8,M,-31.0,M,,*4C

||||||||||||-43,6969,$ACCEL,0.79,-0.42,10.21,$ALT,770.23,-225.12429.6950,N,11657.5509,W,2,18,0.59,865.8,M,-31.0,M,,*4C

||||||||||||-43,6969,$GNRMC,190612.000,A,3429.6950697,,$GNGGA,190613.000,3429.6950,N,11657.5509,W,2,18,0.59,865.8,M,-31.0,M,,*4D

||||||||||||-43,6969,$ACCEL,0.79,-0.41,10.20,$ALT,770.27,-225.13

||||||||||||-43,6969,$GNRMC,190613,9100029$GNGGA,190614.000,3429.6950,N,11657.5509,W,2,18,0.59,865.8,M,-31.0,M,,*4A

||||||||||||-43,6969,$ACCEL,0.79,-0.41,10.19,$ALT,770.32,-225.15.6950,N,11657.5509,W,2,18,0.59,865.8,M,-31.0,M,,*4A

||||||||||||-42,6969,$GNRMC,190614.0002,7W,2,$GNGGA,190615.000,3429.6950,N,11657.5509,W,2,18,0.59,865.8,M,-31.0,M,,*4B

||||||||||||-43,6969,$ACCEL,0.79,-0.41,10.19,$ALT,770.29,-225.13429.6950,N,11657.5509,W,2,18,0.59,865.8,M,-31.0,M,,*4B

||||||||||||-42,6969,$GNRMC,190615.000405,81,$ALT,770.29,-225.13429.6950,N,11657.5509,W,2,18,0.59,865.8,M,-31.0,M,,*4B

||||||||||||-43,6969,$ACCEL,0.79,-0.40,10.20,$ALT,770.30,-225.13429.6950,N,11657.5509,W,2,18,0.59,865.8,M,-31.0,M,,*4B

||||||||||||-43,6969,$GNRMC,190616.00,.N.,.3D$GNGGA,190617.000,3429.6950,N,11657.5510,W,2,18,0.59,865.8,M,-31.0,M,,*41

||||||||||||-43,6969,$ACCEL,0.79,-0.41,10.18,$ALT,770.37,-225.14429.6950,N,11657.5510,W,2,18,0.59,865.8,M,-31.0,M,,*41

||||||||||||-43,6969,$GNRMC,190617.0205,,2,8,$ALT,770.37,-225.14429.6950,N,11657.5510,W,2,18,0.59,865.8,M,-31.0,M,,*41

||||||||||||-43,6969,$ACCEL,0.78,-0.42,10.20,$ALT,770.38,-225.15429.6950,N,11657.5510,W,2,18,0.59,865.8,M,-31.0,M,,*41

||||||||||||-43,6969,$GNGGA,190618.000,3429.6950,N,11657.5510,W,2,18,0.59,865.8,M,-31.0,M,,*4E59,865.8,M,-31.0,M,,*41

||||||||||||-43,6969,$ACCEL,0.79,-0.41,10.19,$ALT,770.49,-225.16

||||||||||||-43,6969,$GNRMC,190618.0002,5,,2,$GNGGA,190619.000,3429.6950,N,11657.5510,W,2,18,0.59,865.8,M,-3,FM1A6150026$GNGGA,190620.000,3

||||||||||||-43,6969,$ACCEL,0.79,-0.40,10.19,$ALT,770.43,-225.13429.6950,N,11657.5510,W,2,18,0.59,865.8,M,-3,FM1A6150026$GNGGA,190620.000,3

||||||||||||-42,6969,$GNRMC,190620.000,A,349N.,.3D$GNGGA,190621.000,3429.6950,N,11657.5511,W,2,18,0.59,865.8,M,-31.0,M,,*,00D$GNGGA,190622.

||||||||||||-43,6969,$ACCEL,0.78,-0.41,10.19,$ALT,770.47,-225.14000,3429.6950,N,11657.5511,W,2,18,0.59,865.8,M,-31.0,M,,*,00D$GNGGA,190622.

||||||||||||-42,6969,$GNRMC,190622.000,A,349110,,E$GNGGA,190623.000,3429.6950,N,11657.5512,W,2,18,0.59,865.8,M,-31.0,M,,*44

||||||||||||-43,6969,$ACCEL,0.79,-0.41,10.17,$ALT,770.55,-225.14000,3429.6950,N,11657.5512,W,2,18,0.59,865.8,M,-31.0,M,,*44

||||||||||||-42,6969,$GNRMC,190623.000,A,3429.6950,N,11657.5512,W,0.04,0.00,120322,,,D$GNGGA,190624.000,3429.6951,N,11657.5512,W,2,18,0.59, 

||||||||||||-43,6969,$ACCEL,0.79,-0.41,10.17,$ALT,770.43,-225.11R

||||||||||||-42,6969,$GNRMC,190620356241,$GNGGA,190625.000,3429.6951,N,11657.5512,W,2,18,0.59,865.8,M,-31.0,M,,*43

||||||||||||-43,6969,$ACCEL,0.78,-0.42,10.19,$ALT,770.40,-225.11.6951,N,11657.5512,W,2,18,0.59,865.8,M,-31.0,M,,*43

||||||||||||-43,6969,$GNRMC,190625,915.02A$GNGGA,190626.000,3429.6951,N,11657.5512,W,2,18,0.59,865.8,M,-31.0,M,,*40

||||||||||||-43,6969,$ACCEL,0.79,-0.42,10.18,$ALT,770.43,-225.10.6951,N,11657.5512,W,2,18,0.59,865.8,M,-31.0,M,,*40

||||||||||||-43,6969,$GNRMC,190626.00016251,,$ALT,770.43,-225.10.6951,N,11657.5512,W,2,18,0.59,865.8,M,-31.0,M,,*40

||||||||||||-43,6969,$ACCEL,0.79,-0.42,10.18,$ALT,770.52,-225.13.6951,N,11657.5512,W,2,18,0.59,865.8,M,-31.0,M,,*40

||||||||||||-42,6969,$GNGGA,190627.000,3429.6951,N,11657.5512,W,2,18,0.59,865.9,M,-31.0,M,,*40

||||||||||||-43,6969,$ACCEL,0.78,-0.41,10.18,$ALT,770.39,-225.07R

||||||||||||-42,6969,$GNRMC,190627.000,A,3429.6951,N,11657.5512,W,0.07,0.00,120$GNGGA,190628.000,3429.6950,N,11657.5512,W,2,18,0.59,865.9,M 

||||||||||||-42,6969,$ACCEL,0.80,-0.40,10.18,$ALT,770.39,-225.06W,0.07,0.00,120$GNGGA,190628.000,3429.6950,N,11657.5512,W,2,18,0.59,865.9,M 

||||||||||||-43,6969,$GNRMC,190628.000,A,2$GNGGA,190629.000,3429.6950,N,11657.5512,W,2,18,0.59,866.0,M,-31.0,M,,*45512,W,2,18,0.59,865.9,M 

||||||||||||-43,6969,$ACCEL,0.79,-0.41,10.20,$ALT,770.32,-225.04.6950,N,11657.5512,W,2,18,0.59,866.0,M,-31.0,M,,*45512,W,2,18,0.59,865.9,M 

||||||||||||-43,6969,$GNRMC,190629.000,A,3$GNGGA,190630.000,3429.6951,N,11657.5512,W,2,18,0.59,866.0,M,-31.0,M,,*4C512,W,2,18,0.59,865.9,M 

||||||||||||-43,6969,$ACCEL,0.78,-0.41,10.20,$ALT,770.44,-225.07.6951,N,11657.5512,W,2,18,0.59,866.0,M,-31.0,M,,*4C512,W,2,18,0.59,865.9,M 

||||||||||||-42,6969,$,.35620,,$GNGGA,190631.000,3429.6950,N,11657.5512,W,2,18,0.59,866.0,M,-31.0,M,,*4C

||||||||||||-43,6969,$ACCEL,0.78,-0.41,10.19,$ALT,770.51,-225.09

||||||||||||-43,6969,$GNRMC,190631.000,A,349N7W00D$GNGGA,190632.000,3429.6951,N,11657.5512,W,2,18,0.59,866.1,M,-31.0,M,,*4F

||||||||||||-43,6969,$ACCEL,0.78,-0.42,10.17,$ALT,770.42,-225.04R

||||||||||||-43,6969,$GNRMC,19063.,9110,2E$GNGGA,190633.000,3429.6951,N,11657.5512,W,2,18,0.59,866.1,M,-31.0,M,,*4E

||||||||||||-42,6969,$ACCEL,0.78,-0.41,10.18,$ALT,770.48,-225.06.6951,N,11657.5512,W,2,18,0.59,866.1,M,-31.0,M,,*4E

||||||||||||-42,6969,$GNRMC,190633.000A615.026$GNGGA,190634.000,3429.6952,N,11657.5512,W,2,18,0.59,866.1,M,-31.0,M,,*4A,

||||||||||||-42,6969,$ACCEL,0.79,-0.41,10.18,$ALT,770.43,-225.063429.6952,N,11657.5512,W,2,18,0.59,866.1,M,-31.0,M,,*4A,

||||||||||||-43,6969,$GNRMC,190634.000,9N.W00D$GNGGA,190635.000,3429.6952,N,11657.5512,W,2,18,0.59,866.1,M,-31.0,M,,*4B`

||||||||||||-43,6969,$ACCEL,0.79,-0.42,10.17,$ALT,770.46,-225.023429.6952,N,11657.5512,W,2,18,0.59,866.1,M,-31.0,M,,*4B`

||||||||||||-42,6969,$GNRMC,190635.000,A,2,7,,2,$GNGGA,190636.000,3429.6953,N,11657.5512,W,2,18,0.59,866.1,M,-31.0,M,,*49

||||||||||||-43,6969,$ACCEL,0.78,-0.42,10.18,$ALT,770.54,-225.03

||||||||||||-43,6969,$GNRMC,190636.00,.,5003*$GNGGA,190637.000,3429.6953,N,11657.5512,W,2,18,0.59,866.1,M,-31.0,M,,*48

||||||||||||-42,6969,$ACCEL,0.78,-0.41,10.17,$ALT,770.48,-225.04429.6953,N,11657.5512,W,2,18,0.59,866.1,M,-31.0,M,,*48

||||||||||||-42,6969,$GNRMC,190637.000,356271,$GNGGA,190638.000,3429.6954,N,11657.5512,W,2,18,0.59,866.1,M,-31.0,M,,*40

||||||||||||-42,6969,$ACCEL,0.78,-0.41,10.17,$ALT,770.54,-225.05,3429.6954,N,11657.5512,W,2,18,0.59,866.1,M,-31.0,M,,*40

||||||||||||-43,6969,$GNRMC,190638.00356271,$GNGGA,190639.000,3429.6954,N,11657.5511,W,2,18,0.59,866.1,M,-31.0,M,,*420

||||||||||||-42,6969,$ACCEL,0.78,-0.41,10.18,$ALT,770.38,-225.00429.6954,N,11657.5511,W,2,18,0.59,866.1,M,-31.0,M,,*420

||||||||||||-43,6969,$GNRMC,190639.000356161,$GNGGA,190640.000,3429.6955,N,11657.5512,W,2,18,0.59,866.1,M,-31.0,M,,*4E

||||||||||||-43,6969,$ACCEL,0.79,-0.41,10.20,$ALT,770.41,-225.033429.6955,N,11657.5512,W,2,18,0.59,866.1,M,-31.0,M,,*4E

||||||||||||-42,6969,$GNRMC,190640.00A615.026$GNGGA,190641.000,3429.6955,N,11657.5512,W,2,18,0.59,866.0,M,-31.0,M,,*4E

||||||||||||-42,6969,$ACCEL,0.78,-0.41,10.18,$ALT,770.77,-225.11

||||||||||||-43,6969,$GNRMC,190641.00,.,.,.3*$GNGGA,190642.000,3429.6956,N,11657.5515,W,2,18,0.59,866.2,M,-31.0,M,,*4B

||||||||||||-43,6969,$ACCEL,0.80,-0.40,10.18,$ALT,770.53,-225.03429.6956,N,11657.5515,W,2,18,0.59,866.2,M,-31.0,M,,*4B

||||||||||||-43,6969,$GNRMC,190642.0002,7W,2,$GNGGA,190643.000,3429.6956,N,11657.5517,W,2,18,0.59,866.3,M,-31.0,M,,*49

||||||||||||-42,6969,$ACCEL,0.79,-0.41,10.16,$ALT,770.41,-224.98429.6956,N,11657.5517,W,2,18,0.59,866.3,M,-31.0,M,,*49

||||||||||||-43,6969,$GNRMC,190643.000,.,50.3*$GNGGA,190644.000,3429.6957,N,11657.5520,W,2,18,0.59,866.4,M,-31.0,M,,*4C`

||||||||||||-42,6969,$ACCEL,0.79,-0.41,10.20,$ALT,770.39,-224.96R

||||||||||||-43,6969,$GNRMC,190644.0002,7W02,$GNGGA,190645.000,3429.6958,N,11657.5523,W,2,18,0.59,866.4,M,-31.0,M,,*41

||||||||||||-42,6969,$ACCEL,0.79,-0.41,10.20,$ALT,770.42,-224.97R

||||||||||||-43,6969,$GNRMC,190645.000,285,,2,

||||||||||||-43,6969,$ACCEL,0.79,-0.41,10.16,$ALT,770.35,-224.95R

||||||||||||-43,6969,$GNGGA,190646.000,3429.6958,N,11657.5525,W,2,18,0.59,866.5,M,-31.0,M,,*45

||||||||||||-40,6969,$ACCEL,0.79,-0.41,10.17,$ALT,770.50,-224.992,18,0.59,866.5,M,-31.0,M,,*45

||||||||||||-42,6969,$GNRMC,190646.009N7W00D$GNGGA,190647.000,3429.6958,N,11657.5527,W,2,18,0.59,866.6,M,-31.0,M,,*45

||||||||||||-42,6969,$ACCEL,0.79,-0.41,10.17,$ALT,770.45,-224.9729.6958,N,11657.5527,W,2,18,0.59,866.6,M,-31.0,M,,*45

||||||||||||-43,6969,$GNRMC,190647.0002,7,,2,$GNGGA,190648.000,3429.6958,N,11657.5528,W,2,18,0.59,866.6,M,-31.0,M,,*45

||||||||||||-43,6969,$ACCEL,0.79,-0.41,10.20,$ALT,770.41,-224.96429.6958,N,11657.5528,W,2,18,0.59,866.6,M,-31.0,M,,*45

||||||||||||-43,6969,$GNRMC,190648.00035681,,$GNGGA,190649.000,3429.6957,N,11657.5529,W,2,18,0.59,866.6,M,-,B

||||||||||||-42,6969,$ACCEL,0.79,-0.42,10.18,$ALT,770.63,-225.023429.6957,N,11657.5529,W,2,18,0.59,866.6,M,-,B

||||||||||||-43,6969,,.35121,,$GNGGA,190650.000,3429.6957,N,11657.5531,W,2,18,0.59,866.7,M,-31.0,M,,*4AM,-,B

||||||||||||-42,6969,$ACCEL,0.79,-0.40,10.19,$ALT,770.26,-224.8757.5531,W,2,18,0.59,866.7,M,-31.0,M,,*4AM,-,B

||||||||||||-43,6969,$GNRMC,190650.000,A,34615.026$GNGGA,190651.000,3429.6957,N,11657.5533,W,2,18,0.59,866.7,M,-31.0,M,,*49@B

||||||||||||-39,6969,$ACCEL,0.78,-0.45,10.20,$ALT,770.44,-224.92000,3429.6957,N,11657.5533,W,2,18,0.59,866.7,M,-31.0,M,,*49@B

||||||||||||-39,6969,$GNRMC,190651.000,.,5003*$GNGGA,190652.000,3429.6957,N,11657.5535,W,2,18,0.59,866.7,M,-31.0,M,,*4C`

||||||||||||-40,6969,$ACCEL,0.91,-0.38,10.07,$ALT,770.40,-224.893429.6957,N,11657.5535,W,2,18,0.59,866.7,M,-31.0,M,,*4C`

||||||||||||-40,6969,$GNRMC,190652.00,.,5003*$GNGGA,190653.000,3429.6958,N,11657.5536,W,2,18,0.59,866.8,M,-31.0,M,,*4E

||||||||||||-40,6969,$ACCEL,0.81,-0.42,10.14,$ALT,770.55,-224.92

||||||||||||-40,6969,$GNRMC,190653.000,A,3.,5003*$GNGGA,190654.000,3429.6958,N,11657.5537,W,2,18,0.59,866.8,M,-31.0,M,,*48 @B

||||||||||||-39,6969,$ACCEL,0.81,-0.38,10.18,$ALT,770.62,-224.94

||||||||||||-39,6969,$GNRMC,190654.000,A35672,,$GNGGA,190655.000,3429.6957,N,11657.5538,W,2,18,0.59,866.7,M,-31.0,M,,*46

||||||||||||-40,6969,$ACCEL,0.81,-0.41,10.19,$ALT,770.50,-224.880,3429.6957,N,11657.5538,W,2,18,0.59,866.7,M,-31.0,M,,*46

||||||||||||-40,6969,$GNRMC,190655.000475811,$ALT,770.50,-22

||||||||||||-39,6969,$ACCEL,0.81,-0.41,10.19,$ALT,770.66,-224.94

||||||||||||-40,6969,$GNRMC,190656.002,5,,2,$GNGGA,190657.000,3429.6959,N,11657.5541,W,2,18,0.59,866.9,M,-31.0,M,,*4A

||||||||||||-40,6969,$ACCEL,0.81,-0.41,10.17,$ALT,770.52,-224.89R

||||||||||||-40,6969,$GNRMC,190657.000,915.027$GNGGA,190658.000,3429.6958,N,11657.5541,W,2,18,0.59,866.9,M,-31.0,M,,*44`

||||||||||||-38,6969,$ACCEL,0.82,-0.41,10.17,$ALT,770.39,-224.863429.6958,N,11657.5541,W,2,18,0.59,866.9,M,-31.0,M,,*44`

||||||||||||-37,6969,$GNRMC,190658.035610,,$GNGGA,190659.000,3429.6958,N,11657.5542,W,2,18,0.59,867.0,M,-.*N009N7W00D$GNGGA,190700.000,342 

||||||||||||-54,6969,$ACCEL,0.14,-0.06,10.45,$ALT,770.65,-224.92

||||||||||||-41,6969,$GNRMC,190700.000,A,3429140,24$GNGGA,190701.000,3429.6959,N,11657.5542,W,2,18,0.59,867.0,M,-31.0,M,,*43B

||||||||||||-48,6969,$ACCEL,0.14,-0.06,10.45,$ALT,770.82,-224.97

||||||||||||-48,6969,$GNRMC,190701.000,495,,1,ALT,770.82,-224.97

||||||||||||-38,6969,$ACCEL,0.18,-0.43,10.75,$ALT,770.77,-224.97

||||||||||||-36,6969,$GNRMC,190702.0A6150026$GNGGA,190703.000,3429.6959,N,11657.5542,W,2,18,0.59,867.0,M,-31.0,M,,*41

||||||||||||-38,6969,$ACCEL,0.04,3.16,9.63,$ALT,770.68,-225.023429.6959,N,11657.5542,W,2,18,0.59,867.0,M,-31.0,M,,*41

||||||||||||-37,6969,$GNRMC,190703.000,A,3429.6959,N,11657.5542,W,$GNGGA,190704.000,3429.6960,N,11657.5543,W,2,18,0.59,867.3,M,-31.0,M,,*4E 

||||||||||||-41,6969,$ACCEL,-0.42,-2.47,9.78,$ALT,770.61,-225.02W,$GNGGA,190704.000,3429.6960,N,11657.5543,W,2,18,0.59,867.3,M,-31.0,M,,*4E 

||||||||||||-41,6969,$GNRMC,190704.000,A,3429.6960,$GNGGA,190705.000,3429.6959,N,11657.5542,W,2,18,0.59,867.5,M,-31.0,M,,*42R7,9N.,.3D$GNG

||||||||||||-44,6969,$ACCEL,-2.00,-3.90,9.95,$ALT,770.78,-225.07

||||||||||||-45,6969,$GNRMC,190706.000,A,3429140021$GNGGA,190707.000,3429.6960,N,11657.5543,W,2,18,0.59,867.6,M,-31.0,M,,*48B

||||||||||||-43,6969,$ACCEL,-1.36,-1.45,10.53,$ALT,770.82,-225.10R

||||||||||||-44,6969,$GNRMC,190707.00039140,,A$GNGGA,190708.000,3429.6960,N,11657.5545,W,2,18,0.59,867.7,M,-31.0,M,,*40,

||||||||||||-45,6969,$ACCEL,-1.36,-1.45,10.53,$ALT,770.84,-225.10429.6960,N,11657.5545,W,2,18,0.59,867.7,M,-31.0,M,,*40,

||||||||||||-45,6969,$GNRMC,190700205,,2,0.5

||||||||||||-51,6969,$ACCEL,1.00,1.30,10.14,$ALT,771.23,-225.22

||||||||||||-49,6969,$GNGGA,190709.000,3429.6962,N,11657.5545,W,2,18,0.59,868.0,M,-31.0,M,,*4B

||||||||||||-52,6969,$ACCEL,-1.86,-1.06,8.49,$ALT,770.82,-225.082,18,0.59,868.0,M,-31.0,M,,*4B

||||||||||||-53,6969,$GNRMC,190709.000,A,3429.6962,N,11657.5545,W,0.0$GNGGA,190710.000,3429.6964,N,11657.5546,W,2,18,0.59,868.3,M,-31.0,M,,

||||||||||||-41,6969,$ACCEL,-2.95,-1.85,9.89,$ALT,770.78,-225.08R

||||||||||||-41,6969,$GNRMC,190710.000,A,3429.6964,$GNGGA,190711.000,3429.6964,N,11657.5546,W,2,18,0.59,868.5,M,-31.0,M,,*42

||||||||||||-29,6969,$ACCEL,-4.19,0.10,8.85,$ALT,770.27,-224.90

||||||||||||-29,6969,$GNRMC,190711.000,A,3429.$GNGGA,190712.000,3429.6964,N,11657.5547,W,2,18,0.59,868.6,M,-31.0,M,,*C2,915.029$GNGGA,1907

||||||||||||-29,6969,$ACCEL,0.37,1.44,9.82,$ALT,770.32,-224.910,3429.6964,N,11657.5547,W,2,18,0.59,868.6,M,-31.0,M,,*C2,915.029$GNGGA,1907

||||||||||||-29,6969,$GNRMC,190713.000,A,3429140,,E$GNGGA,190714.000,3429.6966,N,11657.5548,W,2,18,0.59,868.5,M,-31.0,M,,*4BB

||||||||||||-29,6969,$ACCEL,0.70,-0.53,10.18,$ALT,770.26,-224.89

||||||||||||-29,6969,$GNRMC,19071.36680,,$GNGGA,190715.000,3429.6966,N,11657.5548,W,2,18,0.59,868.6,M,-31.0,M,,*49

||||||||||||-29,6969,$ACCEL,0.68,-0.57,10.18,$ALT,770.15,-224.86.6966,N,11657.5548,W,2,18,0.59,868.6,M,-31.0,M,,*49

||||||||||||-29,6969,$GNRMC,190715.0002,7W00,$GNGGA,190716.000,3429.6967,N,11657.5548,W,2,18,0.59,868.6,M,-31.0,M,,*4B

||||||||||||-29,6969,$ACCEL,0.73,-0.56,10.23,$ALT,770.21,-224.88

||||||||||||-28,6969,$GNRMC,190716.000,A,3429.6967,N,11657.5548,W,0.03$GNGGA,190717.000,3429.6967,N,11657.5549,W,2,18,0.59,868.6,M,-31.0,M, 

||||||||||||-29,6969,$ACCEL,0.70,-0.55,10.19,$ALT,770.18,-224.87

||||||||||||-28,6969,$GNRMC,190717.000,A,3429.6967,$GNGGA,190718.000,3429.6967,N,11657.5549,W,2,18,0.59,868.7,M,-31.0,M,,*45B

||||||||||||-29,6969,$ACCEL,0.70,-0.56,10.21,$ALT,770.24,-224.87.000,3429.6967,N,11657.5549,W,2,18,0.59,868.7,M,-31.0,M,,*45B

||||||||||||-29,6969,$GNRMC,190718.000,A,3$GNGGA,190719.000,3429.6968,N,11657.5548,W,2,18,0.59,868.7,M,-31.0,M,,*4A0,M,,*45B

||||||||||||-29,6969,$ACCEL,0.70,-0.56,10.21,$ALT,770.33,-224.90

||||||||||||-29,6969,$GNRMC,190719.000,A,3429$GNGGA,190720.000,3429.6968,N,11657.5548,W,2,18,0.59,868.8,M,-31.0,M,,*4F

||||||||||||-29,6969,$ACCEL,0.69,-0.55,10.21,$ALT,770.28,-224.89

