"Feather LoRa RX Test!\r\n"2022-06-04 14:21:15
"LoRa radio init OK!\r\n"2022-06-04 14:21:15
"Set Freq to: 915.00\r\n"2022-06-04 14:21:15
"||||||||||||-41,6969,$ACCEL,0.79,2.49,9.64,$ALT,659.28,-197.75\r\n"2022-06-04 14:21:16
"||||||||||||-43,6969,$GNRMC,142112.0,1143325$GNGGA,142113.000,3520.8167,N,11748.4949,W,2,15,0.73,632.2,M,-29.4,M,,*47\r\r\n"2022-06-04 14:21:16
"||||||||||||-42,6969,$ACCEL,0.80,2.49,9.64,$ALT,659.26,-197.77\r\n"2022-06-04 14:21:17
"||||||||||||-43,6969,$GNRMC,142113.0036792328$GNGGA,142114.000,3520.8167,N,11748.4950,W,2,14,0.77,632.2,M,-29.4,M,,*4D\r\r\n"2022-06-04 14:21:17
"||||||||||||-43,6969,$ACCEL,0.80,2.49,9.64,$ALT,659.23,-197.74\r\n"2022-06-04 14:21:18
"||||||||||||-43,6969,$GNRMC,142114.074,,0,,$ALT,659.23,-197.74\r\n"2022-06-04 14:21:18
"||||||||||||-42,6969,$ACCEL,0.80,2.50,9.64,$ALT,659.21,-197.77\r\n"2022-06-04 14:21:18
"||||||||||||-43,6969,$GNRMC,142115.000,,119.025$GNGGA,142116.000,3520.8167,N,11748.4951,W,2,14,0.78,632.1,M,-29.4,M,,*42\r\r\n"2022-06-04 14:21:20
"||||||||||||-43,6969,$ACCEL,0.79,2.51,9.63,$ALT,659.17,-197.8100,3520.8167,N,11748.4951,W,2,14,0.78,632.1,M,-29.4,M,,*42\r\r\n"2022-06-04 14:21:20
"||||||||||||-43,6969,$GNRMC,142116.0006710,,\r$GNGGA,142117.000,3520.8168,N,11748.4953,W,2,14,0.78,632.1,M,-29.4,M,,*4E\r\r\n"2022-06-04 14:21:21
"||||||||||||-44,6969,$ACCEL,0.79,2.50,9.63,$ALT,659.16,-197.78,3520.8168,N,11748.4953,W,2,14,0.78,632.1,M,-29.4,M,,*4E\r\r\n"2022-06-04 14:21:22
"||||||||||||-41,6969,$GNRMC,142117.000,,40.6*$GNGGA,142118.000,3520.8168,N,11748.4954,W,2,14,0.78,632.1,M,-.4R200N.,30D$GNGGA,142119.000,35\r\n"2022-06-04 14:21:22
"||||||||||||-49,6969,$ACCEL,0.81,2.49,9.63,$ALT,658.98,-197.64\r\n"2022-06-04 14:21:23
"||||||||||||-41,6969,$GNRMC,142119.000,A,350N8W84,$GNGGA,142120.000,3520.8168,N,11748.4953,W,2,14,0.74,632.1,M,-29.4,M,,*46\r@B\u000f\r\n"2022-06-04 14:21:23
"||||||||||||-42,6969,$ACCEL,0.79,2.49,9.65,$ALT,659.23,-197.790.000,3520.8168,N,11748.4953,W,2,14,0.74,632.1,M,-29.4,M,,*46\r@B\u000f\r\n"2022-06-04 14:21:24
"||||||||||||-36,6969,$GNRMC,142120.036733,2A$GNGGA,142121.000,3520.8167,N,11748.4950,W,2,13,0.79,632.0,M,-29.4,M,,*40\r\r\n"2022-06-04 14:21:24
"||||||||||||-47,6969,$ACCEL,0.79,2.49,9.65,$ALT,659.17,-197.783520.8167,N,11748.4950,W,2,13,0.79,632.0,M,-29.4,M,,*40\r\r\n"2022-06-04 14:21:24
"||||||||||||-49,6969,$GNRMC,142121.000,2,8W84,T,659.17,-197.\r\n"2022-06-04 14:21:24
"||||||||||||-48,6969,$ACCEL,0.76,2.50,9.62,$ALT,659.22,-197.76\r\n"2022-06-04 14:21:25
"||||||||||||-47,6969,$GNRMC,142122.000,A,3520.8167,N,11748.4949,W,0$GNGGA,142123.000,3520.8167,N,11748.4952,W,2,14,0.74,631.9,M,-29.4,M,,*4 \r\n"2022-06-04 14:21:26
"||||||||||||-36,6969,$ACCEL,0.74,2.50,9.65,$ALT,659.19,-197.82\r\n"2022-06-04 14:21:27
"||||||||||||-38,6969,$GNRMC,142123.000,A,3520.8167$GNGGA,142124.000,3520.8167,N,11748.4953,W,2,13,0.79,631.9,M,-29.4,M,,*4C\r@B\u000f\r\n"2022-06-04 14:21:27
"||||||||||||-45,6969,$ACCEL,0.78,2.49,9.62,$ALT,659.22,-197.834.000,3520.8167,N,11748.4953,W,2,13,0.79,631.9,M,-29.4,M,,*4C\r@B\u000f\r\n"2022-06-04 14:21:28
"||||||||||||-42,6969,$GNRMC,142124.000,A,352$GNGGA,142125.000,3520.8169,N,11748.4954,W,2,13,0.79,631.9,M,-29.4,M,,*44\r,,*4C\r@B\u000f\r\n"2022-06-04 14:21:28
"||||||||||||-42,6969,$ACCEL,0.80,2.49,9.60,$ALT,659.27,-197.843520.8169,N,11748.4954,W,2,13,0.79,631.9,M,-29.4,M,,*44\r,,*4C\r@B\u000f\r\n"2022-06-04 14:21:29
"||||||||||||-42,6969,,.3674532A$GNGGA,142126.000,3520.8170,N,11748.4953,W,2,14,0.74,632.0,M,-29.4,M,,*48\r-29.4,M,,*44\r,,*4C\r@B\u000f\r\n"2022-06-04 14:21:29
"||||||||||||-41,6969,$ACCEL,0.79,2.51,9.62,$ALT,659.25,-197.791748.4953,W,2,14,0.74,632.0,M,-29.4,M,,*48\r-29.4,M,,*44\r,,*4C\r@B\u000f\r\n"2022-06-04 14:21:30
"||||||||||||-43,6969,$GNRMC,142126.000,A819.025$GNGGA,142127.000,3520.8171,N,11748.4954,W,2,15,0.73,632.0,M,-29.4,M,,*49\r4C\r@B\u000f\r\n"2022-06-04 14:21:30
"||||||||||||-44,6969,$ACCEL,0.70,2.50,9.68,$ALT,659.27,-197.8500,3520.8171,N,11748.4954,W,2,15,0.73,632.0,M,-29.4,M,,*49\r4C\r@B\u000f\r\n"2022-06-04 14:21:31
"||||||||||||-41,6969,$GNRMC,142127.0A819.06*$GNGGA,142128.000,3520.8171,N,11748.4956,W,2,14,0.74,632.0,M,-29.4,M,,*42\r49\r4C\r@B\u000f\r\n"2022-06-04 14:21:31
"||||||||||||-50,6969,$ACCEL,0.70,2.51,9.67,$ALT,659.31,-197.93\r\n"2022-06-04 14:21:32
"||||||||||||-48,6969,$GNRMC,142128.0,.N.,30D$GNGGA,142129.000,3520.8171,N,11748.4958,W,2,14,0.74,632.0,M,-29.4,M,,*4D\r\r\n"2022-06-04 14:21:32
"||||||||||||-47,6969,$ACCEL,0.72,2.51,9.69,$ALT,659.18,-197.843520.8171,N,11748.4958,W,2,14,0.74,632.0,M,-29.4,M,,*4D\r\r\n"2022-06-04 14:21:33
"||||||||||||-50,6969,$ACCEL,0.76,2.50,9.65,$ALT,659.19,-197.803520.8171,N,11748.4958,W,2,14,0.74,632.0,M,-29.4,M,,*4D\r\r\n"2022-06-04 14:21:35
"||||||||||||-59,6969,$GNRMC,142130.000,A,30N.W84,$GNGGA,142131.000,3520.8170,N,11748.4958,W,2,14,0.74,632.2,M,-29.4,M,,*47\r \r\n"2022-06-04 14:21:35
"||||||||||||-49,6969,$ACCEL,0.78,2.51,9.60,$ALT,659.27,-197.76.000,3520.8170,N,11748.4958,W,2,14,0.74,632.2,M,-29.4,M,,*47\r \r\n"2022-06-04 14:21:36
"||||||||||||-56,6969,$GNRMC,142131.00A819.02*$GNGGA,142132.000,3520.8170,N,11748.4957,W,2,15,0.73,632.3,M,-29.4,M,,*4C\r*47\r \r\n"2022-06-04 14:21:36
"||||||||||||-57,6969,$ACCEL,0.75,2.50,9.64,$ALT,659.26,-197.76\r\n"2022-06-04 14:21:37
"||||||||||||-64,6969,$GNRMC,142132.000,2,8W84,$GNGGA,142133.000,3520.8169,N,11748.4956,W,2,15,0.73,632.4,M,-29.4,M,,*43\r`\r\n"2022-06-04 14:21:37
"||||||||||||-39,6969,$ACCEL,0.76,2.49,9.62,$ALT,659.31,-197.760,3520.8169,N,11748.4956,W,2,15,0.73,632.4,M,-29.4,M,,*43\r`\r\n"2022-06-04 14:21:38
"||||||||||||-40,6969,$GNRMC,142133.00,119.025$GNGGA,142134.000,3520.8170,N,11748.4957,W,2,15,0.73,632.4,M,-29.4,M,,*4D\r\r`\r\n"2022-06-04 14:21:38
"||||||||||||-39,6969,$ACCEL,0.76,2.49,9.62,$ALT,659.44,-197.80,3520.8170,N,11748.4957,W,2,15,0.73,632.4,M,-29.4,M,,*4D\r\r`\r\n"2022-06-04 14:21:39
"||||||||||||-43,6969,$GNRMC,142134.000,2,8,,0,T,659.44,-197.80,3520.8170,N,11748.4957,W,2,15,0.73,632.4,M,-29.4,M,,*4D\r\r`\r\n"2022-06-04 14:21:39
"||||||||||||-49,6969,$ACCEL,0.79,2.50,9.64,$ALT,659.47,-197.81\r\n"2022-06-04 14:21:39
"||||||||||||-34,6969,$ACCEL,0.78,2.49,9.65,$ALT,659.45,-197.88\r\n"2022-06-04 14:21:40
"||||||||||||-48,6969,$GNRMC,142135.36750323$GNGGA,142136.000,3520.8168,N,11748.4960,W,2,15,0.73,632.3,M,-29.4,M,,*45\r\r\n"2022-06-04 14:21:40
"||||||||||||-63,6969,$ACCEL,0.77,2.49,9.62,$ALT,659.16,-197.83\r\n"2022-06-04 14:21:41
"||||||||||||-61,6969,$GNRMC,142136.002,8W84,$GNGGA,142137.000,3520.8166,N,11748.4961,W,2,15,0.73,632.2,M,-29.4,M,,*4A\r\r\n"2022-06-04 14:21:41
"||||||||||||-48,6969,$ACCEL,0.75,2.50,9.59,$ALT,659.38,-197.82\r\n"2022-06-04 14:21:43
"||||||||||||-56,6969,$GNRMC,142137.00,1164321$GNGGA,142138.000,3520.8166,N,11748.4961,W,2,15,0.73,632.2,M,-29.4R200N.,30,$GNGGA,142139.000, \r\n"2022-06-04 14:21:43
"||||||||||||-39,6969,$ACCEL,0.75,2.49,9.58,$ALT,659.25,-197.79\r\n"2022-06-04 14:21:47
"||||||||||||-40,6969,$GNRMC,142142.000,A,3520.8161,N,11748.4965,W,0$GNGGA,142143.000,3520.8161,N,11748.4964,W,2,14,0.78,632.2,M,-29.4,M,,*4 \r\n"2022-06-04 14:21:47
"||||||||||||-40,6969,$ACCEL,0.74,2.49,9.59,$ALT,659.37,-197.805,W,0$GNGGA,142143.000,3520.8161,N,11748.4964,W,2,14,0.78,632.2,M,-29.4,M,,*4 \r\n"2022-06-04 14:21:48
"||||||||||||-45,6969,$GNRMC,142143.000,A,3520.816$GNGGA,142144.000,3520.8159,N,11748.4965,W,2,14,0.78,632.3,M,-29.4,M,,*4D\r.2,M,-29.4,M,,*4 \r\n"2022-06-04 14:21:48
"||||||||||||-41,6969,$ACCEL,0.76,2.50,9.60,$ALT,659.24,-197.74.000,3520.8159,N,11748.4965,W,2,14,0.78,632.3,M,-29.4,M,,*4D\r.2,M,-29.4,M,,*4 \r\n"2022-06-04 14:21:49
"||||||||||||-41,6969,$GNRMC,142144.000,A,3520$GNGGA,142145.000,3520.8159,N,11748.4965,W,2,14,0.78,632.3,M,-29.4,M,,*4C\r\r\n"2022-06-04 14:21:49
"||||||||||||-47,6969,$ACCEL,0.74,2.51,9.61,$ALT,659.35,-197.78,3520.8159,N,11748.4965,W,2,14,0.78,632.3,M,-29.4,M,,*4C\r\r\n"2022-06-04 14:21:50
"||||||||||||-51,6969,$GNRMC,142145.000,A,3520.8$GNGGA,142146.000,3520.8157,N,11748.4964,W,2,14,0.78,632.4,M,-29.4,M,,*47\r\u0001\r\n"2022-06-04 14:21:50
"||||||||||||-49,6969,$ACCEL,0.76,2.48,9.59,$ALT,659.37,-197.79\r\n"2022-06-04 14:21:51
"||||||||||||-47,6969,$GNRMC,142146.000,A,350N.,84,$GNGGA,142147.000,3520.8157,N,11748.4965,W,2,14,0.78,632.4,M,-29.4,M,,*47\r@B\u000f\r\n"2022-06-04 14:21:51
"||||||||||||-47,6969,$ACCEL,0.76,2.48,9.59,$ALT,659.18,-197.727.000,3520.8157,N,11748.4965,W,2,14,0.78,632.4,M,-29.4,M,,*47\r@B\u000f\r\n"2022-06-04 14:21:51
"||||||||||||-47,6969,$GNRMC,142102,8W84,59,$ALT,659.18,-197.727.000,3520.8157,N,11748.4965,W,2,14,0.78,632.4,M,-29.4,M,,*47\r@B\u000f\r\n"2022-06-04 14:21:51
"||||||||||||-41,6969,$ACCEL,0.71,2.49,9.61,$ALT,659.25,-197.737.000,3520.8157,N,11748.4965,W,2,14,0.78,632.4,M,-29.4,M,,*47\r@B\u000f\r\n"2022-06-04 14:21:52
"||||||||||||-42,6969,$GNGGA,142148.000,3520.8158,N,11748.4966,W,2,15,0.73,632.5,M,-29.4,M,,*4F\r14,0.78,632.4,M,-29.4,M,,*47\r@B\u000f\r\n"2022-06-04 14:21:52
"||||||||||||-59,6969,$ACCEL,0.77,2.49,9.60,$ALT,659.18,-197.71W,2,15,0.73,632.5,M,-29.4,M,,*4F\r14,0.78,632.4,M,-29.4,M,,*47\r@B\u000f\r\n"2022-06-04 14:21:53
"||||||||||||-50,6969,$GNRMC,142148.000,A.,40.0D$GNGGA,142149.000,3520.8159,N,11748.4963,W,2,15,0.73,632.5,M,-29.4,M,,*4A\r\r\n"2022-06-04 14:21:53
"||||||||||||-49,6969,$ACCEL,0.78,2.49,9.60,$ALT,659.35,-197.8100,3520.8159,N,11748.4963,W,2,15,0.73,632.5,M,-29.4,M,,*4A\r\r\n"2022-06-04 14:21:54
"||||||||||||-48,6969,$GNRMC,142149.,.,4030D$GNGGA,142150.000,3520.8159,N,11748.4960,W,2,15,0.73,632.5,M,-29.4,M,,*41\r*4A\r\r\n"2022-06-04 14:21:54
"||||||||||||-41,6969,$ACCEL,0.77,2.49,9.60,$ALT,659.34,-197.81520.8159,N,11748.4960,W,2,15,0.73,632.5,M,-29.4,M,,*41\r*4A\r\r\n"2022-06-04 14:21:56
"||||||||||||-41,6969,$GNRMC,142150.0000N.,30D$GNGGA,142151.000,3520.8160,N,11748.4957,W,2,15,0.73,632.5,M,-29,\rC1,119.025$GNGGA,142152.000,\r\n"2022-06-04 14:21:56
"||||||||||||-38,6969,$ACCEL,0.77,2.49,9.61,$ALT,659.42,-197.91\r\n"2022-06-04 14:21:57
"||||||||||||-36,6969,$GNRMC,142152.000,504,2,,\r$GNGGA,142153.000,3520.8159,N,11748.4955,W,2,15,0.73,632.6,M,-29.4,M,,*47\r\u0001\r\n"2022-06-04 14:21:57
"||||||||||||-50,6969,$ACCEL,0.78,2.50,9.62,$ALT,659.41,-197.9800,3520.8159,N,11748.4955,W,2,15,0.73,632.6,M,-29.4,M,,*47\r\u0001\r\n"2022-06-04 14:21:58
"||||||||||||-41,6969,$GNRMC,142153.000,594,6,,\r$GNGGA,142154.000,3520.8161,N,11748.4956,W,2,15,0.73,632.6,M,-29.4,M,,*48\r\r\n"2022-06-04 14:21:58
"||||||||||||-42,6969,$ACCEL,0.69,2.50,9.60,$ALT,659.50,-198.02\r\n"2022-06-04 14:21:59
"||||||||||||-37,6969,$GNRMC,142154.031154325$GNGGA,142155.000,3520.8161,N,11748.4956,W,2,15,0.73,632.6,M,-29.4,M,,*49\r\r\n"2022-06-04 14:21:59
"||||||||||||-56,6969,$ACCEL,0.71,2.49,9.58,$ALT,659.45,-198.023520.8161,N,11748.4956,W,2,15,0.73,632.6,M,-29.4,M,,*49\r\r\n"2022-06-04 14:22:00
"||||||||||||-39,6969,$GNRMC,142155.000,A,3520.8161,N,11748.4956,W,0.51$GNGGA,142156.000,3520.8163,N,11748.4954,W,2,15,0.73,632.6,M,-29.4,M, \r\n"2022-06-04 14:22:00
"||||||||||||-35,6969,$ACCEL,0.73,2.49,9.60,$ALT,659.68,-198.05\r\n"2022-06-04 14:22:01
"||||||||||||-43,6969,$GNRMC,142156.000,A,3520.8$GNGGA,142157.000,3520.8164,N,11748.4950,W,2,15,0.73,632.6,M,-29.4,M,,*48\r\r\n"2022-06-04 14:22:01
"||||||||||||-44,6969,$ACCEL,0.74,2.49,9.60,$ALT,659.59,-198.0200,3520.8164,N,11748.4950,W,2,15,0.73,632.6,M,-29.4,M,,*48\r\r\n"2022-06-04 14:22:02
"||||||||||||-45,6969,$GNRMC,142157.000,A,3520.8$GNGGA,142158.000,3520.8165,N,11748.4949,W,2,15,0.73,632.6,M,-29.4,M,,*4E\r\r\n"2022-06-04 14:22:02
"||||||||||||-45,6969,$ACCEL,0.74,2.49,9.58,$ALT,659.68,-198.03\r\n"2022-06-04 14:22:03
"||||||||||||-42,6969,$GNRMC,142158.000,A,352$GNGGA,142159.000,3520.8165,N,11748.4950,W,2,15,0.73,632.6,M,-29.4,M,,*47\r\r\n"2022-06-04 14:22:03
"||||||||||||-39,6969,$ACCEL,0.78,2.51,9.59,$ALT,659.61,-197.983520.8165,N,11748.4950,W,2,15,0.73,632.6,M,-29.4,M,,*47\r\r\n"2022-06-04 14:22:04
"||||||||||||-40,6969,$GNRMC,142159.000,A,3520.81,.,30D$GNGGA,142200.000,3520.8166,N,11748.4948,W,2,15,0.73,632.6,M,-29.4,M,,*42\r\r\n"2022-06-04 14:22:04
"||||||||||||-38,6969,$ACCEL,0.77,2.50,9.57,$ALT,659.68,-197.9542200.000,3520.8166,N,11748.4948,W,2,15,0.73,632.6,M,-29.4,M,,*42\r\r\n"2022-06-04 14:22:05
"||||||||||||-40,6969,$GNRMC,142200564,4,,\r$GNGGA,142201.000,3520.8165,N,11748.4947,W,2,15,0.73,632.6,M,-29.4,M,,*4F\r29.4,M,,*42\r\r\n"2022-06-04 14:22:05
"||||||||||||-39,6969,$ACCEL,0.80,2.48,9.59,$ALT,659.62,-197.8920.8165,N,11748.4947,W,2,15,0.73,632.6,M,-29.4,M,,*4F\r29.4,M,,*42\r\r\n"2022-06-04 14:22:06
"||||||||||||-45,6969,$GNRMC,142201.036774326$GNGGA,142202.000,3520.8162,N,11748.4948,W,2,14,0.75,632.6,M,-29.4,M,,*43\r.4,M,,*42\r\r\n"2022-06-04 14:22:06
"||||||||||||-38,6969,$ACCEL,0.79,2.50,9.61,$ALT,659.68,-197.903520.8162,N,11748.4948,W,2,14,0.75,632.6,M,-29.4,M,,*43\r.4,M,,*42\r\r\n"2022-06-04 14:22:07
"||||||||||||-37,6969,$GNRMC,142202.0,1140325$GNGGA,142203.000,3520.8162,N,11748.4948,W,2,14,0.75,632.7,M,-29.4,M,,*43\r\r\n"2022-06-04 14:22:07
"||||||||||||-38,6969,$ACCEL,0.76,2.49,9.64,$ALT,659.58,-197.883520.8162,N,11748.4948,W,2,14,0.75,632.7,M,-29.4,M,,*43\r\r\n"2022-06-04 14:22:08
"||||||||||||-38,6969,$GNRMC,142203.00,0N.,30D$GNGGA,142204.000,3520.8161,N,11748.4948,W,2,14,0.75,632.7,M,-29.4,M,,*47\r\r\n"2022-06-04 14:22:08
"||||||||||||-40,6969,$GNRMC,142204.00,1140325$GNGGA,142205.000,3520.8162,N,11748.4948,W,2,13,0.79,632.7,M,-29.4,M,,*4E\r\r\n"2022-06-04 14:22:09
"||||||||||||-37,6969,$ACCEL,0.83,2.51,9.67,$ALT,659.53,-197.97,3520.8162,N,11748.4948,W,2,13,0.79,632.7,M,-29.4,M,,*4E\r\r\n"2022-06-04 14:22:10
"||||||||||||-41,6969,$GNRMC,142205.000A8190.6*$GNGGA,142206.000,3520.8163,N,11748.4949,W,2,13,0.79,632.6,M,-29.4,M,,*4C\r,\u0001\r\n"2022-06-04 14:22:10
"||||||||||||-70,6969,$ACCEL,0.83,2.51,9.67,$ALT,660.15,-198.270,3520.8163,N,11748.4949,W,2,13,0.79,632.6,M,-29.4,M,,*4C\r,\u0001\r\n"2022-06-04 14:22:11
"||||||||||||-55,6969,$GNRMC,142206.0,1140325$GNGGA,142207.000,3520.8160,N,11748.4950,W,2,13,0.79,632.6,M,-29.4,M,,*46\r\r\n"2022-06-04 14:22:11
"||||||||||||-53,6969,$ACCEL,1.16,8.46,3.25,$ALT,660.18,-198.313520.8160,N,11748.4950,W,2,13,0.79,632.6,M,-29.4,M,,*46\r\r\n"2022-06-04 14:22:12
"||||||||||||-60,6969,$GNRMC,142207.000A8,40.6*$GNGGA,142208.000,3520.8160,N,11748.4951,W,2,13,0.79,632.6,M,-29.4,M,,*48\r`\r\n"2022-06-04 14:22:12
"||||||||||||-66,6969,$ACCEL,3.10,8.20,3.89,$ALT,659.93,-198.32\r\n"2022-06-04 14:22:13
"||||||||||||-66,6969,$GNRMC,142208.000,50411,,\r$GNGGA,142209.000,3520.8158,N,11748.4953,W,2,13,0.79,632.7,M,-29.4,M,,*41\r\r\n"2022-06-04 14:22:13
"||||||||||||-68,6969,$ACCEL,3.10,8.20,3.89,$ALT,659.46,-198.1900,3520.8158,N,11748.4953,W,2,13,0.79,632.7,M,-29.4,M,,*41\r\r\n"2022-06-04 14:22:14
"||||||||||||-69,6969,$GNRMC,142209.0000N.,30D$GNGGA,142210.000,3520.8157,N,11748.4954,W,2,13,0.79,632.7,M,-29.4,M,,*41\r\r\n"2022-06-04 14:22:14
"||||||||||||-64,6969,$ACCEL,1.30,3.89,9.63,$ALT,659.52,-198.26,3520.8157,N,11748.4954,W,2,13,0.79,632.7,M,-29.4,M,,*41\r\r\n"2022-06-04 14:22:15
"||||||||||||-71,6969,$GNRMC,142210.00,.,.,30D$GNGGA,142211.000,3520.8156,N,11748.4954,W,2,14,0.78,632.5,M,-29.4,M,,*45\r\r\n"2022-06-04 14:22:15
"||||||||||||-63,6969,$ACCEL,2.05,3.26,9.49,$ALT,659.75,-198.34\r\n"2022-06-04 14:22:16
"||||||||||||-64,6969,$GNRMC,142211.000,819.025$GNGGA,142212.000,3520.8151,N,11748.4954,W,2,15,0.73,632.3,M,-29.4,M,,*4D\r`\r\n"2022-06-04 14:22:16
"||||||||||||-70,6969,$ACCEL,1.80,3.48,9.49,$ALT,659.40,-198.25\r\n"2022-06-04 14:22:17
"||||||||||||-67,6969,$GNRMC,142212.000,31150320$GNGGA,142213.000,3520.8146,N,11748.4954,W,2,14,0.78,632.4,M,-29.4,M,,*47\r\u0001\r\n"2022-06-04 14:22:17
"||||||||||||-63,6969,$ACCEL,1.49,1.89,9.64,$ALT,659.46,-198.28\r\n"2022-06-04 14:22:18
"||||||||||||-66,6969,$GNRMC,142213.A819.025$GNGGA,142214.000,3520.8141,N,11748.4953,W,2,15,0.73,632.4,M,-29.4,M,,*4A\r\r\n"2022-06-04 14:22:18
"||||||||||||-65,6969,$ACCEL,1.14,1.87,9.71,$ALT,659.66,-198.33520.8141,N,11748.4953,W,2,15,0.73,632.4,M,-29.4,M,,*4A\r\r\n"2022-06-04 14:22:18
"||||||||||||-65,6969,$GNRMC,142214.0002,4,,0,\u0018\r\n"2022-06-04 14:22:18
"||||||||||||-65,6969,$ACCEL,1.14,1.87,9.71,$ALT,659.42,-198.30\r\n"2022-06-04 14:22:19
"||||||||||||-64,6969,$GNGGA,142215.000,3520.8136,N,11748.4951,W,2,14,0.75,632.5,M,-29.4,M,,*4F\r\r\n"2022-06-04 14:22:19
"||||||||||||-63,6969,$ACCEL,1.77,2.04,9.69,$ALT,659.75,-198.40W,2,14,0.75,632.5,M,-29.4,M,,*4F\r\r\n"2022-06-04 14:22:19
"||||||||||||-64,6969,$GNRMC,142215.00264,,0,ALT,659.75,-198.40W,2,14,0.75,632.5,M,-29.4,M,,*4F\r\r\n"2022-06-04 14:22:19
"||||||||||||-68,6969,$ACCEL,1.77,2.04,9.69,$ALT,659.33,-198.28W,2,14,0.75,632.5,M,-29.4,M,,*4F\r\r\n"2022-06-04 14:22:20
"||||||||||||-67,6969,$GNGGA,142216.000,3520.8135,N,11748.4950,W,2,15,0.73,632.5,M,-29.4,M,,*49\r\r\n"2022-06-04 14:22:20
"||||||||||||-65,6969,$ACCEL,1.85,1.50,9.54,$ALT,659.28,-198.29W,2,15,0.73,632.5,M,-29.4,M,,*49\r\r\n"2022-06-04 14:22:21
"||||||||||||-66,6969,$GNRMC,142216.00,1150325$GNGGA,142217.000,3520.8133,N,11748.4951,W,2,15,0.73,632.5,M,-29.4,M,,*4F\r\r\n"2022-06-04 14:22:21
"||||||||||||-59,6969,$ACCEL,0.92,1.58,9.83,$ALT,659.39,-198.33,3520.8133,N,11748.4951,W,2,15,0.73,632.5,M,-29.4,M,,*4F\r\r\n"2022-06-04 14:22:22
"||||||||||||-61,6969,$GNRMC,142217.0,1150325$GNGGA,142218.000,3520.8132,N,11748.4952,W,2,14,0.75,632.5,M,-.4R2,.,4,30D$GNGGA,142219.000,352\r\n"2022-06-04 14:22:23
"||||||||||||-57,6969,$ACCEL,0.91,1.58,9.84,$ALT,659.78,-198.453520.8132,N,11748.4952,W,2,14,0.75,632.5,M,-.4R2,.,4,30D$GNGGA,142219.000,352\r\n"2022-06-04 14:22:23
"||||||||||||-58,6969,$GN2C$GNGGA,142220.000,3520.8133,N,11748.4952,W,2,15,0.73,632.7,M,-29.4,M,,*4A\r.5,M,-.4R2,.,4,30D$GNGGA,142219.000,352\r\n"2022-06-04 14:22:23
"||||||||||||-60,6969,$ACCEL,0.93,1.57,9.82,$ALT,659.55,-198.374952,W,2,15,0.73,632.7,M,-29.4,M,,*4A\r.5,M,-.4R2,.,4,30D$GNGGA,142219.000,352\r\n"2022-06-04 14:22:24
"||||||||||||-57,6969,$GNRMC,142220.000,A,358190.6*$GNGGA,142221.000,3520.8133,N,11748.4953,W,2,15,0.73,632.8,M,-29.4,M,,*45\r,142219.000,352\r\n"2022-06-04 14:22:25
"||||||||||||-57,6969,$ACCEL,0.91,1.58,9.81,$ALT,659.51,-198.39\r\n"2022-06-04 14:22:25
"||||||||||||-56,6969,$GNRMC,142221.00053731,,\r$GNGGA,142222.000,3520.8133,N,11748.4952,W,2,15,0.73,632.9,M,-29.4,M,,*46\r`\r\n"2022-06-04 14:22:26
"||||||||||||-56,6969,$ACCEL,0.91,1.59,9.84,$ALT,659.56,-198.440,3520.8133,N,11748.4952,W,2,15,0.73,632.9,M,-29.4,M,,*46\r`\r\n"2022-06-04 14:22:27
"||||||||||||-56,6969,$GNRMC,142222.000,A,3520.8133,N,11748.4952,W,0.02,83.03,040622,5$GNGGA,142223.000,3520.8132,N,11748.4951,W,2,15,0.73,6\r\n"2022-06-04 14:22:27
"||||||||||||-57,6969,$ACCEL,0.91,1.59,9.84,$ALT,659.47,-198.44\r\n"2022-06-04 14:22:27
"||||||||||||-59,6969,$GNRMC$GNGGA,142224.000,3520.8132,N,11748.4950,W,2,15,0.73,633.3,M,-29.4,M,,*48\r\b\r\n"2022-06-04 14:22:28
"||||||||||||-61,6969,$ACCEL,0.89,1.58,9.83,$ALT,659.53,-198.47.4950,W,2,15,0.73,633.3,M,-29.4,M,,*48\r\b\r\n"2022-06-04 14:22:28
"||||||||||||-63,6969,$GNRMC,142224.000,A,3520.8132$GNGGA,142225.000,3520.8133,N,11748.4949,W,2,15,0.73,633.4,M,-29.4,M,,*47\r@B\u000f\r\n"2022-06-04 14:22:29
"||||||||||||-59,6969,$ACCEL,0.91,1.57,9.83,$ALT,659.43,-198.445.000,3520.8133,N,11748.4949,W,2,15,0.73,633.4,M,-29.4,M,,*47\r@B\u000f\r\n"2022-06-04 14:22:29
"||||||||||||-63,6969,$GNRMC,142225.000,A,3520.$GNGGA,142226.000,3520.8134,N,11748.4948,W,2,15,0.73,633.5,M,-29.4,M,,*43\r`\r\n"2022-06-04 14:22:30
"||||||||||||-59,6969,$ACCEL,0.90,1.59,9.83,$ALT,659.34,-198.410,3520.8134,N,11748.4948,W,2,15,0.73,633.5,M,-29.4,M,,*43\r`\r\n"2022-06-04 14:22:31
"||||||||||||-59,6969,$GNRMC,142226.000,A,3520.8134,14032D$GNGGA,142227.000,3520.8134,N,11748.4946,W,2,15,0.73,633.6,M,-29.4,M,,*4F\r\r\n"2022-06-04 14:22:31
"||||||||||||-57,6969,$ACCEL,0.91,1.59,9.83,$ALT,659.25,-198.39A,142227.000,3520.8134,N,11748.4946,W,2,15,0.73,633.6,M,-29.4,M,,*4F\r\r\n"2022-06-04 14:22:32
"||||||||||||-59,6969,$GNRMC,1422.,1140322$GNGGA,142228.000,3520.8135,N,11748.4946,W,2,15,0.73,633.6,M,-29.4,M,,*41\r,M,-29.4,M,,*4F\r\r\n"2022-06-04 14:22:32
"||||||||||||-58,6969,$ACCEL,0.89,1.57,9.82,$ALT,659.40,-198.430.8135,N,11748.4946,W,2,15,0.73,633.6,M,-29.4,M,,*41\r,M,-29.4,M,,*4F\r\r\n"2022-06-04 14:22:33
"||||||||||||-59,6969,$GNRMC,142228.000,A,30N.,84,$GNGGA,142229.000,3520.8136,N,11748.4945,W,2,15,0.73,633.7,M,-29.4,M,,*41\r,M,,*4F\r\r\n"2022-06-04 14:22:33
"||||||||||||-65,6969,$ACCEL,0.90,1.58,9.81,$ALT,659.48,-198.51.000,3520.8136,N,11748.4945,W,2,15,0.73,633.7,M,-29.4,M,,*41\r,M,,*4F\r\r\n"2022-06-04 14:22:34
"||||||||||||-65,6969,$GNRMC,142229.0,0N.,30D$GNGGA,142230.000,3520.8137,N,11748.4944,W,2,15,0.73,633.8,M,-29.4,M,,*46\r\r\n"2022-06-04 14:22:34
"||||||||||||-58,6969,$ACCEL,0.89,1.58,9.80,$ALT,659.36,-198.493520.8137,N,11748.4944,W,2,15,0.73,633.8,M,-29.4,M,,*46\r\r\n"2022-06-04 14:22:35
"||||||||||||-56,6969,$GNRMC,142230.000574,,,,\r$GNGGA,142231.000,3520.8138,N,11748.4941,W,2,15,0.73,634.5,M,-29.4,M,,*47\r`\r\n"2022-06-04 14:22:35
"||||||||||||-48,6969,$ACCEL,2.00,2.52,9.26,$ALT,659.87,-198.56\r\n"2022-06-04 14:22:36
"||||||||||||-54,6969,$GNRMC,142231,119.025$GNGGA,142232.000,3520.8138,N,11748.4939,W,2,15,0.73,634.7,M,-29.4,M,,*49\r\r\n"2022-06-04 14:22:36
"||||||||||||-56,6969,$ACCEL,0.30,3.79,8.74,$ALT,660.26,-198.5820.8138,N,11748.4939,W,2,15,0.73,634.7,M,-29.4,M,,*49\r\r\n"2022-06-04 14:22:37
"||||||||||||-56,6969,$GNRMC,142232.000,33794,,\r$GNGGA,142233.000,3520.8139,N,11748.4937,W,2,15,0.73,634.9,M,-29.4,M,,*49\r\r\n"2022-06-04 14:22:37
"||||||||||||-50,6969,$ACCEL,1.16,3.79,8.82,$ALT,660.21,-198.6800,3520.8139,N,11748.4937,W,2,15,0.73,634.9,M,-29.4,M,,*49\r\r\n"2022-06-04 14:22:37
"||||||||||||-55,6969,$GNRMC,142233.033730329$GNGGA,142234.000,3520.8138,N,11748.4936,W,2,15,0.73,635.0,M,-29.4,M,,*46\r\r\n"2022-06-04 14:22:38
"||||||||||||-56,6969,$ACCEL,0.92,2.64,9.39,$ALT,660.33,-198.74\r\n"2022-06-04 14:22:38
"||||||||||||-55,6969,$GNRMC,142234.0002,4,,0,LT,660.33,-198.74\r\n"2022-06-04 14:22:38
"||||||||||||-54,6969,$ACCEL,0.92,2.64,9.39,$ALT,659.76,-198.60\r\n"2022-06-04 14:22:39
"||||||||||||-53,6969,$ACCEL,0.92,2.64,9.39,$ALT,659.94,-198.66\r\n"2022-06-04 14:22:39
"||||||||||||-54,6969,$GNRMC,142235.0284,,0,$ALT,659.94,-198.\r\n"2022-06-04 14:22:39
"||||||||||||-54,6969,$ACCEL,1.24,1.46,9.61,$ALT,659.93,-198.70\r\n"2022-06-04 14:22:40
"||||||||||||-54,6969,$GNRMC,142236.0033130329$GNGGA,142237.000,3520.8137,N,11748.4938,W,2,15,0.73,635.3,M,-29.4,M,,*47\r\r\n"2022-06-04 14:22:41
"||||||||||||-64,6969,$ACCEL,2.27,1.31,9.63,$ALT,659.78,-198.74,3520.8137,N,11748.4938,W,2,15,0.73,635.3,M,-29.4,M,,*47\r\r\n"2022-06-04 14:22:42
"||||||||||||-60,6969,$GNRMC,142237.03113032C$GNGGA,142238.000,3520.8137,N,11748.4939,W,2,15,0.73,635.4,M,-29,G10574,,0,\r$GNGGA,142239.000,3\r\n"2022-06-04 14:22:42
"||||||||||||-56,6969,$ACCEL,2.29,1.32,9.63,$ALT,659.79,-198.76\r\n"2022-06-04 14:22:43
"||||||||||||-54,6969,$30D$GNGGA,142240.000,3520.8137,N,11748.4940,W,2,15,0.73,635.4,M,-29.4,M,,*4F\r\r\n"2022-06-04 14:22:43
"||||||||||||-49,6969,$ACCEL,2.28,1.31,9.65,$ALT,659.71,-198.76940,W,2,15,0.73,635.4,M,-29.4,M,,*4F\r\r\n"2022-06-04 14:22:44
"||||||||||||-44,6969,$GNRMC,142240.000,A,35274,1,,\r$GNGGA,142241.000,3520.8138,N,11748.4940,W,2,14,0.77,635.5,M,-29.4,M,,*45\rB\u000f\r\n"2022-06-04 14:22:44
"||||||||||||-49,6969,$ACCEL,2.29,1.32,9.64,$ALT,659.57,-198.7441.000,3520.8138,N,11748.4940,W,2,14,0.77,635.5,M,-29.4,M,,*45\rB\u000f\r\n"2022-06-04 14:22:45
"||||||||||||-50,6969,$GNRMC,142241.0,140.6*$GNGGA,142242.000,3520.8138,N,11748.4939,W,2,15,0.73,635.5,M,-29.4,M,,*4D\r\r\n"2022-06-04 14:22:45
"||||||||||||-52,6969,$ACCEL,2.29,1.32,9.67,$ALT,659.71,-198.76\r\n"2022-06-04 14:22:46
"||||||||||||-53,6969,$GNRMC,142242.000,A,3520.8138,N,11748.4939,W,0.02,83.03,040622,,\r$GNGGA,142243.000,3520.8138,N,11748.4938,W,2,14,0.77, \r\n"2022-06-04 14:22:47
"||||||||||||-51,6969,$ACCEL,2.26,1.31,9.63,$ALT,659.67,-198.77\r\n"2022-06-04 14:22:47
"||||||||||||-49,6969,$GNRMC,$GNGGA,142244.000,3520.8138,N,11748.4936,W,2,15,0.73,635.7,M,-29.4,M,,*46\r\r\n"2022-06-04 14:22:47
"||||||||||||-54,6969,$ACCEL,2.25,1.31,9.62,$ALT,659.56,-198.778.4936,W,2,15,0.73,635.7,M,-29.4,M,,*46\r\r\n"2022-06-04 14:22:48
"||||||||||||-54,6969,$GNRMC,142244.000,A,3520.8138,$GNGGA,142245.000,3520.8138,N,11748.4936,W,2,14,0.77,635.8,M,-29.4,M,,*4D\rB\u000f\r\n"2022-06-04 14:22:48
"||||||||||||-45,6969,$ACCEL,2.25,1.32,9.62,$ALT,659.56,-198.8145.000,3520.8138,N,11748.4936,W,2,14,0.77,635.8,M,-29.4,M,,*4D\rB\u000f\r\n"2022-06-04 14:22:49
"||||||||||||-45,6969,$GNRMC,142245.000,A,35$GNGGA,142246.000,3520.8138,N,11748.4936,W,2,14,0.77,635.8,M,-29.4,M,,*4E\r,M,,*4D\rB\u000f\r\n"2022-06-04 14:22:49
"||||||||||||-47,6969,$ACCEL,2.25,1.33,9.64,$ALT,659.69,-198.87520.8138,N,11748.4936,W,2,14,0.77,635.8,M,-29.4,M,,*4E\r,M,,*4D\rB\u000f\r\n"2022-06-04 14:22:50
"||||||||||||-50,6969,$GNRMC,142246.000,A,3520.8138,N19.025$GNGGA,142247.000,3520.8139,N,11748.4934,W,2,14,0.77,635.9,M,-29.4,M,,*4D\r\r\n"2022-06-04 14:22:51
"||||||||||||-50,6969,$ACCEL,2.24,1.31,9.66,$ALT,659.68,-198.90GA,142247.000,3520.8139,N,11748.4934,W,2,14,0.77,635.9,M,-29.4,M,,*4D\r\r\n"2022-06-04 14:22:51
"||||||||||||-49,6969,$GNRMC,142202,8W84,$GNGGA,142248.000,3520.8139,N,11748.4932,W,2,14,0.77,636.0,M,-29.4,M,,*4E\r.9,M,-29.4,M,,*4D\r\r\n"2022-06-04 14:22:51
"||||||||||||-48,6969,$ACCEL,2.24,1.31,9.64,$ALT,659.65,-198.92.8139,N,11748.4932,W,2,14,0.77,636.0,M,-29.4,M,,*4E\r.9,M,-29.4,M,,*4D\r\r\n"2022-06-04 14:22:52
"||||||||||||-50,6969,$GNRMC,142248.000,A,35.,4,30D$GNGGA,142249.000,3520.8140,N,11748.4929,W,2,15,0.73,636.0,M,-29.4,M,,*4E\r\r\n"2022-06-04 14:22:53
"||||||||||||-48,6969,$ACCEL,2.24,1.34,9.65,$ALT,659.57,-198.78\r\n"2022-06-04 14:22:53
"||||||||||||-47,6969,$ACCEL,2.25,1.30,9.64,$ALT,659.51,-198.79\r\n"2022-06-04 14:22:54
"||||||||||||-53,6969,$GNRMC,142250.0,.,4,30D$GNGGA,142251.000,3520.8142,N,11748.4926,W,2,15,0.73,636.2,M,-29.4,M,,*48\r\r\n"2022-06-04 14:22:54
"||||||||||||-49,6969,$ACCEL,2.26,1.31,9.66,$ALT,660.00,-198.943520.8142,N,11748.4926,W,2,15,0.73,636.2,M,-29.4,M,,*48\r\r\n"2022-06-04 14:22:55
"||||||||||||-49,6969,$GNRMC,142251.034760324$GNGGA,142252.000,3520.8142,N,11748.4926,W,2,15,0.73,636.2,M,-29.4,M,,*4B\r\r\n"2022-06-04 14:22:55
"||||||||||||-49,6969,$ACCEL,2.26,1.31,9.66,$ALT,659.75,-198.86\r\n"2022-06-04 14:22:56
"||||||||||||-50,6969,$GNRMC,142252.000,2,8,,0,\r\n"2022-06-04 14:22:56
"||||||||||||-57,6969,$ACCEL,2.24,1.31,9.65,$ALT,659.89,-198.94\r\n"2022-06-04 14:22:56
"||||||||||||-56,6969,$GNGGA,142253.000,3520.8142,N,11748.4926,W,2,15,0.73,636.3,M,-29.4,M,,*4B\r\r\n"2022-06-04 14:22:57
"||||||||||||-55,6969,$ACCEL,0.33,1.39,9.89,$ALT,659.79,-198.90W,2,15,0.73,636.3,M,-29.4,M,,*4B\r\r\n"2022-06-04 14:22:57
"||||||||||||-54,6969,$GNRMC,142253.00,.N.,30D$GNGGA,142254.000,3520.8141,N,11748.4928,W,2,15,0.73,636.3,M,-29.4,M,,*41\r\r\n"2022-06-04 14:22:58
"||||||||||||-53,6969,$ACCEL,0.31,1.38,9.87,$ALT,659.60,-198.83,3520.8141,N,11748.4928,W,2,15,0.73,636.3,M,-29.4,M,,*41\r\r\n"2022-06-04 14:22:58
"||||||||||||-54,6969,$GNRMC,142254.00,.,4030D$GNGGA,142255.000,3520.8139,N,11748.4929,W,2,15,0.73,636.3,M,-29.4,M,,*4E\r\r\n"2022-06-04 14:22:59
"||||||||||||-52,6969,$ACCEL,0.33,1.38,9.89,$ALT,659.93,-198.93,3520.8139,N,11748.4929,W,2,15,0.73,636.3,M,-29.4,M,,*4E\r\r\n"2022-06-04 14:22:59
"||||||||||||-54,6969,$GNRMC,142255.000A819..6*$GNGGA,142256.000,3520.8139,N,11748.4930,W,2,14,0.77,636.3,M,-29M\r\n"2022-06-04 14:23:00
"||||||||||||-53,6969,$ACCEL,0.31,1.38,9.88,$ALT,659.61,-198.84\r\n"2022-06-04 14:23:00
"||||||||||||-55,6969,,.819.025$GNGGA,142257.000,3520.8139,N,11748.4930,W,2,14,0.77,636.2,M,-29.4,M,,*40\rP\r\n"2022-06-04 14:23:00
"||||||||||||-50,6969,$ACCEL,0.31,1.39,9.91,$ALT,659.80,-198.92748.4930,W,2,14,0.77,636.2,M,-29.4,M,,*40\rP\r\n"2022-06-04 14:23:01
"||||||||||||-50,6969,$GNRMC,142257.000,A,3370032A$GNGGA,142258.000,3520.8139,N,11748.4929,W,2,14,0.77,636.1,M,-29.4,M,,*44\r @B\u000f\r\n"2022-06-04 14:23:01
"||||||||||||-48,6969,$ACCEL,0.25,1.38,9.88,$ALT,659.80,-198.91\r\n"2022-06-04 14:23:02
"||||||||||||-53,6969,$GNRMC,142258.00A8,40.6*$GNGGA,142259.000,3520.8138,N,11748.4929,W,2,14,0.77,636.0,M,-29.4,M,,*45\r\r\n"2022-06-04 14:23:02
"||||||||||||-47,6969,$ACCEL,0.26,1.38,9.85,$ALT,659.65,-198.78\r\n"2022-06-04 14:23:03
"||||||||||||-51,6969,$GNRMC,142259.003112032E$GNGGA,142300.000,3520.8136,N,11748.4929,W,2,14,0.77,635.9,M,-29.4,M,,*4C\r\r\n"2022-06-04 14:23:03
"||||||||||||-54,6969,$ACCEL,0.26,1.39,9.85,$ALT,659.95,-198.86\r\n"2022-06-04 14:23:04
"||||||||||||-48,6969,$GNRMC,142300.000,,119.025$GNGGA,142301.000,3520.8136,N,11748.4930,W,2,14,0.77,635.8,M,-29.4,M,,*44\r\r\n"2022-06-04 14:23:04
"||||||||||||-50,6969,$ACCEL,0.26,1.40,9.86,$ALT,659.72,-198.78\r\n"2022-06-04 14:23:05
"||||||||||||-49,6969,$GNRMC,142301.000,A,564,,0,\r$GNGGA,142302.000,3520.8135,N,11748.4929,W,2,14,0.77,635.7,M,-29.4,M,,*43\r @B\u000f\r\n"2022-06-04 14:23:05
"||||||||||||-59,6969,$ACCEL,0.27,1.38,9.84,$ALT,660.12,-198.87.000,3520.8135,N,11748.4929,W,2,14,0.77,635.7,M,-29.4,M,,*43\r @B\u000f\r\n"2022-06-04 14:23:06
"||||||||||||-53,6969,$GNRMC,142302.0554,,0,\r$GNGGA,142303.000,3520.8134,N,11748.4929,W,2,14,0.77,635.6,M,-29.4,M,,*42\r\r\n"2022-06-04 14:23:06
"||||||||||||-58,6969,$ACCEL,0.27,1.38,9.84,$ALT,659.70,-198.72\r\n"2022-06-04 14:23:07
"||||||||||||-60,6969,$GNRMC,142303.00244,,0,ALT,659.70,-198.72\r\n"2022-06-04 14:23:07
"||||||||||||-61,6969,$ACCEL,0.27,1.39,9.86,$ALT,660.47,-198.96\r\n"2022-06-04 14:23:07
"||||||||||||-49,6969,$ACCEL,0.28,1.38,9.84,$ALT,659.63,-198.65\r\n"2022-06-04 14:23:08
"||||||||||||-51,6969,$GNGGA,142305.000,3520.8131,N,11748.4935,W,2,15,0.73,635.4,M,-29.4,M,,*4B\r\r\n"2022-06-04 14:23:09
"||||||||||||-53,6969,$ACCEL,0.28,1.38,9.85,$ALT,660.09,-198.79\r\n"2022-06-04 14:23:09
"||||||||||||-59,6969,$GNRMC,142305.000819..6*$GNGGA,142306.000,3520.8131,N,11748.4936,W,2,15,0.73,635.4,M,-29.4,M,,*4B\r\r\n"2022-06-04 14:23:10
"||||||||||||-57,6969,$ACCEL,0.26,1.37,9.90,$ALT,659.71,-198.70,3520.8131,N,11748.4936,W,2,15,0.73,635.4,M,-29.4,M,,*4B\r\r\n"2022-06-04 14:23:11
"||||||||||||-60,6969,$GNRMC,142306.002,,,0,\r$GNGGA,142307.000,3520.8132,N,11748.4939,W,2,15,0.73,635.3,M,-29.,$1052493,,\r$GNGGA,142308.000, \r\n"2022-06-04 14:23:11
"||||||||||||-69,6969,$ACCEL,0.26,1.37,9.90,$ALT,659.70,-198.72\r\n"2022-06-04 14:23:12
"||||||||||||-56,6969,,,\r$GNGGA,142309.000,3520.8130,N,11748.4942,W,2,14,0.77,635.1,M,-29.4,M,,*46\r\r\n"2022-06-04 14:23:12
"||||||||||||-54,6969,$ACCEL,0.26,1.39,9.86,$ALT,659.73,-198.7642,W,2,14,0.77,635.1,M,-29.4,M,,*46\r\r\n"2022-06-04 14:23:13
"||||||||||||-80,6969,$GNRMC,142309.000,A,3504,,0,\r$GNGGA,142310.000,3520.8130,N,11748.4944,W,2,14,0.77,635.1,M,-29.4,M,,*48\r@B\u000f\r\n"2022-06-04 14:23:13
"||||||||||||-58,6969,$ACCEL,0.22,1.37,9.90,$ALT,659.72,-198.70\r\n"2022-06-04 14:23:14
"||||||||||||-54,6969,$GNRMC,142310.00,1140025$GNGGA,142311.000,3520.8129,N,11748.4947,W,2,14,0.77,635.0,M,-29.4,M,,*43\r\r\n"2022-06-04 14:23:14
"||||||||||||-59,6969,$ACCEL,-0.05,1.28,9.92,$ALT,659.77,-198.713520.8129,N,11748.4947,W,2,14,0.77,635.0,M,-29.4,M,,*43\r\r\n"2022-06-04 14:23:15
"||||||||||||-53,6969,$GNRMC,142311.000,A,3520.8129,N,11748.4947,W,0.02,83.03,040622,$GNGGA,142312.000,3520.8128,N,11748.4948,W,2,14,0.77,63 \r\n"2022-06-04 14:23:15
"||||||||||||-49,6969,$ACCEL,1.04,2.60,9.76,$ALT,659.67,-198.767,W,0.02,83.03,040622,$GNGGA,142312.000,3520.8128,N,11748.4948,W,2,14,0.77,63 \r\n"2022-06-04 14:23:17
"||||||||||||-47,6969,$GNRMC,1$GNGGA,142313.000,3520.8128,N,11748.4949,W,2,15,0.73,635.0,M,-29.4,M,,*4B\r520.8128,N,11748.4948,W,2,14,0.77,63 \r\n"2022-06-04 14:23:17
"||||||||||||-54,6969,$ACCEL,2.04,3.93,9.10,$ALT,659.94,-198.95\r\n"2022-06-04 14:23:18
"||||||||||||-43,6969,$GNRMC,142313.000,A,3520.8128$GNGGA,142314.000,3520.8127,N,11748.4951,W,2,15,0.73,635.1,M,-29.4,M,,*4B\r@B\u000f\r\n"2022-06-04 14:23:18
"||||||||||||-45,6969,$ACCEL,2.23,6.79,7.59,$ALT,660.88,-199.294.000,3520.8127,N,11748.4951,W,2,15,0.73,635.1,M,-29.4,M,,*4B\r@B\u000f\r\n"2022-06-04 14:23:19
"||||||||||||-44,6969,$GNRMC,142314.000,A,3520$GNGGA,142315.000,3520.8126,N,11748.4954,W,2,15,0.73,635.1,M,-29.4,M,,*4E\r\r\n"2022-06-04 14:23:19
"||||||||||||-54,6969,$ACCEL,2.32,7.88,5.45,$ALT,660.88,-199.17,3520.8126,N,11748.4954,W,2,15,0.73,635.1,M,-29.4,M,,*4E\r\r\n"2022-06-04 14:23:20
"||||||||||||-49,6969,$GNRMC,142315.000,A,3520.8126190.6*$GNGGA,142316.000,3520.8127,N,11748.4956,W,2,15,0.73,635.2,M,-29.4,M,,*4D\r\r\n"2022-06-04 14:23:20
"||||||||||||-66,6969,$ACCEL,2.85,6.47,6.45,$ALT,660.22,-198.86\r\n"2022-06-04 14:23:21
"||||||||||||-50,6969,$GNRMC,14231600N.,84,$GNGGA,142317.000,3520.8126,N,11748.4957,W,2,15,0.73,635.1,M,-29.4,M,,*4F\r\r\n"2022-06-04 14:23:21
"||||||||||||-48,6969,$ACCEL,1.90,3.91,9.22,$ALT,659.86,-198.91\r\n"2022-06-04 14:23:22
"||||||||||||-49,6969,$GNRMC,142317.000,A56472,,\r$GNGGA,142318.000,3520.8126,N,11748.4956,W,2,15,0.73,635.2,M,-29.4,M,,*42\r\r\n"2022-06-04 14:23:22
"||||||||||||-48,6969,$ACCEL,0.26,1.45,9.84,$ALT,659.60,-198.82\r\n"2022-06-04 14:23:23
"||||||||||||-47,6969,$GNRMC,142318.3276032D$GNGGA,142319.000,3520.8125,N,11748.4957,W,2,15,0.73,635.2,M,-29.4,M,,*41\r\r\n"2022-06-04 14:23:23
"||||||||||||-49,6969,$ACCEL,-0.18,1.30,9.84,$ALT,659.62,-198.83\r\n"2022-06-04 14:23:24
"||||||||||||-49,6969,$GNRMC,142319.000,A0N.,30D$GNGGA,142320.000,3520.8124,N,11748.4960,W,2,15,0.73,635.2,M,-29.4,M,,*4E\r\u0001\r\n"2022-06-04 14:23:24
"||||||||||||-50,6969,$ACCEL,-0.18,1.30,9.84,$ALT,659.61,-198.82B\u0001\r\n"2022-06-04 14:23:24
"||||||||||||-51,6969,$GNRMC,142320544,,0,84,$ALT,659.61,-198.82B\u0001\r\n"2022-06-04 14:23:25
"||||||||||||-55,6969,$ACCEL,-0.13,1.30,9.84,$ALT,659.45,-198.75B\u0001\r\n"2022-06-04 14:23:25
"||||||||||||-55,6969,$GNRMC,142322.0,0N.,30D$GNGGA,142323.000,3520.8124,N,11748.4967,W,2,15,0.73,635.1,M,-29.4,M,,*49\r\r\n"2022-06-04 14:23:27
"||||||||||||-52,6969,$ACCEL,-0.13,1.30,9.85,$ALT,659.52,-198.78B\u0001\r\n"2022-06-04 14:23:29
"||||||||||||-55,6969,$GNRMC,142323.0032771,,\r$GNGGA,142324.000,3520.8125,N,11748.4968,W,2,14,0.77,635.1,M,-2.4R200N.,30,$GNGGA,142325.000,3 \r\n"2022-06-04 14:23:29
"||||||||||||-51,6969,$ACCEL,-0.12,1.31,9.85,$ALT,659.42,-198.773520.8125,N,11748.4968,W,2,14,0.77,635.1,M,-2.4R200N.,30,$GNGGA,142325.000,3 \r\n"2022-06-04 14:23:30
"||||||||||||-51,6969,$G5$GNGGA,142326.000,3520.8127,N,11748.4970,W,2,15,0.73,635.0,M,-29.4,M,,*48\r635.1,M,-2.4R200N.,30,$GNGGA,142325.000,3 \r\n"2022-06-04 14:23:30
"||||||||||||-48,6969,$ACCEL,-0.11,1.31,9.87,$ALT,659.63,-198.83B\u0001\r\n"2022-06-04 14:23:31
"||||||||||||-45,6969,$GNRMC,142326.000,A,117.025$GNGGA,142327.000,3520.8128,N,11748.4971,W,2,15,0.73,635.0,M,-29.4,M,,*47\r\r\n"2022-06-04 14:23:31
"||||||||||||-47,6969,$ACCEL,-0.11,1.31,9.87,$ALT,659.79,-198.88\r\n"2022-06-04 14:23:31
"||||||||||||-47,6969,$GNRMC,142327.0002,4,,0,\u0018\r\n"2022-06-04 14:23:31
"||||||||||||-45,6969,$ACCEL,-0.11,1.31,9.86,$ALT,659.84,-198.90\r\n"2022-06-04 14:23:32
"||||||||||||-51,6969,$GNRMC,142328.000,A,3520.8128,N,11748.4973,W,0.01,83.03,040622,\r$GNGGA,142329.000,3520.8129,N,11748.4972,W,2,14,0.77,6 \r\n"2022-06-04 14:23:33
"||||||||||||-50,6969,$ACCEL,-0.11,1.30,9.87,$ALT,660.07,-198.98,W,0.01,83.03,040622,\r$GNGGA,142329.000,3520.8129,N,11748.4972,W,2,14,0.77,6 \r\n"2022-06-04 14:23:34
"||||||||||||-54,6969,$GNRMC,1$GNGGA,142330.000,3520.8131,N,11748.4973,W,2,14,0.77,634.8,M,-29.4,M,,*47\r3520.8129,N,11748.4972,W,2,14,0.77,6 \r\n"2022-06-04 14:23:34
"||||||||||||-53,6969,$ACCEL,-0.11,1.31,9.88,$ALT,659.88,-198.89B\u0001\r\n"2022-06-04 14:23:35
"||||||||||||-53,6969,$GNRMC,142330.000,A,3520.81$GNGGA,142331.000,3520.8131,N,11748.4972,W,2,14,0.77,634.7,M,-29.4,M,,*48\r\r\n"2022-06-04 14:23:35
"||||||||||||-52,6969,N200N.,30,$GNGGA,142332.000,3520.8131,N,11748.4972,W,2,14,0.77,634.7,M,-29.4,M,,*4B\r7,M,-29.4,M,,*48\r\r\n"2022-06-04 14:23:36
"||||||||||||-49,6969,$ACCEL,-0.14,1.30,9.86,$ALT,659.61,-198.82748.4972,W,2,14,0.77,634.7,M,-29.4,M,,*4B\r7,M,-29.4,M,,*48\r\r\n"2022-06-04 14:23:37
"||||||||||||-50,6969,$GNRMC,142332.000,A,38190.6*$GNGGA,142333.000,3520.8134,N,11748.4972,W,2,14,0.77,634.7,M,-29.4,M,,*4F\r @B\u000f\r\n"2022-06-04 14:23:37
"||||||||||||-50,6969,$ACCEL,-0.15,1.30,9.84,$ALT,659.55,-198.80\r\n"2022-06-04 14:23:38
"||||||||||||-50,6969,$GNRMC,1423A819..6*$GNGGA,142334.000,3520.8134,N,11748.4974,W,2,14,0.77,634.7,M,-29.4,M,,*4E\r\r\n"2022-06-04 14:23:38
"||||||||||||-50,6969,$ACCEL,-0.15,1.32,9.86,$ALT,659.40,-198.778134,N,11748.4974,W,2,14,0.77,634.7,M,-29.4,M,,*4E\r\r\n"2022-06-04 14:23:39
"||||||||||||-52,6969,$GNRMC,142334.000,A,353744,,\r$GNGGA,142335.000,3520.8136,N,11748.4975,W,2,14,0.77,634.7,M,-29.4,M,,*4C\r@B\u000f\r\n"2022-06-04 14:23:39
"||||||||||||-51,6969,$ACCEL,-0.13,1.31,9.87,$ALT,659.61,-198.83\r\n"2022-06-04 14:23:40
"||||||||||||-52,6969,$GNRMC,142335.0,1170325$GNGGA,142336.000,3520.8137,N,11748.4977,W,2,15,0.73,634.7,M,-29.4,M,,*49\r\r\n"2022-06-04 14:23:40
"||||||||||||-51,6969,$ACCEL,-0.14,1.31,9.86,$ALT,659.33,-198.75\r\n"2022-06-04 14:23:41
"||||||||||||-49,6969,$GNRMC,142336.000,,117.025$GNGGA,142337.000,3520.8140,N,11748.4977,W,2,15,0.73,634.7,M,-29.4,M,,*48\r\u0001\r\n"2022-06-04 14:23:41
"||||||||||||-50,6969,$ACCEL,-0.16,1.31,9.84,$ALT,659.73,-198.82B\u0001\r\n"2022-06-04 14:23:42
"||||||||||||-53,6969,$GNRMC,142337.00N.W84,$GNGGA,142338.000,3520.8143,N,11748.4979,W,2,15,0.73,634.7,M,-29.4,M,,*4A\r\r\n"2022-06-04 14:23:42
"||||||||||||-56,6969,$ACCEL,-0.19,1.32,9.85,$ALT,659.91,-198.9120.8143,N,11748.4979,W,2,15,0.73,634.7,M,-29.4,M,,*4A\r\r\n"2022-06-04 14:23:43
"||||||||||||-51,6969,$GNRMC,142338.000,A819.06*$GNGGA,142339.000,3520.8145,N,11748.4980,W,2,15,0.73,634.6,M,-29.4,M,,*4A\r\r\n"2022-06-04 14:23:43
"||||||||||||-52,6969,$ACCEL,-0.17,1.29,9.86,$ALT,659.41,-198.750,3520.8145,N,11748.4980,W,2,15,0.73,634.6,M,-29.4,M,,*4A\r\r\n"2022-06-04 14:23:44
"||||||||||||-50,6969,$GNRMC,14233902,8W84,$GNGGA,142340.000,3520.8146,N,11748.4982,W,2,15,0.73,634.5,M,-29.4,M,,*46\r,*4A\r\r\n"2022-06-04 14:23:44
"||||||||||||-48,6969,$ACCEL,-0.18,1.30,9.84,$ALT,659.69,-198.760.8146,N,11748.4982,W,2,15,0.73,634.5,M,-29.4,M,,*46\r,*4A\r\r\n"2022-06-04 14:23:45
"||||||||||||-50,6969,$GNRMC,142340.0A8190.6*$GNGGA,142341.000,3520.8148,N,11748.4984,W,2,15,0.73,634.5,M,-29.4,M,,*4F\r\r\n"2022-06-04 14:23:45
"||||||||||||-50,6969,$ACCEL,-0.18,1.30,9.84,$ALT,659.85,-198.79520.8148,N,11748.4984,W,2,15,0.73,634.5,M,-29.4,M,,*4F\r\r\n"2022-06-04 14:23:45
"||||||||||||-50,6969,$GNRMC,14234102,4,,0,4,$ALT,659.85,-198\r\n"2022-06-04 14:23:45
"||||||||||||-50,6969,$ACCEL,-0.24,1.32,9.85,$ALT,659.80,-198.70B\u0001\r\n"2022-06-04 14:23:46
"||||||||||||-61,6969,$ACCEL,-0.19,1.31,9.83,$ALT,659.82,-198.69B\u0001\r\n"2022-06-04 14:23:47
"||||||||||||-54,6969,$GNRMC,142342.000,3575032F$GNGGA,142343.000,3520.8152,N,11748.4985,W,2,15,0.73,634.4,M,-29.4,M,,*46\r\r\n"2022-06-04 14:23:47
"||||||||||||-50,6969,$ACCEL,-0.16,1.29,9.83,$ALT,660.00,-198.740,3520.8152,N,11748.4985,W,2,15,0.73,634.4,M,-29.4,M,,*46\r\r\n"2022-06-04 14:23:48
"||||||||||||-54,6969,$GNRMC,142343.003578032D$GNGGA,142344.000,3520.8153,N,11748.4985,W,2,14,0.77,634.4,M,-29.4,M,,*45\r\r\n"2022-06-04 14:23:48
"||||||||||||-52,6969,$ACCEL,-0.17,1.33,9.86,$ALT,659.73,-198.683520.8153,N,11748.4985,W,2,14,0.77,634.4,M,-29.4,M,,*45\r\r\n"2022-06-04 14:23:49
"||||||||||||-52,6969,$GNRMC,142344.0A819.06*$GNGGA,142345.000,3520.8155,N,11748.4985,W,2,14,0.77,634.3,M,-2MM4A819.06*$GNGGA,142346.000,352 \r\n"2022-06-04 14:23:50
"||||||||||||-50,6969,$ACCEL,-0.17,1.32,9.87,$ALT,659.49,-198.65520.8155,N,11748.4985,W,2,14,0.77,634.3,M,-2MM4A819.06*$GNGGA,142346.000,352 \r\n"2022-06-04 14:23:50
"||||||||||||-49,6969,$GNRMC,142346.000,A,31180325$GNGGA,142347.000,3520.8156,N,11748.4987,W,2,14,0.77,634.2,M,-29.4,M,,*47\rA,142346.000,352 \r\n"2022-06-04 14:23:51
"||||||||||||-49,6969,$ACCEL,-0.12,1.31,9.89,$ALT,659.72,-198.73000,3520.8156,N,11748.4987,W,2,14,0.77,634.2,M,-29.4,M,,*47\rA,142346.000,352 \r\n"2022-06-04 14:23:51
"||||||||||||-47,6969,$GNRMC,142347.000,8W84,$GNGGA,142348.000,3520.8155,N,11748.4988,W,2,14,0.77,634.2,M,-29.4,M,,*44\r,*47\rA,142346.000,352 \r\n"2022-06-04 14:23:52
"||||||||||||-52,6969,$ACCEL,-0.17,1.70,9.78,$ALT,659.71,-198.68520.8155,N,11748.4988,W,2,14,0.77,634.2,M,-29.4,M,,*44\r,*47\rA,142346.000,352 \r\n"2022-06-04 14:23:52
"||||||||||||-47,6969,$GNRMC,142348.0,1180325$GNGGA,142349.000,3520.8152,N,11748.4990,W,2,14,0.77,634.0,M,-29.4,M,,*49\r,*47\rA,142346.000,352 \r\n"2022-06-04 14:23:53
"||||||||||||-45,6969,$ACCEL,-0.36,1.35,9.87,$ALT,659.55,-198.62520.8152,N,11748.4990,W,2,14,0.77,634.0,M,-29.4,M,,*49\r,*47\rA,142346.000,352 \r\n"2022-06-04 14:23:54
"||||||||||||-54,6969,$GNRMC,142349.000,A,3520.8152,N,11748.4990,W,0.05,$GNGGA,142350.000,3520.8149,N,11748.4992,W,2,14,0.77,633.9,M,-29.4,M\r\n"2022-06-04 14:23:54
"||||||||||||-54,6969,$ACCEL,-0.28,1.58,10.10,$ALT,659.16,-198.91\u0005R\r\n"2022-06-04 14:23:55
"||||||||||||-43,6969,$GNRMC,142350.000,A,3520.81N$GNGGA,142351.000,3520.8147,N,11748.4993,W,2,14,0.77,633.8,M,-29.4,M,,*48\r \r\n"2022-06-04 14:23:55
"||||||||||||-43,6969,$ACCEL,0.71,0.98,9.49,$ALT,659.00,-199.05.000,3520.8147,N,11748.4993,W,2,14,0.77,633.8,M,-29.4,M,,*48\r \r\n"2022-06-04 14:23:56
"||||||||||||-42,6969,$GNRMC,142351.000,A,352$GNGGA,142352.000,3520.8148,N,11748.4993,W,2,15,0.73,633.6,M,-29.4,M,,*4F\r,*48\r \r\n"2022-06-04 14:23:56
"||||||||||||-45,6969,$ACCEL,1.37,1.32,9.87,$ALT,658.80,-199.093520.8148,N,11748.4993,W,2,15,0.73,633.6,M,-29.4,M,,*4F\r,*48\r \r\n"2022-06-04 14:23:57
"||||||||||||-49,6969,$GNRMC,142352.000,A,352$GNGGA,142353.000,3520.8147,N,11748.4994,W,2,14,0.77,633.4,M,-29.4,M,,*41\r\r\n"2022-06-04 14:23:57
"||||||||||||-47,6969,$ACCEL,1.28,1.37,9.44,$ALT,659.14,-199.27\r\n"2022-06-04 14:23:58
"||||||||||||-50,6969,$GNRMC,142353.000,A,3520119356*$GNGGA,142354.000,3520.8144,N,11748.4994,W,2,14,0.77,633.3,M,-29.4,M,,*42\r\u000f\r\n"2022-06-04 14:23:58
"||||||||||||-52,6969,$ACCEL,1.28,1.37,9.44,$ALT,659.58,-199.29354.000,3520.8144,N,11748.4994,W,2,14,0.77,633.3,M,-29.4,M,,*42\r\u000f\r\n"2022-06-04 14:23:58
"||||||||||||-54,6969,$GNRMC,142300,8W20,44,$ALT,659.58,-199.\r\n"2022-06-04 14:23:58
"||||||||||||-63,6969,$ACCEL,-0.91,1.00,9.85,$ALT,659.79,-199.18B\u0001\r\n"2022-06-04 14:23:59
"||||||||||||-44,6969,$GNRMC,142355.A8140.6*$GNGGA,142356.000,3520.8143,N,11748.4986,W,2,15,0.73,633.0,M,-29.4,M,,*42\r\r\n"2022-06-04 14:24:00
"||||||||||||-48,6969,$ACCEL,-0.97,0.92,9.84,$ALT,659.32,-198.8820.8143,N,11748.4986,W,2,15,0.73,633.0,M,-29.4,M,,*42\r\r\n"2022-06-04 14:24:01
"||||||||||||-47,6969,$GNRMC,142356.000,.,40.0D$GNGGA,142357.000,3520.8141,N,11748.4984,W,2,15,0.73,632.8,M,-29.4,M,,*4A\r`\r\n"2022-06-04 14:24:01
"||||||||||||-45,6969,$ACCEL,-0.90,0.91,9.84,$ALT,659.16,-198.78B\u0001\r\n"2022-06-04 14:24:02
"||||||||||||-44,6969,$GNRMC,142357.00,119.225$GNGGA,142358.000,3520.8137,N,11748.4984,W,2,15,0.73,632.7,M,-2,G405747,27$GNGGA,142359.000,35\r\n"2022-06-04 14:24:03
"||||||||||||-49,6969,$ACCEL,-0.89,0.93,9.84,$ALT,659.23,-198.76\r\n"2022-06-04 14:24:03
"||||||||||||-52,6969,$GNRMC,142359.000,A,31184825$GNGGA,142400.000,3520.8129,N,11748.4981,W,2,15,0.73,632.6,M,-29.4,M,,*4A\r \r\n"2022-06-04 14:24:04
"||||||||||||-50,6969,$ACCEL,-0.89,0.93,9.84,$ALT,659.32,-198.78000,3520.8129,N,11748.4981,W,2,15,0.73,632.6,M,-29.4,M,,*4A\r \r\n"2022-06-04 14:24:04
"||||||||||||-49,6969,$GNRMC,142400.000,,8W70,ALT,659.32,-198.78000,3520.8129,N,11748.4981,W,2,15,0.73,632.6,M,-29.4,M,,*4A\r \r\n"2022-06-04 14:24:04
"||||||||||||-45,6969,$ACCEL,-0.89,0.92,9.84,$ALT,659.41,-198.76000,3520.8129,N,11748.4981,W,2,15,0.73,632.6,M,-29.4,M,,*4A\r \r\n"2022-06-04 14:24:05
"||||||||||||-48,6969,$ACCEL,-0.89,0.92,9.84,$ALT,659.36,-198.70B\u0001\r\n"2022-06-04 14:24:05
"||||||||||||-48,6969,$GNRMC,142401.000N,,0,,$ALT,659.36,-198.70B\u0001\r\n"2022-06-04 14:24:05
"||||||||||||-43,6969,$ACCEL,-0.86,0.94,9.83,$ALT,659.69,-198.78\r\n"2022-06-04 14:24:06
"||||||||||||-49,6969,$GNGGA,142402.000,3520.8121,N,11748.4977,W,2,15,0.73,632.5,M,-29.4,M,,*4A\r\r\n"2022-06-04 14:24:06
"||||||||||||-49,6969,$ACCEL,-0.82,0.92,9.84,$ALT,659.41,-198.68,2,15,0.73,632.5,M,-29.4,M,,*4A\r\r\n"2022-06-04 14:24:07
"||||||||||||-47,6969,$GNRMC,142402.000,A,3520.8121,N,11748.4977,W,0.5$GNGGA,142403.000,3520.8117,N,11748.4976,W,2,15,0.73,632.4,M,-29.4,M,,\r\n"2022-06-04 14:24:07
"||||||||||||-47,6969,$ACCEL,-0.78,0.93,9.82,$ALT,659.41,-198.61B\u0001\r\n"2022-06-04 14:24:09
"||||||||||||-45,6969,$GNRMC,142403.000,A,3520.811$GNGGA,142404.000,3520.8115,N,11748.4974,W,2,15,0.73,632.5,M,-29.4,M,C4,117.225$GNGGA,1424 \r\n"2022-06-04 14:24:09
"||||||||||||-47,6969,$ACCEL,-0.78,0.93,9.83,$ALT,659.24,-198.52000,3520.8115,N,11748.4974,W,2,15,0.73,632.5,M,-29.4,M,C4,117.225$GNGGA,1424 \r\n"2022-06-04 14:24:10
"||||||||||||-45,6969,$GNRMC,142406.000,A,351173825$GNGGA,142407.000,3520.8106,N,11748.4970,W,2,15,0.73,632.5,M,-29.4,M,,*4D\r@B\u000f\r\n"2022-06-04 14:24:10
"||||||||||||-48,6969,$ACCEL,-0.78,0.93,9.84,$ALT,659.17,-198.48.000,3520.8106,N,11748.4970,W,2,15,0.73,632.5,M,-29.4,M,,*4D\r@B\u000f\r\n"2022-06-04 14:24:11
"||||||||||||-48,6969,$GNRMC,1420A8190.6*$GNGGA,142408.000,3520.8105,N,11748.4969,W,2,15,0.73,632.6,M,-29.4,M,,*4A\r.4,M,,*4D\r@B\u000f\r\n"2022-06-04 14:24:11
"||||||||||||-48,6969,$ACCEL,-0.78,0.93,9.85,$ALT,659.25,-198.52B\u0001\r\n"2022-06-04 14:24:12
"||||||||||||-45,6969,$GNRMC,142408.000,A,3520.8105,N,11748.4969,W,0.30,76.28,040622*$GNGGA,142409.000,3520.8106,N,11748.4968,W,2,15,0.73,63 \r\n"2022-06-04 14:24:12
"||||||||||||-47,6969,$ACCEL,-0.78,0.94,9.86,$ALT,659.29,-198.55,W,0.30,76.28,040622*$GNGGA,142409.000,3520.8106,N,11748.4968,W,2,15,0.73,63 \r\n"2022-06-04 14:24:13
"||||||||||||-47,6969,$GNRMC,1424090784,21$GNGGA,142410.000,3520.8105,N,11748.4966,W,2,15,0.73,632.7,M,-29.4,M,,*4D\r1748.4968,W,2,15,0.73,63 \r\n"2022-06-04 14:24:13
"||||||||||||-53,6969,$ACCEL,-0.78,0.93,9.84,$ALT,659.05,-198.44.8105,N,11748.4966,W,2,15,0.73,632.7,M,-29.4,M,,*4D\r1748.4968,W,2,15,0.73,63 \r\n"2022-06-04 14:24:14
"||||||||||||-51,6969,$GNRMC,142410.000,A,35$GNGGA,142411.000,3520.8105,N,11748.4966,W,2,15,0.73,632.8,M,-29.4,M,,*43\r\r\n"2022-06-04 14:24:14
"||||||||||||-53,6969,$ACCEL,-0.77,0.93,9.84,$ALT,659.54,-198.5820.8105,N,11748.4966,W,2,15,0.73,632.8,M,-29.4,M,,*43\r\r\n"2022-06-04 14:24:15
"||||||||||||-51,6969,$GNRMC,142411.000,A,60D$GNGGA,142412.000,3520.8103,N,11748.4965,W,2,14,0.77,632.9,M,-29.4,M,,*41\r\r\n"2022-06-04 14:24:15
"||||||||||||-49,6969,$ACCEL,-0.77,0.93,9.84,$ALT,659.76,-198.61B\u0001\r\n"2022-06-04 14:24:16
"||||||||||||-52,6969,$GNRMC,142412.000,A,3520.8103,N,11748.4965,W,0.21,76.28,040$GNGGA,142413.000,3520.8103,N,11748.4964,W,2,15,0.73,633.0, \r\n"2022-06-04 14:24:17
"||||||||||||-55,6969,$ACCEL,-0.77,0.94,9.84,$ALT,659.88,-198.63B\u0001\r\n"2022-06-04 14:24:17
"||||||||||||-54,6969,$GNRMC,142413.000,53$GNGGA,142414.000,3520.8101,N,11748.4964,W,2,15,0.73,633.2,M,-29.4,M,,*4B\r\r\n"2022-06-04 14:24:18
"||||||||||||-50,6969,$ACCEL,-0.78,0.93,9.83,$ALT,659.34,-198.45.8101,N,11748.4964,W,2,15,0.73,633.2,M,-29.4,M,,*4B\r\r\n"2022-06-04 14:24:18
"||||||||||||-53,6969,$GNRMC,142414.000,A,35$GNGGA,142415.000,3520.8100,N,11748.4963,W,2,15,0.73,633.3,M,-29.4,M,,*4D\r\r\n"2022-06-04 14:24:19
"||||||||||||-47,6969,$ACCEL,-0.78,0.93,9.85,$ALT,659.41,-198.4620.8100,N,11748.4963,W,2,15,0.73,633.3,M,-29.4,M,,*4D\r\r\n"2022-06-04 14:24:19
"||||||||||||-48,6969,$GNRMC,142415.000,A,352$GNGGA,142416.000,3520.8097,N,11748.4963,W,2,15,0.73,633.3,M,-29.4,M,,*41\r\r\n"2022-06-04 14:24:20
"||||||||||||-50,6969,$ACCEL,-0.78,0.94,9.86,$ALT,659.41,-198.45B\u0001\r\n"2022-06-04 14:24:20
"||||||||||||-50,6969,$GNRMC,142416.000,A,3520.809164225$GNGGA,142417.000,3520.8094,N,11748.4964,W,2,15,0.73,633.5,M,-29.4,M,,*42\r\r\n"2022-06-04 14:24:21
"||||||||||||-50,6969,$ACCEL,-0.78,0.94,9.86,$ALT,659.48,-198.46\r\n"2022-06-04 14:24:21
"||||||||||||-50,6969,$GNRMC,142400N.,00,.86,$ALT,659.48,-198.46\r\n"2022-06-04 14:24:21
"||||||||||||-50,6969,$ACCEL,-0.77,0.94,9.86,$ALT,659.68,-198.53B\u0001\r\n"2022-06-04 14:24:22
"||||||||||||-51,6969,$GNRMC,142418.000524,,,,8$GNGGA,142419.000,3520.8088,N,11748.4966,W,2,15,0.73,633.6,M,-29.4,M,,*40\r`\r\n"2022-06-04 14:24:23
"||||||||||||-50,6969,$ACCEL,-0.78,0.94,9.84,$ALT,659.70,-198.54,3520.8088,N,11748.4966,W,2,15,0.73,633.6,M,-29.4,M,,*40\r`\r\n"2022-06-04 14:24:24
"||||||||||||-49,6969,$GNRMC,142419.005846192D$GNGGA,142420.000,3520.8084,N,11748.4965,W,2,15,0.73,633.6,M,-29.4,M,,*45\r\r`\r\n"2022-06-04 14:24:24
"||||||||||||-50,6969,$ACCEL,-0.78,0.92,9.84,$ALT,659.73,-198.533520.8084,N,11748.4965,W,2,15,0.73,633.6,M,-29.4,M,,*45\r\r`\r\n"2022-06-04 14:24:25
"||||||||||||-48,6969,$GNRMC,142420.0A814060D$GNGGA,142421.000,3520.8082,N,11748.4962,W,2,15,0.73,633.5,M2,$10524,,929$GNGGA,142422.000,3520 \r\n"2022-06-04 14:24:25
"||||||||||||-53,6969,$ACCEL,-0.77,0.93,9.84,$ALT,659.52,-198.44520.8082,N,11748.4962,W,2,15,0.73,633.5,M2,$10524,,929$GNGGA,142422.000,3520 \r\n"2022-06-04 14:24:26
"||||||||||||-50,6969,$GNRMC,142422.000,A,32,8W20,\r$GNGGA,142423.000,3520.8081,N,11748.4960,W,2,15,0.73,633.4,M,-29.4,M,,*44\r142422.000,3520 \r\n"2022-06-04 14:24:26
"||||||||||||-52,6969,$ACCEL,-0.77,0.93,9.84,$ALT,659.61,-198.47B\u0001\r\n"2022-06-04 14:24:27
"||||||||||||-51,6969,$GNRMC,142423.30165026$GNGGA,142424.000,3520.8079,N,11748.4959,W,2,15,0.73,633.3,M,-29.4,M,,*49\r\r\n"2022-06-04 14:24:27
"||||||||||||-53,6969,$ACCEL,-0.79,0.94,9.83,$ALT,659.54,-198.44B\u0001\r\n"2022-06-04 14:24:28
"||||||||||||-52,6969,$GNRMC,142424.0002,8W,,,\r$GNGGA,142425.000,3520.8079,N,11748.4958,W,2,14,0.79,633.2,M,-29.4,M,,*43\r`\r\n"2022-06-04 14:24:28
"||||||||||||-48,6969,$ACCEL,-0.79,0.94,9.84,$ALT,659.59,-198.47\r\n"2022-06-04 14:24:29
"||||||||||||-48,6969,$GNRMC,142425.000,A,3520.8079,N,11748.4958,W,0.4$GNGGA,142426.000,3520.8079,N,11748.4956,W,2,14,0.79,633.2,M,-29.4,M,,\r\n"2022-06-04 14:24:29
"||||||||||||-51,6969,$ACCEL,-0.79,0.94,9.84,$ALT,659.54,-198.44,W,0.4$GNGGA,142426.000,3520.8079,N,11748.4956,W,2,14,0.79,633.2,M,-29.4,M,,\r\n"2022-06-04 14:24:30
"||||||||||||-52,6969,$GNRMC,142426.000,A,3520.8071$GNGGA,142427.000,3520.8078,N,11748.4955,W,2,14,0.79,633.2,M,-29.4,M,,*4D\r3.2,M,-29.4,M,,\r\n"2022-06-04 14:24:31
"||||||||||||-52,6969,$ACCEL,-0.80,0.93,9.86,$ALT,659.62,-198.47\r\n"2022-06-04 14:24:31
"||||||||||||-53,6969,$GNRMC,142427.000,A,0N$GNGGA,142428.000,3520.8076,N,11748.4954,W,2,15,0.73,633.1,M,-29.4,M,,*45\r\r\n"2022-06-04 14:24:32
"||||||||||||-52,6969,$ACCEL,-0.80,0.93,9.84,$ALT,659.55,-198.45B\u0001\r\n"2022-06-04 14:24:32
"||||||||||||-53,6969,$GNRMC,142428.000,A,35264$GNGGA,142429.000,3520.8075,N,11748.4954,W,2,15,0.73,633.1,M,-29.4,M,,*47\r`\r\n"2022-06-04 14:24:33
"||||||||||||-50,6969,$ACCEL,-0.79,0.94,9.85,$ALT,659.30,-198.37,3520.8075,N,11748.4954,W,2,15,0.73,633.1,M,-29.4,M,,*47\r`\r\n"2022-06-04 14:24:33
"||||||||||||-51,6969,$GNRMC,142429.000,A,57744929$GNGGA,142430.000,3520.8073,N,11748.4954,W,2,15,0.73,633.1,M,-29.4,M,,*49\r @B\u000f\r\n"2022-06-04 14:24:34
"||||||||||||-50,6969,$ACCEL,-0.80,0.93,9.85,$ALT,659.51,-198.44000,3520.8073,N,11748.4954,W,2,15,0.73,633.1,M,-29.4,M,,*49\r @B\u000f\r\n"2022-06-04 14:24:34
"||||||||||||-51,6969,$GNRMC,1420534,,,,3$GNGGA,142431.000,3520.8070,N,11748.4953,W,2,15,0.73,633.1,M,-29.4,M,,*4C\r4,M,,*49\r @B\u000f\r\n"2022-06-04 14:24:34
"||||||||||||-51,6969,$ACCEL,-0.80,0.93,9.85,$ALT,659.53,-198.448070,N,11748.4953,W,2,15,0.73,633.1,M,-29.4,M,,*4C\r4,M,,*49\r @B\u000f\r\n"2022-06-04 14:24:35
"||||||||||||-51,6969,$GNRMC,142431.00N.W10,,$ALT,659.53,-198\r\n"2022-06-04 14:24:35
"||||||||||||-53,6969,$ACCEL,-0.79,0.93,9.85,$ALT,659.50,-198.44B\u0001\r\n"2022-06-04 14:24:35
"||||||||||||-52,6969,$GNGGA,142432.000,3520.8067,N,11748.4951,W,2,15,0.73,633.1,M,-29.4,M,,*4B\r\r\n"2022-06-04 14:24:36
"||||||||||||-51,6969,$ACCEL,-0.80,0.94,9.84,$ALT,659.58,-198.44B\u0001\r\n"2022-06-04 14:24:36
"||||||||||||-50,6969,$GNRMC,142432.0036717826$GNGGA,142433.000,3520.8065,N,11748.4951,W,2,15,0.73,633.1,M,-29.4,M,,*48\r\r\n"2022-06-04 14:24:37
"||||||||||||-54,6969,$ACCEL,-0.79,0.92,9.84,$ALT,659.36,-198.393520.8065,N,11748.4951,W,2,15,0.73,633.1,M,-29.4,M,,*48\r\r\n"2022-06-04 14:24:37
"||||||||||||-58,6969,$GNRMC,142433.036154826$GNGGA,142434.000,3520.8064,N,11748.4950,W,2,15,0.73,633.1,M,-29.4,M,,*4F\r\r\n"2022-06-04 14:24:38
"||||||||||||-53,6969,$ACCEL,-0.79,0.93,9.84,$ALT,659.26,-198.32B\u0001\r\n"2022-06-04 14:24:39
"||||||||||||-51,6969,$GNRMC,142434.02,8W1,,\r$GNGGA,142435.000,3520.8062,N,11748.4950,W,2,15,0.73,633.1,M,-,8M3A819.3,$GNGGA,142436.000,3520 \r\n"2022-06-04 14:24:39
"||||||||||||-52,6969,$ACCEL,-0.79,0.94,9.83,$ALT,659.29,-198.34520.8062,N,11748.4950,W,2,15,0.73,633.1,M,-,8M3A819.3,$GNGGA,142436.000,3520 \r\n"2022-06-04 14:24:40
"||||||||||||-52,6969,$GNRMC,142436.000,A,352,,902F$GNGGA,142437.000,3520.8059,N,11748.4949,W,2,14,0.79,633.1,M,-29.4,M,,*41\r142436.000,3520 \r\n"2022-06-04 14:24:40
"||||||||||||-53,6969,$ACCEL,-0.80,0.95,9.85,$ALT,659.07,-198.29B\u0001\r\n"2022-06-04 14:24:41
"||||||||||||-52,6969,$GNRMC,142437.000N.,,,\r$GNGGA,142438.000,3520.8059,N,11748.4949,W,2,14,0.79,633.1,M,-29.4,M,,*4E\r\r\n"2022-06-04 14:24:41
"||||||||||||-54,6969,$ACCEL,-0.79,0.95,9.84,$ALT,659.29,-198.36\r\n"2022-06-04 14:24:42
"||||||||||||-53,6969,$GNRMC,142438.00557970*$GNGGA,142439.000,3520.8058,N,11748.4948,W,2,14,0.79,633.1,M,-29.4,M,,*4F\r\r\n"2022-06-04 14:24:42
"||||||||||||-48,6969,$ACCEL,-0.79,0.95,9.82,$ALT,659.27,-198.32B\u0001\r\n"2022-06-04 14:24:43
"||||||||||||-49,6969,$GNRMC,142439.000,A,3520.8058,N,11748.4948,W,0.44$GNGGA,142440.000,3520.8064,N,11748.4944,W,2,15,0.69,633.2,M,-29.4,M, \r\n"2022-06-04 14:24:43
"||||||||||||-49,6969,$ACCEL,-0.80,0.94,9.83,$ALT,659.39,-198.29B\u0001\r\n"2022-06-04 14:24:44
"||||||||||||-49,6969,$GNRMC,142440.000,A,3520.8064$GNGGA,142441.000,3520.8067,N,11748.4943,W,2,16,0.65,633.3,M,-29.4,M,,*4A\r@B\u000f\r\n"2022-06-04 14:24:44
"||||||||||||-50,6969,$ACCEL,-0.81,0.93,9.82,$ALT,659.26,-198.23B\u0001\r\n"2022-06-04 14:24:45
"||||||||||||-58,6969,$GNRMC,142441.000,A,35.$GNGGA,142442.000,3520.8071,N,11748.4940,W,2,16,0.65,633.5,M,-29.4,M,,*4B\r\r\n"2022-06-04 14:24:45
"||||||||||||-47,6969,$ACCEL,-0.79,0.93,9.83,$ALT,659.46,-198.30520.8071,N,11748.4940,W,2,16,0.65,633.5,M,-29.4,M,,*4B\r\r\n"2022-06-04 14:24:46
"||||||||||||-47,6969,$GNRMC,142442.000,A,352$GNGGA,142443.000,3520.8076,N,11748.4939,W,2,16,0.65,633.7,M,-29.4,M,,*41\r\r\n"2022-06-04 14:24:46
"||||||||||||-48,6969,$ACCEL,-0.81,0.94,9.83,$ALT,659.34,-198.29520.8076,N,11748.4939,W,2,16,0.65,633.7,M,-29.4,M,,*41\r\r\n"2022-06-04 14:24:47
"||||||||||||-49,6969,$GNRMC,142443.000,A,3520.64,,,,\r$GNGGA,142444.000,3520.8079,N,11748.4937,W,2,16,0.65,633.8,M,-29.4,M,,*48\r\r\n"2022-06-04 14:24:47
"||||||||||||-48,6969,$ACCEL,-0.80,0.95,9.84,$ALT,659.47,-198.34B\u0001\r\n"2022-06-04 14:24:48
"||||||||||||-48,6969,$GNRMC,14202,4,,,,\r$GNGGA,142445.000,3520.8083,N,11748.4935,W,2,16,0.65,634.0,M,-29.4,M,,*41\r\r\n"2022-06-04 14:24:48
"||||||||||||-48,6969,$ACCEL,-0.80,0.94,9.85,$ALT,659.38,-198.29B\u0001\r\n"2022-06-04 14:24:49
"||||||||||||-49,6969,$GNRMC,142445.A819..6D$GNGGA,142446.000,3520.8084,N,11748.4933,W,2,15,0.67,634.1,M,-29.4,M,,*43\r\r\n"2022-06-04 14:24:49
"||||||||||||-49,6969,$GNRMC,142446.0002,4,,,,\r$GNGGA,142447.000,3520.8087,N,11748.4932,W,2,15,0.67,634.2,M,-29.4,M,,*43\r,\u0001\r\n"2022-06-04 14:24:50
"||||||||||||-48,6969,$ACCEL,-0.79,0.95,9.84,$ALT,659.29,-198.28,3520.8087,N,11748.4932,W,2,15,0.67,634.2,M,-29.4,M,,*43\r,\u0001\r\n"2022-06-04 14:24:51
"||||||||||||-49,6969,$GNRMC,142447.00N.,10,,$ALT,659.29,-198\r\n"2022-06-04 14:24:51
"||||||||||||-48,6969,$ACCEL,-0.80,0.94,9.85,$ALT,659.45,-198.32B\u0001\r\n"2022-06-04 14:24:51
"||||||||||||-48,6969,$ACCEL,-0.79,0.93,9.86,$ALT,659.36,-198.29\r\n"2022-06-04 14:24:52
"||||||||||||-48,6969,$ACCEL,-0.80,0.94,9.85,$ALT,659.59,-198.38\r\n"2022-06-04 14:24:54
"||||||||||||-47,6969,$GNRMC,142449.00,.N.,84,$GNGGA,142450.000,3520.8095,N,11748.4928,W,2,15,0.67,634.4,M,-29.4,M,,*4B\r\r\n"2022-06-04 14:24:55
"||||||||||||-47,6969,$ACCEL,-0.79,0.93,9.85,$ALT,659.39,-198.323520.8095,N,11748.4928,W,2,15,0.67,634.4,M,-29.4,M,,*4B\r\r\n"2022-06-04 14:24:55
"||||||||||||-48,6969,$GNRMC,142450.00,.,4084,$GNGGA,142451.000,3520.8098,N,11748.4927,W,2,15,0.67,634.5,M,-M9.4,M,,*4B\r\r\n"2022-06-04 14:24:55
"||||||||||||-47,6969,$ACCEL,-0.79,0.95,9.84,$ALT,659.26,-198.303520.8098,N,11748.4927,W,2,15,0.67,634.5,M,-M9.4,M,,*4B\r\r\n"2022-06-04 14:24:56
"||||||||||||-47,6969,,.39122226$GNGGA,142452.000,3520.8103,N,11748.4924,W,2,16,0.65,634.6,M,-29.4,M,,*48\r,-M9.4,M,,*4B\r\r\n"2022-06-04 14:24:56
"||||||||||||-45,6969,$ACCEL,-0.79,0.95,9.84,$ALT,659.28,-198.31B\u0001\r\n"2022-06-04 14:24:57
"||||||||||||-47,6969,$G0,$GNGGA,142453.000,3520.8107,N,11748.4921,W,2,16,0.65,634.7,M,-29.4,M,,*49\r\r\n"2022-06-04 14:24:57
"||||||||||||-44,6969,$ACCEL,-0.79,0.92,9.85,$ALT,659.15,-198.25B\u0001\r\n"2022-06-04 14:24:58
"||||||||||||-48,6969,$GNRMC,142453.000,A0N.,84,$GNGGA,142454.000,3520.8110,N,11748.4920,W,2,16,0.65,634.8,M,-29.4,M,,*46\r\r\n"2022-06-04 14:24:58
"||||||||||||-45,6969,$ACCEL,-0.79,0.94,9.84,$ALT,659.21,-198.250,3520.8110,N,11748.4920,W,2,16,0.65,634.8,M,-29.4,M,,*46\r\r\n"2022-06-04 14:24:59
"||||||||||||-49,6969,$GNRMC,142454.000,2,8W10,\r$GNGGA,142455.000,3520.8114,N,11748.4918,W,2,16,0.65,634.8,M,-29.4,M,,*48\r\r\n"2022-06-04 14:24:59
"||||||||||||-47,6969,$ACCEL,-0.80,0.95,9.84,$ALT,659.13,-198.150,3520.8114,N,11748.4918,W,2,16,0.65,634.8,M,-29.4,M,,*48\r\r\n"2022-06-04 14:25:00
"||||||||||||-49,6969,$GNRMC,142455.000A814020D$GNGGA,142456.000,3520.8116,N,11748.4917,W,2,16,0.65,634.9,M,-29.4,M,,*47\r`\r\n"2022-06-04 14:25:00
"||||||||||||-48,6969,$ACCEL,-0.79,0.95,9.83,$ALT,659.39,-198.19B\u0001\r\n"2022-06-04 14:25:01
"||||||||||||-48,6969,$GNRMC,142456.000,A564,,,,\r$GNGGA,142457.000,3520.8120,N,11748.4916,W,2,16,0.65,634.9,M,-29.4,M,,*42\r\r\n"2022-06-04 14:25:01
"||||||||||||-47,6969,$ACCEL,-0.80,0.93,9.81,$ALT,659.34,-198.1600,3520.8120,N,11748.4916,W,2,16,0.65,634.9,M,-29.4,M,,*42\r\r\n"2022-06-04 14:25:02
"||||||||||||-47,6969,$GNRMC,142457.000,A504,2025$GNGGA,142458.000,3520.8123,N,11748.4916,W,2,16,0.65,634.9,M,-29.4,M,,*4E\r\r\n"2022-06-04 14:25:02
"||||||||||||-47,6969,$ACCEL,-0.79,0.94,9.84,$ALT,659.33,-198.2000,3520.8123,N,11748.4916,W,2,16,0.65,634.9,M,-29.4,M,,*4E\r\r\n"2022-06-04 14:25:03
"||||||||||||-47,6969,$GNRMC,142458.0,119..6*$GNGGA,142459.000,3520.8127,N,11748.4915,W,2,16,0.65,634.9,M,-29.4,M,,*48\r*4E\r\r\n"2022-06-04 14:25:03
"||||||||||||-47,6969,$ACCEL,-0.79,0.94,9.84,$ALT,659.52,-198.28B\u0001\r\n"2022-06-04 14:25:04
"||||||||||||-47,6969,$GNRMC,142459.003275602D$GNGGA,142500.000,3520.8129,N,11748.4916,W,2,16,0.65,635.0,M,-29.4,M,,*40\r\r\n"2022-06-04 14:25:04
"||||||||||||-45,6969,$ACCEL,-0.80,0.93,9.84,$ALT,659.40,-198.253520.8129,N,11748.4916,W,2,16,0.65,635.0,M,-29.4,M,,*40\r\r\n"2022-06-04 14:25:04
"||||||||||||-47,6969,$GNRMC,142500.000N8W20,$ALT,659.40,-198\r\n"2022-06-04 14:25:05
"||||||||||||-47,6969,$ACCEL,-0.80,0.93,9.84,$ALT,659.46,-198.28B\u0001\r\n"2022-06-04 14:25:05
"||||||||||||-47,6969,$ACCEL,-0.79,0.93,9.84,$ALT,659.33,-198.23\r\n"2022-06-04 14:25:06
"||||||||||||-49,6969,$GNRMC,142501.00N.,64,,$ALT,659.33,-198\r\n"2022-06-04 14:25:06
"||||||||||||-48,6969,$ACCEL,-0.79,0.93,9.84,$ALT,659.33,-198.22B\u0001\r\n"2022-06-04 14:25:06
"||||||||||||-49,6969,$ACCEL,-0.79,0.93,9.84,$ALT,659.41,-198.25\r\n"2022-06-04 14:25:07
"||||||||||||-48,6969,$GNRMC,14250,0N.,64,$GNGGA,142503.000,3520.8136,N,11748.4918,W,2,16,0.65,635.1,M,-29.4,M,,*42\r\r\n"2022-06-04 14:25:07
"||||||||||||-44,6969,$GNRMC,142503.000,A.,4020D$GNGGA,142504.000,3520.8138,N,11748.4918,W,2,16,0.65,635.1,2,$10584,,,2D$GNGGA,142505.000,35\r\n"2022-06-04 14:25:09
"||||||||||||-47,6969,$ACCEL,-0.79,0.95,9.85,$ALT,659.42,-198.250,3520.8138,N,11748.4918,W,2,16,0.65,635.1,2,$10584,,,2D$GNGGA,142505.000,35\r\n"2022-06-04 14:25:10
"||||||||||||-48,6969,$GNRMC$GNGGA,142506.000,3520.8140,N,11748.4917,W,2,15,0.69,635.2,M,-29.4,M,,*45\r35.1,2,$10584,,,2D$GNGGA,142505.000,35\r\n"2022-06-04 14:25:10
