"Feather LoRa RX Test!\r\n"2022-06-04 00:27:00
"LoRa radio init OK!\r\n"2022-06-04 00:27:00
"Set Freq to: 915.00\r\n"2022-06-04 00:27:00
"||||||||||||-55,6969,$ACCEL,0.32,0.40,9.92,$ALT,680.02,-208.11\r\n"2022-06-04 00:27:01
"||||||||||||-56,6969,$GNRMC,002658.00039703,2C$GNGGA,002659.000,3520.8191,N,11748.4990,W,1,16,0.62,626.2,M,-29.4,M,,*43\r`\r\n"2022-06-04 00:27:01
"||||||||||||-55,6969,$ACCEL,0.32,0.40,9.92,$ALT,680.14,-208.140,3520.8191,N,11748.4990,W,1,16,0.62,626.2,M,-29.4,M,,*43\r`\r\n"2022-06-04 00:27:01
"||||||||||||-54,6969,$GNRMC,002659.00514,,0,ALT,680.14,-208.\r\n"2022-06-04 00:27:01
"||||||||||||-56,6969,$ACCEL,0.32,0.41,9.92,$ALT,680.12,-208.13\r\n"2022-06-04 00:27:02
"||||||||||||-55,6969,$GNGGA,002700.000,3520.8192,N,11748.4990,W,1,16,0.62,626.2,M,-29.4,M,,*4D\r\r\n"2022-06-04 00:27:02
"||||||||||||-53,6969,$ACCEL,0.31,0.41,9.92,$ALT,680.16,-208.15W,1,16,0.62,626.2,M,-29.4,M,,*4D\r\r\n"2022-06-04 00:27:03
"||||||||||||-54,6969,$GNRMC,002700.0,119.825$GNGGA,002701.000,3520.8193,N,11748.4991,W,1,16,0.62,626.1,M,-29.4,M,,*4F\r\r\n"2022-06-04 00:27:03
"||||||||||||-54,6969,$ACCEL,0.31,0.42,9.94,$ALT,680.23,-208.173520.8193,N,11748.4991,W,1,16,0.62,626.1,M,-29.4,M,,*4F\r\r\n"2022-06-04 00:27:04
"||||||||||||-53,6969,$GNRMC,002701.000,.,40.6*$GNGGA,002702.000,3520.8192,N,11748.4991,W,1,16,0.62,626.0,M,-29.4,M,,*4C\r`\r\n"2022-06-04 00:27:04
"||||||||||||-57,6969,$ACCEL,0.33,0.41,9.93,$ALT,680.23,-208.17\r\n"2022-06-04 00:27:05
"||||||||||||-55,6969,$GNRMC,002702.052714,,\r$GNGGA,002703.000,3520.8192,N,11748.4990,W,1,16,0.62,626.0,M,-29.M\u000f\r\n"2022-06-04 00:27:05
"||||||||||||-58,6969,$ACCEL,0.32,0.42,9.94,$ALT,680.08,-208.143520.8192,N,11748.4990,W,1,16,0.62,626.0,M,-29.M\u000f\r\n"2022-06-04 00:27:06
"||||||||||||-58,6969,,.3919152F$GNGGA,002704.000,3520.8192,N,11748.4990,W,1,15,0.66,625.9,M,-29.4,M,,*46\r\r\n"2022-06-04 00:27:06
"||||||||||||-58,6969,$ACCEL,0.32,0.40,9.94,$ALT,680.02,-208.131748.4990,W,1,15,0.66,625.9,M,-29.4,M,,*46\r\r\n"2022-06-04 00:27:07
"||||||||||||-57,6969,$GNRMC,002704.000,A,351191523$GNGGA,002705.000,3520.8192,N,11748.4989,W,1,16,0.62,625.9,M,-29.4,M,,*48\r@B\u000f\r\n"2022-06-04 00:27:07
"||||||||||||-56,6969,$ACCEL,0.32,0.42,9.94,$ALT,680.16,-208.165.000,3520.8192,N,11748.4989,W,1,16,0.62,625.9,M,-29.4,M,,*48\r@B\u000f\r\n"2022-06-04 00:27:08
"||||||||||||-56,6969,$GNRMC,002705.00A8190.6*$GNGGA,002706.000,3520.8193,N,11748.4988,W,1,15,0.66,625.8,M,-29.4,M,,*4D\r,*48\r@B\u000f\r\n"2022-06-04 00:27:08
"||||||||||||-56,6969,$ACCEL,0.31,0.41,9.94,$ALT,680.08,-208.14\r\n"2022-06-04 00:27:09
"||||||||||||-56,6969,$GNRMC,002706.0059786,,\r$GNGGA,002707.000,3520.8194,N,11748.4988,W,1,15,0.66,625.7,M,-29.4,M,,*44\r\r\n"2022-06-04 00:27:09
"||||||||||||-57,6969,$ACCEL,0.31,0.40,9.93,$ALT,680.33,-208.22,3520.8194,N,11748.4988,W,1,15,0.66,625.7,M,-29.4,M,,*44\r\r\n"2022-06-04 00:27:10
"||||||||||||-58,6969,$GNRMC,002707.000,39787,,\r$GNGGA,002708.000,3520.8193,N,11748.4988,W,1,15,0.66,625.7,M,-29.4,M,,*4C\r\r\n"2022-06-04 00:27:10
"||||||||||||-57,6969,$ACCEL,0.31,0.41,9.94,$ALT,680.28,-208.2100,3520.8193,N,11748.4988,W,1,15,0.66,625.7,M,-29.4,M,,*4C\r\r\n"2022-06-04 00:27:11
"||||||||||||-56,6969,$GNRMC,002708.000,A0N.,60A$GNGGA,002709.000,3520.8193,N,11748.4987,W,1,15,0.66,625.7,M,-29.4,M,,*42\r\r\n"2022-06-04 00:27:11
"||||||||||||-54,6969,$ACCEL,0.31,0.41,9.94,$ALT,679.93,-208.10\r\n"2022-06-04 00:27:11
"||||||||||||-54,6969,$GNRMC,002709.002,8W30,\r\n"2022-06-04 00:27:11
"||||||||||||-51,6969,$ACCEL,0.33,0.43,9.94,$ALT,680.07,-208.15\r\n"2022-06-04 00:27:12
"||||||||||||-53,6969,$GNRMC,002710.0A.,40.6*$GNGGA,002711.000,3520.8192,N,11748.4988,W,1,15,0.66,625.6,M,-29.4,M,,*44\r\r\n"2022-06-04 00:27:13
"||||||||||||-54,6969,$ACCEL,0.32,0.40,9.93,$ALT,680.25,-208.19\r\n"2022-06-04 00:27:14
"||||||||||||-48,6969,$GNRMC,002711.0000N.,60,$GNGGA,002712.000,3520.8192,N,11748.4988,W,1,15,0.66,625.6,M,-29.4,M,,*47\r\r\n"2022-06-04 00:27:14
"||||||||||||-52,6969,$ACCEL,0.30,0.40,9.92,$ALT,680.21,-208.18,3520.8192,N,11748.4988,W,1,15,0.66,625.6,M,-29.4,M,,*47\r\r\n"2022-06-04 00:27:15
"||||||||||||-53,6969,$GNRMC,002712.00039780,,F$GNGGA,002713.000,3520.8191,N,11748.4988,W,1,15,0.66,625.6,M,-.4R700N.,60A$GNGGA,002714.000,3 \r\n"2022-06-04 00:27:16
"||||||||||||-51,6969,$ACCEL,0.31,0.41,9.95,$ALT,680.10,-208.140,3520.8191,N,11748.4988,W,1,15,0.66,625.6,M,-.4R700N.,60A$GNGGA,002714.000,3 \r\n"2022-06-04 00:27:16
"||||||||||||-51,6969,$GNRMC,002714.000,A,594,,0,\r$GNGGA,002715.000,3520.8188,N,11748.4987,W,1,16,0.66,625.6,M,-29.4,M,,*47\r @B\u000f\r\n"2022-06-04 00:27:17
"||||||||||||-53,6969,$ACCEL,0.31,0.41,9.94,$ALT,680.37,-208.22\r\n"2022-06-04 00:27:17
"||||||||||||-54,6969,$GNRMC,002715.000,38773,,\r$GNGGA,002716.000,3520.8188,N,11748.4987,W,1,16,0.66,625.6,M,-29.4,M,,*44\r\r\n"2022-06-04 00:27:18
"||||||||||||-54,6969,$ACCEL,0.31,0.42,9.93,$ALT,680.18,-208.1600,3520.8188,N,11748.4987,W,1,16,0.66,625.6,M,-29.4,M,,*44\r\r\n"2022-06-04 00:27:18
"||||||||||||-54,6969,$GNRMC,002716.002,8W34,\r\n"2022-06-04 00:27:18
"||||||||||||-53,6969,$ACCEL,0.31,0.42,9.93,$ALT,679.92,-208.09\r\n"2022-06-04 00:27:19
"||||||||||||-53,6969,$GNGGA,002717.000,3520.8188,N,11748.4987,W,1,16,0.66,625.5,M,-29.4,M,,*46\r\r\n"2022-06-04 00:27:19
"||||||||||||-52,6969,$ACCEL,0.29,0.40,9.91,$ALT,680.52,-208.28\r\n"2022-06-04 00:27:20
"||||||||||||-53,6969,$GNRMC,002717.000,A,3520.8188,N,11748.4987,W,0$GNGGA,002718.000,3520.8188,N,11748.4988,W,1,16,0.66,625.5,M,-29.4,M,,*4 \r\n"2022-06-04 00:27:20
"||||||||||||-51,6969,$ACCEL,0.32,0.41,9.91,$ALT,680.22,-208.197,W,0$GNGGA,002718.000,3520.8188,N,11748.4988,W,1,16,0.66,625.5,M,-29.4,M,,*4 \r\n"2022-06-04 00:27:21
"||||||||||||-51,6969,$GNRMC,002718.000,A,3520.818$GNGGA,002719.000,3520.8186,N,11748.4987,W,1,16,0.66,625.5,M,-29.4,M,,*46\r.5,M,-29.4,M,,*4 \r\n"2022-06-04 00:27:21
"||||||||||||-52,6969,$ACCEL,0.30,0.40,9.94,$ALT,680.43,-208.25\r\n"2022-06-04 00:27:22
"||||||||||||-52,6969,$GNRMC,002719.000,A,3520.8$GNGGA,002720.000,3520.8185,N,11748.4987,W,1,15,0.66,625.5,M,-29.4,M,,4R200N.,60,$GNGGA,0027\r\n"2022-06-04 00:27:23
"||||||||||||-53,6969,$ACCEL,0.32,0.41,9.92,$ALT,680.23,-208.1800,3520.8185,N,11748.4987,W,1,15,0.66,625.5,M,-29.4,M,,4R200N.,60,$GNGGA,0027\r\n"2022-06-04 00:27:23
"||||||||||||-54,6969,$GNRMC,002721.000,A,3119.825$GNGGA,002722.000,3520.8184,N,11748.4987,W,1,16,0.66,625.5,M,-29.4,M,,*4C\r.,60,$GNGGA,0027\r\n"2022-06-04 00:27:24
"||||||||||||-53,6969,$ACCEL,0.32,0.41,9.93,$ALT,680.21,-208.18\r\n"2022-06-04 00:27:24
"||||||||||||-52,6969,$GNRMC,00272,.,40.6*$GNGGA,002723.000,3520.8184,N,11748.4988,W,1,16,0.66,625.5,M,-29.4,M,,*42\r\r\n"2022-06-04 00:27:25
"||||||||||||-52,6969,$ACCEL,0.32,0.40,9.92,$ALT,680.11,-208.14\r\n"2022-06-04 00:27:25
"||||||||||||-52,6969,$GNRMC,002723.0002,8W34,LT,680.11,-208.\r\n"2022-06-04 00:27:25
"||||||||||||-53,6969,$ACCEL,0.32,0.40,9.92,$ALT,679.99,-208.12\r\n"2022-06-04 00:27:26
"||||||||||||-53,6969,$ACCEL,0.30,0.40,9.93,$ALT,679.92,-208.09\r\n"2022-06-04 00:27:27
"||||||||||||-53,6969,$GNRMC,002724.000,A,3520.8183,N,11748.4987,W,0.11,3$GNGGA,002725.000,3520.8181,N,11748.4986,W,1,16,0.66,625.4,M,-29.4, \r\n"2022-06-04 00:27:27
"||||||||||||-53,6969,$ACCEL,0.32,0.42,9.94,$ALT,680.22,-208.197,W,0.11,3$GNGGA,002725.000,3520.8181,N,11748.4986,W,1,16,0.66,625.4,M,-29.4, \r\n"2022-06-04 00:27:28
"||||||||||||-53,6969,$GNRMC,002725.000,A,3520.14,$GNGGA,002726.000,3520.8181,N,11748.4985,W,1,16,0.66,625.4,M,-29.4,M,,*4E\r @B\u000f\r\n"2022-06-04 00:27:28
"||||||||||||-53,6969,$ACCEL,0.31,0.41,9.93,$ALT,679.63,-208.02.000,3520.8181,N,11748.4985,W,1,16,0.66,625.4,M,-29.4,M,,*4E\r @B\u000f\r\n"2022-06-04 00:27:29
"||||||||||||-53,6969,$GNRMC,002726.000,A,$GNGGA,002727.000,3520.8181,N,11748.4985,W,1,16,0.66,625.4,M,-29.4,M,,*4F\rN202,8W34,B\u000f\r\n"2022-06-04 00:27:29
"||||||||||||-52,6969,$ACCEL,0.31,0.42,9.94,$ALT,680.40,-208.27\r\n"2022-06-04 00:27:30
"||||||||||||-52,6969,$GNRMC,002728.000,A,0N.,34,$GNGGA,002729.000,3520.8181,N,11748.4985,W,1,16,0.66,625.4,M,-29.4,M,,*41\r\r\n"2022-06-04 00:27:31
"||||||||||||-52,6969,$ACCEL,0.32,0.40,9.93,$ALT,680.19,-208.18\r\n"2022-06-04 00:27:32
"||||||||||||-53,6969,$GNRMC,002729.A8,40.6*$GNGGA,002730.000,3520.8181,N,11748.4985,W,1,16,0.66,625.4,M,-29.4,M,,*49\r\r\n"2022-06-04 00:27:32
"||||||||||||-53,6969,$ACCEL,0.31,0.41,9.92,$ALT,680.14,-208.16520.8181,N,11748.4985,W,1,16,0.66,625.4,M,-29.4,M,,*49\r\r\n"2022-06-04 00:27:32
"||||||||||||-53,6969,$GNRMC,002730.0514,,0,$ALT,680.14,-208.16520.8181,N,11748.4985,W,1,16,0.66,625.4,M,-29.4,M,,*49\r\r\n"2022-06-04 00:27:32
"||||||||||||-53,6969,$ACCEL,0.31,0.41,9.92,$ALT,680.98,-208.43520.8181,N,11748.4985,W,1,16,0.66,625.4,M,-29.4,M,,*49\r\r\n"2022-06-04 00:27:33
"||||||||||||-53,6969,$GNGGA,002731.000,3520.8181,N,11748.4985,W,1,15,0.66,625.4,M,-29.4,M,,*4B\r,625.4,M,-29.4,M,,*49\r\r\n"2022-06-04 00:27:33
"||||||||||||-52,6969,$ACCEL,0.32,0.41,9.93,$ALT,680.54,-208.28\r\n"2022-06-04 00:27:34
"||||||||||||-53,6969,$GNRMC,002731.00,1183525$GNGGA,002732.000,3520.8180,N,11748.4985,W,1,15,0.66,625.3,M,-29.4,M,,*4E\r\r\n"2022-06-04 00:27:34
"||||||||||||-52,6969,$ACCEL,0.31,0.40,9.92,$ALT,679.52,-207.96,3520.8180,N,11748.4985,W,1,15,0.66,625.3,M,-29.4,M,,*4E\r\r\n"2022-06-04 00:27:35
"||||||||||||-54,6969,$GNRMC,002732.000,,819.825$GNGGA,002733.000,3520.8180,N,11748.4986,W,1,15,0.66,625.4,M,-29.4,M,,*4B\r\u0001\r\n"2022-06-04 00:27:35
"||||||||||||-52,6969,$ACCEL,0.32,0.42,9.93,$ALT,679.93,-208.10\r\n"2022-06-04 00:27:36
"||||||||||||-52,6969,$GNRMC,002733.000,,819.825$GNGGA,002734.000,3520.8181,N,11748.4986,W,1,15,0.66,625.4,M,-2,\r\n"2022-06-04 00:27:36
"||||||||||||-53,6969,$ACCEL,0.31,0.40,9.93,$ALT,680.17,-208.1900,3520.8181,N,11748.4986,W,1,15,0.66,625.4,M,-2,\r\n"2022-06-04 00:27:36
"||||||||||||-53,6969,,.38762526$GNGGA,002735.000,3520.8181,N,11748.4986,W,1,15,0.66,625.4,M,-29.4,M,,*4C\r\r\n"2022-06-04 00:27:37
"||||||||||||-54,6969,$ACCEL,0.31,0.41,9.93,$ALT,680.05,-208.171748.4986,W,1,15,0.66,625.4,M,-29.4,M,,*4C\r\r\n"2022-06-04 00:27:37
"||||||||||||-54,6969,$GNRMC,002735.000,A,30N.W34,$GNGGA,002736.000,3520.8182,N,11748.4986,W,1,15,0.66,625.4,M,-29.4,M,,*4C\r @B\u000f\r\n"2022-06-04 00:27:38
"||||||||||||-52,6969,$ACCEL,0.29,0.40,9.93,$ALT,680.21,-208.22\r\n"2022-06-04 00:27:38
"||||||||||||-52,6969,$GNRMC,002736.0,118.825$GNGGA,002737.000,3520.8181,N,11748.4986,W,1,15,0.66,625.4,M,-29.4,M,,*4E\r\r\n"2022-06-04 00:27:39
"||||||||||||-53,6969,$ACCEL,0.31,0.41,9.94,$ALT,680.69,-208.373520.8181,N,11748.4986,W,1,15,0.66,625.4,M,-29.4,M,,*4E\r\r\n"2022-06-04 00:27:39
"||||||||||||-52,6969,$GNRMC,002737.000,214,,0,T,680.69,-208.\r\n"2022-06-04 00:27:39
"||||||||||||-52,6969,$ACCEL,0.31,0.41,9.94,$ALT,680.09,-208.19\r\n"2022-06-04 00:27:40
"||||||||||||-51,6969,$GNGGA,002738.000,3520.8181,N,11748.4986,W,1,15,0.66,625.4,M,-29.4,M,,*41\r\r\n"2022-06-04 00:27:40
"||||||||||||-53,6969,$ACCEL,0.32,0.40,9.93,$ALT,679.53,-208.01W,1,15,0.66,625.4,M,-29.4,M,,*41\r\r\n"2022-06-04 00:27:41
"||||||||||||-53,6969,$GNRMC,002738.000,A0N.,64,$GNGGA,002739.000,3520.8181,N,11748.4986,W,1,15,0.66,625.4,M,-29.4,M,,*40\r\u0001\r\n"2022-06-04 00:27:41
"||||||||||||-64,6969,$ACCEL,0.31,0.40,9.91,$ALT,679.78,-208.07\r\n"2022-06-04 00:27:42
"||||||||||||-55,6969,$GNRMC,002739.000,A819.86*$GNGGA,002740.000,3520.8182,N,11748.4986,W,1,15,0.66,625.4,M,-29.4,M,,*4D\r\u0001\r\n"2022-06-04 00:27:42
"||||||||||||-52,6969,$ACCEL,0.32,0.40,9.92,$ALT,680.08,-208.16\r\n"2022-06-04 00:27:42
"||||||||||||-52,6969,$GNRMC,002740.002,8W30,ALT,680.08,-208.16\r\n"2022-06-04 00:27:42
"||||||||||||-53,6969,$ACCEL,0.31,0.40,9.92,$ALT,680.69,-208.36\r\n"2022-06-04 00:27:43
"||||||||||||-55,6969,$GNGGA,002741.000,3520.8182,N,11748.4987,W,1,15,0.66,625.5,M,-,$0.38774,,3$GNGGA,002742.000,3520.8182,N,11748.4987,W,1\r\n"2022-06-04 00:27:44
"||||||||||||-53,6969,$ACCEL,0.30,0.40,9.93,$ALT,681.07,-208.49W,1,15,0.66,625.5,M,-,$0.38774,,3$GNGGA,002742.000,3520.8182,N,11748.4987,W,1\r\n"2022-06-04 00:27:44
"||||||||||||-53,6969,$GNRMC,002742.000,A,35819..6*$GNGGA,002743.000,3520.8181,N,11748.4986,W,1,15,0.66,625.5,M,-29.4,M,,*4C\r@B\u000f\r\n"2022-06-04 00:27:45
"||||||||||||-53,6969,$ACCEL,0.30,0.40,9.93,$ALT,681.26,-208.543.000,3520.8181,N,11748.4986,W,1,15,0.66,625.5,M,-29.4,M,,*4C\r@B\u000f\r\n"2022-06-04 00:27:45
"||||||||||||-53,6969,$GNRMC,002743.0002,8W30,LT,681.26,-208.\r\n"2022-06-04 00:27:45
"||||||||||||-52,6969,$ACCEL,0.31,0.40,9.92,$ALT,680.83,-208.40\r\n"2022-06-04 00:27:46
"||||||||||||-53,6969,$GNGGA,002744.000,3520.8181,N,11748.4987,W,1,15,0.66,625.5,M,-29.4,M,,**$GNGGA,002745.000,3520.8182,N,11748.4986,W,1,1 \r\n"2022-06-04 00:27:46
"||||||||||||-54,6969,$ACCEL,0.31,0.41,9.94,$ALT,680.69,-208.36W,1,15,0.66,625.5,M,-29.4,M,,**$GNGGA,002745.000,3520.8182,N,11748.4986,W,1,1 \r\n"2022-06-04 00:27:47
"||||||||||||-53,6969,$GNRMC,002745.000,A,3520.8182,N,11748.4986,W,0.15,356.57,040622,\r$GNGGA,002746.000,3520.8182,N,11748.4986,W,1,15,0.66, \r\n"2022-06-04 00:27:48
"||||||||||||-53,6969,$ACCEL,0.32,0.42,9.92,$ALT,679.80,-208.076,W,0.15,356.57,040622,\r$GNGGA,002746.000,3520.8182,N,11748.4986,W,1,15,0.66, \r\n"2022-06-04 00:27:48
"||||||||||||-53,6969,$GNRMC,0027402,8W30,\r$GNGGA,002747.000,3520.8180,N,11748.4986,W,1,15,0.66,625.5,M,-M\r\n"2022-06-04 00:27:48
"||||||||||||-52,6969,$ACCEL,0.32,0.40,9.91,$ALT,680.60,-208.32\r\n"2022-06-04 00:27:49
"||||||||||||-52,6969,,.38781526$GNGGA,002748.000,3520.8180,N,11748.4986,W,1,15,0.66,625.5,M,-29.4,M,,*46\r\r\n"2022-06-04 00:27:49
"||||||||||||-52,6969,$ACCEL,0.31,0.40,9.91,$ALT,680.11,-208.16\r\n"2022-06-04 00:27:50
"||||||||||||-52,6969,$GNRMC,002748.000,A,3520.8180,N,11748.4$GNGGA,002749.000,3520.8181,N,11748.4986,W,1,15,0.66,625.5,M,-29.4,M,,*46\r\r\n"2022-06-04 00:27:50
"||||||||||||-52,6969,$ACCEL,0.31,0.39,9.92,$ALT,680.05,-208.15NGGA,002749.000,3520.8181,N,11748.4986,W,1,15,0.66,625.5,M,-29.4,M,,*46\r\r\n"2022-06-04 00:27:51
"||||||||||||-50,6969,$GNRMC,002749.000,A,3520.8181,N,11748.498..6*$GNGGA,002750.000,3520.8181,N,11748.4986,W,1,15,0.66,625.5,M,-29.4,M,,*4E\r\n"2022-06-04 00:27:52
"||||||||||||-50,6969,$ACCEL,0.31,0.40,9.94,$ALT,680.19,-208.20..6*$GNGGA,002750.000,3520.8181,N,11748.4986,W,1,15,0.66,625.5,M,-29.4,M,,*4E\r\n"2022-06-04 00:27:52
"||||||||||||-50,6969,$GNRMC,00202,8W3,,\r$GNGGA,002751.000,3520.8182,N,11748.4986,W,1,15,0.66,625.5,M,-29.4,M,,*4C\r\r\n"2022-06-04 00:27:53
"||||||||||||-52,6969,$ACCEL,0.32,0.41,9.92,$ALT,680.36,-208.25\r\n"2022-06-04 00:27:53
"||||||||||||-52,6969,$GNRMC,002751.000,A,.$GNGGA,002752.000,3520.8182,N,11748.4986,W,1,15,0.66,625.5,M,-29.4,M,,*4F\r\r\n"2022-06-04 00:27:54
"||||||||||||-51,6969,$ACCEL,0.31,0.41,9.93,$ALT,680.24,-208.21\r\n"2022-06-04 00:27:54
"||||||||||||-51,6969,$GNRMC,002752.000,A,3520.8124,472B$GNGGA,002753.000,3520.8182,N,11748.4987,W,1,15,0.66,625.5,M,-29.4,M,,*4F\r\u0001\r\n"2022-06-04 00:27:55
"||||||||||||-50,6969,$ACCEL,0.31,0.41,9.93,$ALT,679.69,-208.04002753.000,3520.8182,N,11748.4987,W,1,15,0.66,625.5,M,-29.4,M,,*4F\r\u0001\r\n"2022-06-04 00:27:55
"||||||||||||-50,6969,$GNRMC,0027502,8W30,3,$ALT,679.69,-208.\r\n"2022-06-04 00:27:55
"||||||||||||-50,6969,$ACCEL,0.32,0.40,9.94,$ALT,679.62,-208.02\r\n"2022-06-04 00:27:56
"||||||||||||-51,6969,$GNRMC,00200N.,50,.94,$\r\n"2022-06-04 00:27:56
"||||||||||||-50,6969,$ACCEL,0.31,0.41,9.93,$ALT,680.00,-208.14\r\n"2022-06-04 00:27:57
"||||||||||||-50,6969,$GNGGA,002755.000,3520.8181,N,11748.4987,W,1,15,0.66,625.5,M,-29.4,M,,*4A\r\r\n"2022-06-04 00:27:57
"||||||||||||-50,6969,$ACCEL,0.31,0.41,9.93,$ALT,680.00,-208.14\r\n"2022-06-04 00:27:57
"||||||||||||-50,6969,$GNRMC,002755.0000N.,30,LT,680.00,-208.\r\n"2022-06-04 00:27:57
"||||||||||||-53,6969,$ACCEL,0.31,0.40,9.93,$ALT,679.99,-208.16\r\n"2022-06-04 00:27:58
"||||||||||||-51,6969,$ACCEL,0.31,0.41,9.93,$ALT,680.29,-208.25\r\n"2022-06-04 00:27:59
"||||||||||||-51,6969,$GNRMC,002756.00,.N.,54,$GNGGA,002757.000,3520.8181,N,11748.4986,W,1,15,0.66,625.5,M,-2.4002,8W30,\r$GNGGA,002758.000,3 \r\n"2022-06-04 00:27:59
"||||||||||||-51,6969,$ACCEL,0.30,0.40,9.92,$ALT,680.67,-208.36,3520.8181,N,11748.4986,W,1,15,0.66,625.5,M,-2.4002,8W30,\r$GNGGA,002758.000,3 \r\n"2022-06-04 00:28:00
"||||||||||||-50,6969,753726$GNGGA,002759.000,3520.8181,N,11748.4984,W,1,15,0.66,625.5,M,-29.4,M,,*45\r.5,M,-2.4002,8W30,\r$GNGGA,002758.000,3 \r\n"2022-06-04 00:28:00
"||||||||||||-50,6969,$ACCEL,0.30,0.41,9.93,$ALT,680.66,-208.35.4984,W,1,15,0.66,625.5,M,-29.4,M,,*45\r.5,M,-2.4002,8W30,\r$GNGGA,002758.000,3 \r\n"2022-06-04 00:28:01
"||||||||||||-51,6969,$GNRMC,002759.000,A$GNGGA,002800.000,3520.8182,N,11748.4984,W,1,15,0.66,625.5,M,-29.4,M,,*45\r8W30,\r$GNGGA,002758.000,3 \r\n"2022-06-04 00:28:01
"||||||||||||-49,6969,$ACCEL,0.30,0.41,9.93,$ALT,680.78,-208.38\r\n"2022-06-04 00:28:01
"||||||||||||-51,6969,$GNRM200N.,30,41,9.93,$ALT,680.78,-208.38\r\n"2022-06-04 00:28:01
"||||||||||||-51,6969,$ACCEL,0.30,0.41,9.93,$ALT,680.60,-208.32\r\n"2022-06-04 00:28:02
"||||||||||||-51,6969,$GNGGA,002801.000,3520.8182,N,11748.4984,W,1,15,0.66,625.5,M,-29.4,M,,*44\r\r\n"2022-06-04 00:28:02
"||||||||||||-51,6969,$ACCEL,0.31,0.40,9.92,$ALT,679.93,-208.11W,1,15,0.66,625.5,M,-29.4,M,,*44\r\r\n"2022-06-04 00:28:03
"||||||||||||-50,6969,$GNRMC,002801.000,A,3520.8182,N,11748.4984,W,0.07,356.57,0406,\r$GNGGA,002802.000,3520.8182,N,11748.4984,W,1,15,0.66,62 \r\n"2022-06-04 00:28:03
"||||||||||||-49,6969,$GNRMC,0028038741526$GNGGA,002803.000,3520.8182,N,11748.4984,W,1,15,0.66,625.4,M,-29.4,M,,*47\r\r\n"2022-06-04 00:28:04
"||||||||||||-51,6969,$ACCEL,0.30,0.41,9.93,$ALT,680.11,-208.160.8182,N,11748.4984,W,1,15,0.66,625.4,M,-29.4,M,,*47\r\r\n"2022-06-04 00:28:06
"||||||||||||-51,6969,$GNRMC,002803.000,A,35.,40$GNGGA,002804.000,3520.8182,N,11748.4984,W,1,15,0.66,625.4,M,-29.4,M,0M8,.,4060A$GNGGA,00280 \r\n"2022-06-04 00:28:06
"||||||||||||-51,6969,$ACCEL,0.32,0.41,9.92,$ALT,680.72,-208.3500,3520.8182,N,11748.4984,W,1,15,0.66,625.4,M,-29.4,M,0M8,.,4060A$GNGGA,00280 \r\n"2022-06-04 00:28:07
"||||||||||||-51,6969,$GNRMC,002805.000,A,3528749726$GNGGA,002806.000,3520.8184,N,11748.4985,W,1,16,0.62,625.4,M,-29.4,M,,*42\r\r\n"2022-06-04 00:28:08
"||||||||||||-50,6969,$ACCEL,0.30,0.41,9.92,$ALT,680.46,-208.2806.000,3520.8184,N,11748.4985,W,1,16,0.62,625.4,M,-29.4,M,,*42\r\r\n"2022-06-04 00:28:09
"||||||||||||-50,6969,$ACCEL,0.34,0.42,9.92,$ALT,680.64,-208.3406.000\r\n"2022-06-04 00:28:10
"||||||||||||-50,6969,$GNRMC,002807.000,544,,,,6$GNGGA,002808.000,3520.8185,N,11748.4985,W,1,15,0.66,625.4,M,-29.4,M,,*4A\r\r\n"2022-06-04 00:28:10
"||||||||||||-51,6969,$ACCEL,0.29,0.41,9.93,$ALT,679.67,-208.0300,3520.8185,N,11748.4985,W,1,15,0.66,625.4,M,-29.4,M,,*4A\r\r\n"2022-06-04 00:28:11
"||||||||||||-51,6969,$GNRMC,002808.000,A,3520.8185,N,11748.4985,W,0.2$GNGGA,002809.000,3520.8186,N,11748.4985,W,1,15,0.66,625.4,M,-29.4,M,, \r\n"2022-06-04 00:28:11
"||||||||||||-51,6969,$ACCEL,0.30,0.41,9.92,$ALT,680.57,-208.30\r\n"2022-06-04 00:28:12
"||||||||||||-51,6969,$GNRMC,002809.000,A,3520.8186,$GNGGA,002810.000,3520.8187,N,11748.4985,W,1,15,0.66,625.4,M,-29.4,M,,*41\rB\u000f\r\n"2022-06-04 00:28:12
"||||||||||||-51,6969,$ACCEL,0.31,0.40,9.92,$ALT,680.15,-208.18\r\n"2022-06-04 00:28:13
"||||||||||||-51,6969,$GNRMC,002810.000,A,$GNGGA,002811.000,3520.8187,N,11748.4984,W,1,16,0.62,625.4,M,-29.4,M,,*46\r\r\n"2022-06-04 00:28:13
"||||||||||||-51,6969,$ACCEL,0.30,0.40,9.92,$ALT,681.16,-208.49\r\n"2022-06-04 00:28:14
"||||||||||||-51,6969,$GNRMC,002811.000,A,3520.8$GNGGA,002812.000,3520.8188,N,11748.4983,W,1,16,0.62,625.3,M,-29.4,M,,*4A\r\r\n"2022-06-04 00:28:14
"||||||||||||-51,6969,$ACCEL,0.30,0.41,9.92,$ALT,680.43,-208.2600,3520.8188,N,11748.4983,W,1,16,0.62,625.3,M,-29.4,M,,*4A\r\r\n"2022-06-04 00:28:15
"||||||||||||-52,6969,$GNRMC,002812.000,A,3520.,8W30,\r$GNGGA,002813.000,3520.8189,N,11748.4984,W,1,15,0.66,625.3,M,-29.4,M,,*4A\r\r\n"2022-06-04 00:28:15
"||||||||||||-52,6969,$ACCEL,0.31,0.42,9.93,$ALT,680.47,-208.272813.000,3520.8189,N,11748.4984,W,1,15,0.66,625.3,M,-29.4,M,,*4A\r\r\n"2022-06-04 00:28:16
"||||||||||||-52,6969,$GNRMC,00800N.,54,$GNGGA,002814.000,3520.8189,N,11748.4983,W,1,16,0.62,625.3,M,-29.4,M,,*4D\rK\r\n"2022-06-04 00:28:16
"||||||||||||-52,6969,$ACCEL,0.30,0.41,9.91,$ALT,680.90,-208.398189,N,11748.4983,W,1,16,0.62,625.3,M,-29.4,M,,*4D\rK\r\n"2022-06-04 00:28:17
"||||||||||||-52,6969,$GNRMC,002814.000,594,,,,\r$GNGGA,002815.000,3520.8189,N,11748.4983,W,1,16,0.62,625.3,M,-29.4,M,,*4C\r\r\n"2022-06-04 00:28:17
"||||||||||||-51,6969,$ACCEL,0.32,0.42,9.90,$ALT,681.03,-208.4300,3520.8189,N,11748.4983,W,1,16,0.62,625.3,M,-29.4,M,,*4C\r\r\n"2022-06-04 00:28:18
"||||||||||||-51,6969,$GNRMC,002815.0594,772B$GNGGA,002816.000,3520.8189,N,11748.4983,W,1,16,0.62,625.3,M,-29.4,M,,*4F\r4C\r\r\n"2022-06-04 00:28:18
"||||||||||||-52,6969,$ACCEL,0.31,0.41,9.93,$ALT,681.15,-208.463520.8189,N,11748.4983,W,1,16,0.62,625.3,M,-29.4,M,,*4F\r4C\r\r\n"2022-06-04 00:28:19
"||||||||||||-51,6969,$GNRMC,002816.000,2,4,,,,\r$GNGGA,002817.000,3520.8189,N,11748.4983,W,1,16,0.62,625.2,M,-29.4,M,,*4F\r\r\n"2022-06-04 00:28:19
"||||||||||||-50,6969,$ACCEL,0.32,0.41,9.92,$ALT,680.08,-208.12\r\n"2022-06-04 00:28:20
"||||||||||||-51,6969,$GNRMC,0028170594,7729$GNGGA,002818.000,3520.8189,N,11748.4982,W,1,16,0.62,625.2,M,-29.4,M,,*41\r\r\n"2022-06-04 00:28:20
"||||||||||||-51,6969,$ACCEL,0.32,0.41,9.93,$ALT,680.52,-208.26\r\n"2022-06-04 00:28:21
"||||||||||||-52,6969,$GNRMC,002818.00A819..6A$GNGGA,002819.000,3520.8189,N,11748.4981,W,1,16,0.62,625.2,M,-29.4,M,,*43\r\r\n"2022-06-04 00:28:21
"||||||||||||-52,6969,$ACCEL,0.30,0.42,9.93,$ALT,680.50,-208.26,3520.8189,N,11748.4981,W,1,16,0.62,625.2,M,-29.4,M,,*43\r\r\n"2022-06-04 00:28:22
"||||||||||||-51,6969,$GNRMC,002819.00,.,.,54,$GNGGA,002820.000,3520.8191,N,11748.4981,W,1,16,0.62,625.2,M,-29.4,M,,*40\r\r\n"2022-06-04 00:28:22
"||||||||||||-53,6969,$ACCEL,0.31,0.41,9.93,$ALT,680.19,-208.17,3520.8191,N,11748.4981,W,1,16,0.62,625.2,M,-29.4,M,,*40\r\r\n"2022-06-04 00:28:23
"||||||||||||-53,6969,$GNRMC,002820.000514,,,,\r$GNGGA,002821.000,3520.8193,N,11748.4982,W,1,15,0.64,625.2,M,-29.4,M,,*45\r`\r\n"2022-06-04 00:28:23
"||||||||||||-56,6969,$ACCEL,0.31,0.41,9.93,$ALT,680.54,-208.290,3520.8193,N,11748.4982,W,1,15,0.64,625.2,M,-29.4,M,,*45\r`\r\n"2022-06-04 00:28:24
"||||||||||||-54,6969,$GNRMC,002821.0039721526$GNGGA,002822.000,3520.8193,N,11748.4981,W,1,16,0.62,625.2,M,-29.4,M,,*40\r\r\n"2022-06-04 00:28:24
"||||||||||||-55,6969,$ACCEL,0.31,0.39,9.93,$ALT,680.22,-208.18\r\n"2022-06-04 00:28:25
"||||||||||||-54,6969,$GNRMC,002822.0001182.6*$GNGGA,002823.000,3520.8193,N,11748.4981,W,1,16,0.62,625.2,M,-29.4,M,,*41\r\r\n"2022-06-04 00:28:25
"||||||||||||-65,6969,$ACCEL,0.32,0.42,9.93,$ALT,680.55,-208.29,3520.8193,N,11748.4981,W,1,16,0.62,625.2,M,-29.4,M,,*41\r\r\n"2022-06-04 00:28:26
"||||||||||||-66,6969,$GNRMC,002823.0,11..0A$GNGGA,002824.000,3520.8193,N,11748.4980,W,1,16,0.62,625.1,M,-29.4,M,,*44\r\r\n"2022-06-04 00:28:26
"||||||||||||-66,6969,$ACCEL,0.30,0.41,9.94,$ALT,680.40,-208.24\r\n"2022-06-04 00:28:27
"||||||||||||-64,6969,$GNRMC,002824.000A81954,$GNGGA,002825.000,3520.8194,N,11748.4980,W,1,16,0.62,625.1,M,-29.4,M,,*42\r\r\n"2022-06-04 00:28:27
"||||||||||||-67,6969,$ACCEL,0.31,0.41,9.93,$ALT,681.41,-208.56\r\n"2022-06-04 00:28:28
"||||||||||||-68,6969,$GNRMC,002825.000,,11860A$GNGGA,002826.000,3520.8195,N,11748.4980,W,1,16,0.62,625.1,M,-29.4,M,,*40\r`\r\n"2022-06-04 00:28:28
"||||||||||||-68,6969,$ACCEL,0.31,0.41,9.93,$ALT,680.41,-208.240,3520.8195,N,11748.4980,W,1,16,0.62,625.1,M,-29.4,M,,*40\r`\r\n"2022-06-04 00:28:28
"||||||||||||-68,6969,$GNRMC,002826.000A81404,LT,680.41,-208.240,3520.8195,N,11748.4980,W,1,16,0.62,625.1,M,-29.4,M,,*40\r`\r\n"2022-06-04 00:28:28
"||||||||||||-66,6969,$ACCEL,0.32,0.41,9.92,$ALT,680.43,-208.250,3520.8195,N,11748.4980,W,1,16,0.62,625.1,M,-29.4,M,,*40\r`\r\n"2022-06-04 00:28:29
"||||||||||||-66,6969,$GNGGA,002827.000,3520.8195,N,11748.4979,W,1,16,0.62,625.0,M,-29.4,M,,*46\r.62,625.1,M,-29.4,M,,*40\r`\r\n"2022-06-04 00:28:29
"||||||||||||-64,6969,$ACCEL,0.32,0.40,9.91,$ALT,680.11,-208.14W,1,16,0.62,625.0,M,-29.4,M,,*46\r.62,625.1,M,-29.4,M,,*40\r`\r\n"2022-06-04 00:28:30
"||||||||||||-63,6969,$GNRMC,002827.0A819..0$GNGGA,002828.000,3520.8196,N,11748.4979,W,1,16,0.62,625.0,M,-29.4,M,,*4A\r40\r`\r\n"2022-06-04 00:28:30
"||||||||||||-66,6969,$ACCEL,0.30,0.40,9.92,$ALT,680.17,-208.15\r\n"2022-06-04 00:28:31
"||||||||||||-66,6969,$GNRMC,002828.000,A391715A$GNGGA,002829.000,3520.8196,N,11748.4979,W,1,16,0.62,625.0,M,-29.4,M,,*4B\r\u0001\r\n"2022-06-04 00:28:31
"||||||||||||-66,6969,$ACCEL,0.30,0.42,9.91,$ALT,679.75,-208.04\r\n"2022-06-04 00:28:32
"||||||||||||-69,6969,$GNRMC,002829.0039171526$GNGGA,002830.000,3520.8197,N,11748.4980,W,1,16,0.62,624.9,M,-,$005770872F$GNGGA,002831.000,35 \r\n"2022-06-04 00:28:32
"||||||||||||-65,6969,$ACCEL,0.31,0.39,9.92,$ALT,680.05,-208.15,3520.8197,N,11748.4980,W,1,16,0.62,624.9,M,-,$005770872F$GNGGA,002831.000,35 \r\n"2022-06-04 00:28:33
"||||||||||||-65,6969,$GNRMC,002831.000,A,350N.,54,$GNGGA,002832.000,3520.8197,N,11748.4981,W,1,16,0.62,624.9,M,-29.4,M,,*4F\rA,002831.000,35 \r\n"2022-06-04 00:28:33
"||||||||||||-69,6969,$ACCEL,0.30,0.40,9.94,$ALT,680.34,-208.26\r\n"2022-06-04 00:28:35
"||||||||||||-66,6969,$GNRMC,002833.31181526$GNGGA,002834.000,3520.8195,N,11748.4981,W,1,15,0.66,624.8,M,-29.4,M,,*4D\r\r\n"2022-06-04 00:28:35
"||||||||||||-57,6969,$ACCEL,0.30,0.40,9.93,$ALT,680.86,-208.43\r\n"2022-06-04 00:28:36
"||||||||||||-58,6969,$GNRMC,002834.000,A,3520.8195,N,11748.4981,W,0.$GNGGA,002835.000,3520.8195,N,11748.4981,W,1,16,0.62,624.8,M,-29.4,M,,*\r\n"2022-06-04 00:28:36
"||||||||||||-60,6969,$ACCEL,0.32,0.40,9.93,$ALT,680.32,-208.27\r\n"2022-06-04 00:28:37
"||||||||||||-57,6969,$GNRMC,002835.000,A,3520.8195$GNGGA,002836.000,3520.8195,N,11748.4980,W,1,15,0.66,624.8,M,-29.4,M,,*4E\r@B\u000f\r\n"2022-06-04 00:28:38
"||||||||||||-58,6969,$ACCEL,0.32,0.40,9.94,$ALT,680.58,-208.356.000,3520.8195,N,11748.4980,W,1,15,0.66,624.8,M,-29.4,M,,*4E\r@B\u000f\r\n"2022-06-04 00:28:38
"||||||||||||-57,6969,$GNRMC,002836.000,A,352097$GNGGA,002837.000,3520.8198,N,11748.4981,W,1,16,0.62,624.8,M,-29.4,M,,*44\r\u0001\r\n"2022-06-04 00:28:38
"||||||||||||-58,6969,$ACCEL,0.30,0.41,9.94,$ALT,680.76,-208.42\r\n"2022-06-04 00:28:39
"||||||||||||-59,6969,$GNRMC,002837.000,A,35$GNGGA,002838.000,3520.8200,N,11748.4983,W,1,16,0.62,624.8,M,-29.4,M,,*4B\r\r\n"2022-06-04 00:28:39
"||||||||||||-59,6969,$ACCEL,0.32,0.39,9.94,$ALT,680.74,-208.42\r\n"2022-06-04 00:28:40
"||||||||||||-59,6969,$GNRMC,002838.000,A,3520.4,,,,\r$GNGGA,002839.000,3520.8198,N,11748.4983,W,1,16,0.62,624.8,M,-29.4,M,,*48\r\u000f\r\n"2022-06-04 00:28:41
"||||||||||||-58,6969,$ACCEL,0.32,0.39,9.91,$ALT,680.38,-208.31\r\n"2022-06-04 00:28:42
"||||||||||||-58,6969,$GNRMC,002830584,276$GNGGA,002840.000,3520.8199,N,11748.4983,W,1,16,0.62,624.7,M,-29.4,M,,*48\r\r\n"2022-06-04 00:28:42
"||||||||||||-58,6969,$ACCEL,0.32,0.39,9.91,$ALT,680.40,-208.31\r\n"2022-06-04 00:28:42
"||||||||||||-58,6969,$GNRMC,002840.000,.,4060LT,680.40,-208.31\r\n"2022-06-04 00:28:43
"||||||||||||-59,6969,$ACCEL,0.30,0.40,9.94,$ALT,680.52,-208.36\r\n"2022-06-04 00:28:43
"||||||||||||-57,6969,$ACCEL,0.30,0.40,9.94,$ALT,680.57,-208.38\r\n"2022-06-04 00:28:44
"||||||||||||-58,6969,$GNRMC,002841.000204,,,,$GNGGA,002842.000,3520.8203,N,11748.4982,W,1,15,0.62,624.7,M,-29.4,M,,*48\r\r\n"2022-06-04 00:28:44
"||||||||||||-58,6969,$ACCEL,0.31,0.38,9.93,$ALT,680.75,-208.44,3520.8203,N,11748.4982,W,1,15,0.62,624.7,M,-29.4,M,,*48\r\r\n"2022-06-04 00:28:45
"||||||||||||-58,6969,$GNRMC,002842.000A8,4060A$GNGGA,002843.000,3520.8204,N,11748.4982,W,1,15,0.62,624.7,M,-29.4,M,,*4E\r`\r\n"2022-06-04 00:28:45
"||||||||||||-57,6969,$ACCEL,0.31,0.38,9.93,$ALT,681.05,-208.520,3520.8204,N,11748.4982,W,1,15,0.62,624.7,M,-29.4,M,,*4E\r`\r\n"2022-06-04 00:28:46
"||||||||||||-57,6969,$GNRMC,002843.00N8W30,$ALT,681.05,-208.520,3520.8204,N,11748.4982,W,1,15,0.62,624.7,M,-29.4,M,,*4E\r`\r\n"2022-06-04 00:28:46
"||||||||||||-58,6969,$ACCEL,0.32,0.41,9.94,$ALT,680.81,-208.460,3520.8204,N,11748.4982,W,1,15,0.62,624.7,M,-29.4,M,,*4E\r`\r\n"2022-06-04 00:28:46
"||||||||||||-58,6969,$GNRMC,002845.000,A,3554,,,,\r$GNGGA,002846.000,3520.8205,N,11748.4981,W,1,15,0.62,624.7,M,-29.4,M,,*49\r@B\u000f\r\n"2022-06-04 00:28:48
"||||||||||||-58,6969,$ACCEL,0.29,0.41,9.91,$ALT,680.39,-208.306.000,3520.8205,N,11748.4981,W,1,15,0.62,624.7,M,-29.4,M,,*49\r@B\u000f\r\n"2022-06-04 00:28:48
"||||||||||||-59,6969,$GNRMC,002846.000N.,54,ALT,680.39,-208.306.000,3520.8205,N,11748.4981,W,1,15,0.62,624.7,M,-29.4,M,,*49\r@B\u000f\r\n"2022-06-04 00:28:48
"||||||||||||-57,6969,$ACCEL,0.30,0.41,9.92,$ALT,680.66,-208.40\r\n"2022-06-04 00:28:50
"||||||||||||-57,6969,$GNGGA,002847.000,3520.8205,N,11748.4982,W,1,15,0.62,624.7,M,-29.4,M,,*0A$GNGGA,002848.000,3520.8205,N,11748.4981,W,1, \r\n"2022-06-04 00:28:50
"||||||||||||-58,6969,$ACCEL,0.31,0.41,9.93,$ALT,680.46,-208.35W,1,15,0.62,624.7,M,-29.4,M,,*0A$GNGGA,002848.000,3520.8205,N,11748.4981,W,1, \r\n"2022-06-04 00:28:51
"||||||||||||-58,6969,$GNRMC,002848.000,A,3520717724$GNGGA,002849.000,3520.8205,N,11748.4981,W,1,14,0.67,624.7,M,-29.4,M,,*42\rB\u000f\r\n"2022-06-04 00:28:51
"||||||||||||-58,6969,$ACCEL,0.30,0.40,9.91,$ALT,680.49,-208.34\r\n"2022-06-04 00:28:52
"||||||||||||-58,6969,$GNRMC,002849.000,A,55411722$GNGGA,002850.000,3520.8205,N,11748.4982,W,1,14,0.67,624.7,M,-29.4,M2,8,,,,\r$GNGGA,002851. \r\n"2022-06-04 00:28:52
"||||||||||||-58,6969,$ACCEL,0.32,0.41,9.91,$ALT,680.45,-208.33\r\n"2022-06-04 00:28:53
"||||||||||||-58,6969,$GNRMC,002851.000,A,3520.8207,N,11748.4982,W,0.39,356.57,040,\r$GNGGA,002852.000,3520.8207,N,11748.4983,W,1,15,0.62,624 \r\n"2022-06-04 00:28:54
"||||||||||||-58,6969,$ACCEL,0.31,0.41,9.91,$ALT,680.30,-208.28\r\n"2022-06-04 00:28:54
"||||||||||||-59,6969,$GNRMC,0028502,8W30,\r$GNGGA,002853.000,3520.8208,N,11748.4984,W,1,15,0.62,624.5,M,-29.4,M,,*47\r\r\n"2022-06-04 00:28:55
"||||||||||||-59,6969,$ACCEL,0.32,0.41,9.91,$ALT,680.23,-208.26\r\n"2022-06-04 00:28:55
"||||||||||||-59,6969,$GNRMC,002853.0584,,,,6$GNGGA,002854.000,3520.8210,N,11748.4985,W,1,15,0.62,624.4,M,-29.4,M,,*49\r\r\n"2022-06-04 00:28:56
"||||||||||||-58,6969,$ACCEL,0.31,0.40,9.92,$ALT,680.07,-208.203520.8210,N,11748.4985,W,1,15,0.62,624.4,M,-29.4,M,,*49\r\r\n"2022-06-04 00:28:56
"||||||||||||-58,6969,$GNRMC,002854.000,726$GNGGA,002855.000,3520.8211,N,11748.4987,W,1,15,0.62,624.4,M,-29.4,M,,*4B\r\r\n"2022-06-04 00:28:57
"||||||||||||-57,6969,$ACCEL,0.31,0.40,9.94,$ALT,680.40,-208.3020.8211,N,11748.4987,W,1,15,0.62,624.4,M,-29.4,M,,*4B\r\r\n"2022-06-04 00:28:58
"||||||||||||-56,6969,$ACCEL,0.31,0.40,9.92,$ALT,680.45,-208.28\r\n"2022-06-04 00:28:59
"||||||||||||-56,6969,$GNRMC,002857.000,A,381$GNGGA,002858.000,3520.8212,N,11748.4991,W,1,16,0.62,624.3,M,-29.4,M,,*46\r\r\n"2022-06-04 00:29:00
"||||||||||||-56,6969,$ACCEL,0.31,0.40,9.91,$ALT,680.92,-208.433520.8212,N,11748.4991,W,1,16,0.62,624.3,M,-29.4,M,,*46\r\r\n"2022-06-04 00:29:00
"||||||||||||-56,6969,$GNRMC,002858.000,A,3$GNGGA,002859.000,3520.8213,N,11748.4992,W,1,16,0.62,624.3,M,-29.4,M,,*45\r6\r\r\n"2022-06-04 00:29:01
"||||||||||||-59,6969,$ACCEL,0.31,0.40,9.94,$ALT,680.78,-208.3820.8213,N,11748.4992,W,1,16,0.62,624.3,M,-29.4,M,,*45\r6\r\r\n"2022-06-04 00:29:01
"||||||||||||-58,6969,$GNRMC,002859.000,A,3520.81795526$GNGGA,002900.000,3520.8213,N,11748.4993,W,1,16,0.62,624.2,M,-29.4,M,,*48\r,\u0001\r\n"2022-06-04 00:29:02
"||||||||||||-55,6969,$ACCEL,0.31,0.41,9.90,$ALT,680.35,-208.2502900.000,3520.8213,N,11748.4993,W,1,16,0.62,624.2,M,-29.4,M,,*48\r,\u0001\r\n"2022-06-04 00:29:02
"||||||||||||-55,6969,$GNRMC,0029002,8,,,,\r$GNGGA,002901.000,3520.8213,N,11748.4991,W,1,16,0.62,624.2,M,-29.4,M,,*4B\r29.4,M,,*48\r,\u0001\r\n"2022-06-04 00:29:03
"||||||||||||-57,6969,$ACCEL,0.31,0.41,9.94,$ALT,680.57,-208.3320.8213,N,11748.4991,W,1,16,0.62,624.2,M,-29.4,M,,*4B\r29.4,M,,*48\r,\u0001\r\n"2022-06-04 00:29:03
"||||||||||||-56,6969,$GNRMC,002901.000,819..6*$GNGGA,002902.000,3520.8212,N,11748.4989,W,1,17,0.62,624.2,M,-29.4,M,,*41\r,M,,*48\r,\u0001\r\n"2022-06-04 00:29:05
"||||||||||||-57,6969,$ACCEL,0.30,0.41,9.93,$ALT,681.02,-208.470,3520.8212,N,11748.4989,W,1,17,0.62,624.2,M,-29.4,M,,*41\r,M,,*48\r,\u0001\r\n"2022-06-04 00:29:05
"||||||||||||-57,6969,$GNRMC,002902A819.90A$GNGGA,002903.000,3520.8212,N,11748.4989,W,1,17,0.62,624.1,M,-29.4,M,,*43\r*41\r,M,,*48\r,\u0001\r\n"2022-06-04 00:29:05
"||||||||||||-59,6969,$ACCEL,0.31,0.42,9.92,$ALT,680.67,-208.3720.8212,N,11748.4989,W,1,17,0.62,624.1,M,-29.4,M,,*43\r*41\r,M,,*48\r,\u0001\r\n"2022-06-04 00:29:06
"||||||||||||-60,6969,$GNRMC,002903.00A819..0A$GNGGA,002904.000,3520.8211,N,11748.4989,W,1,16,0.66,624.1,M,-29.4,M,,*42\r\r\n"2022-06-04 00:29:06
"||||||||||||-59,6969,$ACCEL,0.32,0.39,9.94,$ALT,680.28,-208.27,3520.8211,N,11748.4989,W,1,16,0.66,624.1,M,-29.4,M,,*42\r\r\n"2022-06-04 00:29:07
"||||||||||||-60,6969,$GNRMC,002904.0,.,4090A$GNGGA,002905.000,3520.8211,N,11748.4990,W,1,16,0.66,624.1,M,-29.4,M,,*4B\r\r\n"2022-06-04 00:29:07
"||||||||||||-61,6969,$ACCEL,0.31,0.40,9.93,$ALT,681.11,-208.533520.8211,N,11748.4990,W,1,16,0.66,624.1,M,-29.4,M,,*4B\r\r\n"2022-06-04 00:29:08
"||||||||||||-61,6969,$GNRMC,002905.000514,,,26$GNGGA,002906.000,3520.8211,N,11748.4991,W,1,16,0.66,624.1,M,-29.4,M,,*49\r`\r\n"2022-06-04 00:29:08
"||||||||||||-56,6969,$ACCEL,0.31,0.39,9.93,$ALT,680.88,-208.450,3520.8211,N,11748.4991,W,1,16,0.66,624.1,M,-29.4,M,,*49\r`\r\n"2022-06-04 00:29:09
"||||||||||||-58,6969,$GNRMC,002906.000514,,,,\r$GNGGA,002907.000,3520.8206,N,11748.4990,W,1,16,0.66,624.1,M,-29.4,M,,*4F\r,\u0001\r\n"2022-06-04 00:29:09
"||||||||||||-55,6969,$ACCEL,0.31,0.41,9.91,$ALT,680.62,-208.360,3520.8206,N,11748.4990,W,1,16,0.66,624.1,M,-29.4,M,,*4F\r,\u0001\r\n"2022-06-04 00:29:10
"||||||||||||-53,6969,$GNRMC,002907.0A819..6*$GNGGA,002908.000,3520.8207,N,11748.4990,W,1,16,0.66,624.1,M,-29.4,M,,*41\rF\r,\u0001\r\n"2022-06-04 00:29:10
"||||||||||||-53,6969,$ACCEL,0.31,0.41,9.91,$ALT,680.23,-208.233520.8207,N,11748.4990,W,1,16,0.66,624.1,M,-29.4,M,,*41\rF\r,\u0001\r\n"2022-06-04 00:29:10
"||||||||||||-52,6969,$GNRMC,002908.000,0,8W10,T,680.23,-208.233520.8207,N,11748.4990,W,1,16,0.66,624.1,M,-29.4,M,,*41\rF\r,\u0001\r\n"2022-06-04 00:29:10
"||||||||||||-52,6969,$ACCEL,0.29,0.40,9.92,$ALT,680.13,-208.213520.8207,N,11748.4990,W,1,16,0.66,624.1,M,-29.4,M,,*41\rF\r,\u0001\r\n"2022-06-04 00:29:11
"||||||||||||-53,6969,$GNGGA,002909.000,3520.8207,N,11748.4990,W,1,17,0.62,624.0,M,-29.4,M,,*44\r\r\n"2022-06-04 00:29:11
"||||||||||||-55,6969,$ACCEL,0.29,0.40,9.92,$ALT,680.04,-208.18W,1,17,0.62,624.0,M,-29.4,M,,*44\r\r\n"2022-06-04 00:29:11
"||||||||||||-57,6969,$GNRMC,002909.00,8W10,$ALT,680.04,-208.\r\n"2022-06-04 00:29:11
"||||||||||||-58,6969,$ACCEL,0.31,0.40,9.93,$ALT,679.87,-208.14\r\n"2022-06-04 00:29:12
"||||||||||||-55,6969,$GNRMC,002910.000A819..0A$GNGGA,002911.000,3520.8206,N,11748.4989,W,1,15,0.62,624.0,M,-29.4,M,,*46\r`\r\n"2022-06-04 00:29:13
"||||||||||||-54,6969,$ACCEL,0.29,0.39,9.94,$ALT,680.30,-208.290,3520.8206,N,11748.4989,W,1,15,0.62,624.0,M,-29.4,M,,*46\r`\r\n"2022-06-04 00:29:14
"||||||||||||-54,6969,$GNRMC,0029110564,,725$GNGGA,002912.000,3520.8208,N,11748.4989,W,1,15,0.62,624.0,M,-2944R9,.,4074,$GNGGA,002913.000,35 \r\n"2022-06-04 00:29:14
"||||||||||||-56,6969,$ACCEL,0.31,0.40,9.93,$ALT,680.38,-208.32\r\n"2022-06-04 00:29:15
"||||||||||||-53,6969,$GNRMC,002914.000,A,3520,8W,,,\r$GNGGA,002915.000,3520.8209,N,11748.4985,W,1,16,0.62,623.9,M,-29.4,M,,*4C\r\u000f\r\n"2022-06-04 00:29:16
"||||||||||||-54,6969,$ACCEL,0.31,0.41,9.93,$ALT,679.93,-208.18915.000,3520.8209,N,11748.4985,W,1,16,0.62,623.9,M,-29.4,M,,*4C\r\u000f\r\n"2022-06-04 00:29:17
"||||||||||||-53,6969,$GNRMC,002915.0294,,,,\r$GNGGA,002916.000,3520.8209,N,11748.4985,W,1,16,0.62,623.9,M,-29.4,M,,*4F\r,M,,*4C\r\u000f\r\n"2022-06-04 00:29:17
"||||||||||||-52,6969,$ACCEL,0.30,0.40,9.92,$ALT,680.16,-208.26\r\n"2022-06-04 00:29:18
"||||||||||||-53,6969,$GNRMC,002916.000,A,3520.8209,N,11748.4985,W,0.25,175.07,0406226$GNGGA,002917.000,3520.8208,N,11748.4985,W,1,16,0.62,6\r\n"2022-06-04 00:29:18
"||||||||||||-54,6969,$ACCEL,0.29,0.41,9.95,$ALT,680.01,-208.21\r\n"2022-06-04 00:29:19
"||||||||||||-54,6969,$GNRMC$GNGGA,002918.000,3520.8208,N,11748.4984,W,1,16,0.62,623.8,M,-29.4,M,,*40\r\r\n"2022-06-04 00:29:19
"||||||||||||-53,6969,$ACCEL,0.32,0.40,9.93,$ALT,679.54,-208.07\r\n"2022-06-04 00:29:20
"||||||||||||-54,6969,$GNRMC,002918.000,A,3520.8208,N$GNGGA,002919.000,3520.8208,N,11748.4984,W,1,16,0.62,623.7,M,-29.4,M,,*4E\r\u000f\r\n"2022-06-04 00:29:21
"||||||||||||-53,6969,$ACCEL,0.30,0.39,9.92,$ALT,679.62,-208.08919.000,3520.8208,N,11748.4984,W,1,16,0.62,623.7,M,-29.4,M,,*4E\r\u000f\r\n"2022-06-04 00:29:22
"||||||||||||-54,6969,$GNRMC,002919.000,A,352$GNGGA,002920.000,3520.8208,N,11748.4984,W,1,16,0.62,623.6,M,-29.4,M,,*45\r\r\n"2022-06-04 00:29:22
"||||||||||||-54,6969,$ACCEL,0.31,0.40,9.92,$ALT,680.05,-208.243520.8208,N,11748.4984,W,1,16,0.62,623.6,M,-29.4,M,,*45\r\r\n"2022-06-04 00:29:23
"||||||||||||-53,6969,$GNRMC,002920.000,A,3520.820,4050A$GNGGA,002921.000,3520.8207,N,11748.4984,W,1,16,0.62,623.5,M,-29.4,M,,*48\r\r\n"2022-06-04 00:29:23
"||||||||||||-55,6969,$ACCEL,0.29,0.39,9.92,$ALT,680.44,-208.36\r\n"2022-06-04 00:29:24
"||||||||||||-53,6969,$GNRMC,0029.30181026$GNGGA,002922.000,3520.8206,N,11748.4984,W,1,16,0.62,623.5,M,-29.4,M,,*4A\r\r\n"2022-06-04 00:29:24
"||||||||||||-57,6969,$ACCEL,0.30,0.40,9.94,$ALT,680.31,-208.300.8206,N,11748.4984,W,1,16,0.62,623.5,M,-29.4,M,,*4A\r\r\n"2022-06-04 00:29:25
"||||||||||||-55,6969,$GNRMC,002922.000,A,3219..6*$GNGGA,002923.000,3520.8205,N,11748.4984,W,1,16,0.62,623.5,M,-29.4,M,,*48\r @B\u000f\r\n"2022-06-04 00:29:25
"||||||||||||-56,6969,$ACCEL,0.32,0.40,9.90,$ALT,680.18,-208.24.000,3520.8205,N,11748.4984,W,1,16,0.62,623.5,M,-29.4,M,,*48\r @B\u000f\r\n"2022-06-04 00:29:25
"||||||||||||-56,6969,$GNRMC,002923.A819.50A$GNGGA,002924.000,3520.8204,N,11748.4983,W,1,16,0.62,623.4,M,-29.4,M,,*48\r,,*48\r @B\u000f\r\n"2022-06-04 00:29:25
"||||||||||||-56,6969,$ACCEL,0.31,0.40,9.90,$ALT,680.30,-208.27520.8204,N,11748.4983,W,1,16,0.62,623.4,M,-29.4,M,,*48\r,,*48\r @B\u000f\r\n"2022-06-04 00:29:26
"||||||||||||-55,6969,$GNRMC,002924.000,A,3520.820473072D$GNGGA,002925.000,3520.8204,N,11748.4983,W,1,16,0.62,623.4,M,-29.4,M,,*49\r\r\n"2022-06-04 00:29:27
"||||||||||||-55,6969,$ACCEL,0.31,0.41,9.92,$ALT,679.99,-208.17,002925.000,3520.8204,N,11748.4983,W,1,16,0.62,623.4,M,-29.4,M,,*49\r\r\n"2022-06-04 00:29:27
"||||||||||||-56,6969,$GR900N.,74,0.41,9.92,$ALT,679.99,-208.17,002925.000,3520.8204,N,11748.4983,W,1,16,0.62,623.4,M,-29.4,M,,*49\r\r\n"2022-06-04 00:29:27
"||||||||||||-54,6969,$ACCEL,0.31,0.41,9.92,$ALT,680.09,-208.21\r\n"2022-06-04 00:29:27
"||||||||||||-55,6969,$GNGGA,002926.000,3520.8203,N,11748.4982,W,1,16,0.62,623.4,M,-29.4,M,,*4C\r\r\n"2022-06-04 00:29:27
"||||||||||||-55,6969,$ACCEL,0.30,0.40,9.93,$ALT,680.32,-208.29W,1,16,0.62,623.4,M,-29.4,M,,*4C\r\r\n"2022-06-04 00:29:28
"||||||||||||-55,6969,$GNRMC,002926.00030183026$GNGGA,002927.000,3520.8199,N,11748.4981,W,1,16,0.62,623.4,M,-29.4,M,,*4E\r,\u0001\r\n"2022-06-04 00:29:28
"||||||||||||-54,6969,$ACCEL,0.32,0.40,9.93,$ALT,680.22,-208.25\r\n"2022-06-04 00:29:29
"||||||||||||-53,6969,$GNRMC,002927.0A8,4050A$GNGGA,002928.000,3520.8197,N,11748.4979,W,1,16,0.62,623.4,M,-29.4,M,,*48\r\r\n"2022-06-04 00:29:30
"||||||||||||-52,6969,$ACCEL,0.31,0.40,9.92,$ALT,680.18,-208.233520.8197,N,11748.4979,W,1,16,0.62,623.4,M,-29.4,M,,*48\r\r\n"2022-06-04 00:29:31
"||||||||||||-53,6969,$GNRMC,002928.000,819..6*$GNGGA,002929.000,3520.8198,N,11748.4978,W,1,15,0.64,623.4,M,-M\r\n"2022-06-04 00:29:31
"||||||||||||-53,6969,$ACCEL,0.30,0.41,9.91,$ALT,680.23,-208.240,3520.8198,N,11748.4978,W,1,15,0.64,623.4,M,-M\r\n"2022-06-04 00:29:32
"||||||||||||-52,6969,,.39771026$GNGGA,002930.000,3520.8197,N,11748.4977,W,1,15,0.65,623.4,M,-29.4,M,,*4B\r\r\n"2022-06-04 00:29:32
"||||||||||||-53,6969,$ACCEL,0.31,0.41,9.92,$ALT,680.20,-208.22\r\n"2022-06-04 00:29:33
"||||||||||||-53,6969,$GNRMC,002930.000,A,352119..6*$GNGGA,002931.000,3520.8197,N,11748.4977,W,1,15,0.65,623.4,M,-29.4,M,,*4A\rB\u000f\r\n"2022-06-04 00:29:33
"||||||||||||-52,6969,$ACCEL,0.30,0.40,9.90,$ALT,680.45,-208.3131.000,3520.8197,N,11748.4977,W,1,15,0.65,623.4,M,-29.4,M,,*4A\rB\u000f\r\n"2022-06-04 00:29:34
"||||||||||||-53,6969,$GNRMC,002931.0A819..6A$GNGGA,002932.000,3520.8197,N,11748.4977,W,1,15,0.65,623.4,M,-29.4,M,,*49\rM,,*4A\rB\u000f\r\n"2022-06-04 00:29:34
"||||||||||||-54,6969,$ACCEL,0.30,0.40,9.94,$ALT,680.55,-208.343520.8197,N,11748.4977,W,1,15,0.65,623.4,M,-29.4,M,,*49\rM,,*4A\rB\u000f\r\n"2022-06-04 00:29:35
"||||||||||||-54,6969,$GNRMC,002932.000A819.50A$GNGGA,002933.000,3520.8198,N,11748.4979,W,1,14,0.65,623.4,M,-29.4,M,,*48\r,*4A\rB\u000f\r\n"2022-06-04 00:29:35
