"||||||||||||-48,6969,$ACCEL,0.84,0.36,9.97,$ALT,659.14,-195.510.8176,N,11748.4949,W,1,12,0.79,643.5,M,-29.4,M,,*4B\r\r\n"2022-06-04 13:44:41
"||||||||||||-50,6969,$GNRMC,134436.0037744026$GNGGA,134437.000,3520.8177,N,11748.4949,W,1,12,0.79,643.5,M,-29.4,M,,*4B\r\r\n"2022-06-04 13:44:41
"||||||||||||-48,6969,$ACCEL,0.82,0.35,9.95,$ALT,659.24,-195.55\r\n"2022-06-04 13:44:42
"||||||||||||-51,6969,$GNRMC,134437.031141026$GNGGA,134438.000,3520.8177,N,11748.4950,W,1,12,0.79,643.6,M,-29.4,M,,*4F\r\r\n"2022-06-04 13:44:42
"||||||||||||-51,6969,$ACCEL,0.79,0.34,9.96,$ALT,659.30,-195.59\r\n"2022-06-04 13:44:43
"||||||||||||-54,6969,$GNRMC,134438.0002,8,,,,\r$GNGGA,134439.000,3520.8177,N,11748.4949,W,1,12,0.79,643.7,M,-29.4,M,,*47\r`\r\n"2022-06-04 13:44:43
"||||||||||||-53,6969,$ACCEL,0.79,0.34,9.96,$ALT,659.22,-195.570,3520.8177,N,11748.4949,W,1,12,0.79,643.7,M,-29.4,M,,*47\r`\r\n"2022-06-04 13:44:43
"||||||||||||-54,6969,$GNRMC,134439.00N.,24,$ALT,659.22,-195.570,3520.8177,N,11748.4949,W,1,12,0.79,643.7,M,-29.4,M,,*47\r`\r\n"2022-06-04 13:44:43
"||||||||||||-59,6969,$ACCEL,0.80,0.35,9.96,$ALT,659.32,-195.610,3520.8177,N,11748.4949,W,1,12,0.79,643.7,M,-29.4,M,,*47\r`\r\n"2022-06-04 13:44:44
"||||||||||||-67,6969,$GNGGA,134440.000,3520.8178,N,11748.4949,W,1,12,0.79,643.7,M,-29.4,M,,*46\r.79,643.7,M,-29.4,M,,*47\r`\r\n"2022-06-04 13:44:44
"||||||||||||-52,6969,$ACCEL,0.80,0.35,9.96,$ALT,659.07,-195.55W,1,12,0.79,643.7,M,-29.4,M,,*46\r.79,643.7,M,-29.4,M,,*47\r`\r\n"2022-06-04 13:44:45
"||||||||||||-51,6969,$GNRMC,134440.000,584,,,,\r$GNGGA,134441.000,3520.8178,N,11748.4948,W,1,12,0.79,643.8,M,-29.4,M,,*49\r\r\n"2022-06-04 13:44:45
"||||||||||||-54,6969,$ACCEL,0.78,0.34,9.93,$ALT,659.14,-195.57\r\n"2022-06-04 13:44:46
"||||||||||||-53,6969,$GNRMC,134441057780823$GNGGA,134442.000,3520.8177,N,11748.4949,W,1,12,0.79,643.8,M,-29.4,M,,*44\r\r\n"2022-06-04 13:44:46
"||||||||||||-47,6969,$ACCEL,0.79,0.36,9.98,$ALT,659.16,-195.60\r\n"2022-06-04 13:44:47
"||||||||||||-43,6969,$GNRMC,134442.000,.,.,24,$GNGGA,134443.000,3520.8177,N,11748.4948,W,1,12,0.79,643.8,M,-29.*N400N.,30,\r\n"2022-06-04 13:44:47
"||||||||||||-41,6969,$ACCEL,0.79,0.34,9.95,$ALT,659.11,-195.60\r\n"2022-06-04 13:44:47
"||||||||||||-42,6969,$GNRMC,134444.000,A,8,4040A$GNGGA,134445.000,3520.8178,N,11748.4947,W,1,12,0.79,643.8,M,-29.4,M,,*42\r\r\n"2022-06-04 13:44:49
"||||||||||||-41,6969,$ACCEL,0.80,0.35,9.96,$ALT,659.20,-195.63000,3520.8178,N,11748.4947,W,1,12,0.79,643.8,M,-29.4,M,,*42\r\r\n"2022-06-04 13:44:49
"||||||||||||-45,6969,$GNRMC,134445.00A814040A$GNGGA,134446.000,3520.8178,N,11748.4948,W,1,12,0.79,643.9,M,-29.4,M,,*4F\r\r\n"2022-06-04 13:44:50
"||||||||||||-49,6969,$ACCEL,0.80,0.35,9.96,$ALT,659.18,-195.63\r\n"2022-06-04 13:44:50
"||||||||||||-49,6969,$GNRMC,134446.000,0N.W30,T,659.18,-195.63\r\n"2022-06-04 13:44:50
"||||||||||||-45,6969,$ACCEL,0.82,0.35,9.96,$ALT,659.19,-195.65\r\n"2022-06-04 13:44:51
"||||||||||||-47,6969,$GNGGA,134447.000,3520.8179,N,11748.4949,W,1,12,0.79,643.9,M,-29.4,M,,*4E\r\r\n"2022-06-04 13:44:51
"||||||||||||-42,6969,$ACCEL,0.81,0.36,9.97,$ALT,659.15,-195.65W,1,12,0.79,643.9,M,-29.4,M,,*4E\r\r\n"2022-06-04 13:44:52
"||||||||||||-48,6969,$GNRMC,134447.000,119..6*$GNGGA,134448.000,3520.8178,N,11748.4950,W,1,12,0.79,644.0,M,-29.4,M,,*46\r,\u0001\r\n"2022-06-04 13:44:52
"||||||||||||-48,6969,$ACCEL,0.80,0.35,9.95,$ALT,659.21,-195.67\r\n"2022-06-04 13:44:53
"||||||||||||-51,6969,$GNRMC,134448.000,A,38,4040A$GNGGA,134449.000,3520.8179,N,11748.4950,W,1,12,0.79,644.0,M,-29.4,M,,*46\r \r\n"2022-06-04 13:44:53
"||||||||||||-47,6969,$ACCEL,0.81,0.35,9.95,$ALT,659.23,-195.70\r\n"2022-06-04 13:44:54
"||||||||||||-45,6969,$GNRMC,134449.0002,8W3,,\r$GNGGA,134450.000,3520.8179,N,11748.4950,W,1,12,0.79,644.0,2,G30594,,,,2$GNGGA,134451.000,352 \r\n"2022-06-04 13:44:54
"||||||||||||-48,6969,$ACCEL,0.80,0.35,9.96,$ALT,659.28,-195.730,3520.8179,N,11748.4950,W,1,12,0.79,644.0,2,G30594,,,,2$GNGGA,134451.000,352 \r\n"2022-06-04 13:44:55
"||||||||||||-44,6969,$GNRMC,134451.000,A,3115006*$GNGGA,134452.000,3520.8181,N,11748.4949,W,1,12,0.79,644.1,M,-29.4,M,,*42\rA,134451.000,352 \r\n"2022-06-04 13:44:55
"||||||||||||-48,6969,$ACCEL,0.80,0.36,9.94,$ALT,659.26,-195.75.000,3520.8181,N,11748.4949,W,1,12,0.79,644.1,M,-29.4,M,,*42\rA,134451.000,352 \r\n"2022-06-04 13:44:56
"||||||||||||-43,6969,$GNRMC,134452.000,2,8W,,,\r$GNGGA,134453.000,3520.8181,N,11748.4950,W,1,12,0.79,644.1,M,-29.4,M,,*4B\r\r\n"2022-06-04 13:44:56
"||||||||||||-45,6969,$ACCEL,0.81,0.35,9.97,$ALT,659.30,-195.7600,3520.8181,N,11748.4950,W,1,12,0.79,644.1,M,-29.4,M,,*4B\r\r\n"2022-06-04 13:44:57
"||||||||||||-45,6969,$GNRMC,13445300N8W30,,$ALT,659.30,-195.7600,3520.8181,N,11748.4950,W,1,12,0.79,644.1,M,-29.4,M,,*4B\r\r\n"2022-06-04 13:44:57
"||||||||||||-49,6969,$ACCEL,0.81,0.35,9.97,$ALT,659.24,-195.7500,3520.8181,N,11748.4950,W,1,12,0.79,644.1,M,-29.4,M,,*4B\r\r\n"2022-06-04 13:44:57
"||||||||||||-44,6969,$GNGGA,134454.000,3520.8182,N,11748.4950,W,1,12,0.79,644.1,M,-29.4,M,,*4F\r0.79,644.1,M,-29.4,M,,*4B\r\r\n"2022-06-04 13:44:57
"||||||||||||-54,6969,$ACCEL,0.80,0.35,9.95,$ALT,659.30,-195.78W,1,12,0.79,644.1,M,-29.4,M,,*4F\r0.79,644.1,M,-29.4,M,,*4B\r\r\n"2022-06-04 13:44:58
"||||||||||||-52,6969,$GNRMC,134454.000,A,3520.8182,N,11748.4950,W,0.2$GNGGA,134455.000,3520.8182,N,11748.4949,W,1,11,0.85,644.1,M,-29.4,M,,\r\n"2022-06-04 13:44:59
"||||||||||||-49,6969,$ACCEL,0.80,0.34,9.91,$ALT,659.36,-195.81\r\n"2022-06-04 13:45:00
"||||||||||||-61,6969,$GNRMC,134455.000,A,3520.818$GNGGA,134456.000,3520.8183,N,11748.4949,W,1,11,0.85,644.2,M,-29.4,M,,*47\r @B\u000f\r\n"2022-06-04 13:45:00
"||||||||||||-51,6969,$ACCEL,0.00,0.00,0.00,$ALT,659.48,-195.94\r\n"2022-06-04 13:45:13
"||||||||||||-52,6969,$PMTK001,314,3*36\r.00,$ALT,659.48,-195.94\r\n"2022-06-04 13:45:13
"||||||||||||-47,6969,$ACCEL,0.00,0.00,0.00,$ALT,659.57,-195.98\r\n"2022-06-04 13:45:13
"||||||||||||-50,6969,$GNGGA,235948.094,,,,,0,0,,,M,,M,,*5A\r.\r\n"2022-06-04 13:45:13
"||||||||||||-51,6969,$ACCEL,0.80,0.41,9.92,$ALT,659.45,-195.94\r\n"2022-06-04 13:45:14
"||||||||||||-51,6969,$GNRMC,235948.094,V,,,,,0.00,0.00,050180,,,N*53\r\u000f\r\n"2022-06-04 13:45:14
"||||||||||||-45,6969,$ACCEL,0.80,0.41,9.92,$ALT,659.43,-195.94,,N*53\r\u000f\r\n"2022-06-04 13:45:14
"||||||||||||-47,6969,$PMTK001,220,2,100*2C\r$ALT,659.43,-195.94,,N*53\r\u000f\r\n"2022-06-04 13:45:14
"||||||||||||-52,6969,$ACCEL,0.80,0.41,9.92,$ALT,659.31,-195.90\r\n"2022-06-04 13:45:15
"||||||||||||-52,6969,$PGCMD,33,1*6C\r100*2C\r$ALT,659.31,-195.\r\n"2022-06-04 13:45:15
"||||||||||||-51,6969,$ACCEL,0.80,0.41,9.94,$ALT,659.16,-195.86\r\n"2022-06-04 13:45:15
"||||||||||||-44,6969,$PMTK705,AXN_5.1.6_3333_18041700,0005,1616D,1.0*6F\r\r\n"2022-06-04 13:45:15
"||||||||||||-50,6969,$ACCEL,0.80,0.41,9.94,$ALT,659.36,-195.926D,1.0*6F\r\r\n"2022-06-04 13:45:16
"||||||||||||-50,6969,$GNGGA,235949.094,,,,,0,0,,,M,,M,,*5B\r.\r\n"2022-06-04 13:45:16
"||||||||||||-52,6969,$ACCEL,0.80,0.41,9.94,$ALT,659.23,-195.89\r\n"2022-06-04 13:45:16
"||||||||||||-49,6969,$GNRMC,235949.094,V,,,,,0.00,0.00,050180,,,N*52\r\u000f\r\n"2022-06-04 13:45:16
"||||||||||||-54,6969,$ACCEL,0.80,0.42,9.97,$ALT,659.21,-195.88,,N*52\r\u000f\r\n"2022-06-04 13:45:17
"||||||||||||-54,6969,$GNGGA,235950.095,,,,,0,0,,,M,,M,,*52\r.\r\n"2022-06-04 13:45:17
"||||||||||||-51,6969,$ACCEL,0.80,0.42,9.97,$ALT,659.28,-195.89\r\n"2022-06-04 13:45:17
"||||||||||||-49,6969,$GNRMC,235950.095,V,,,,,0.00,0.00,050180,,,N*5B\r\u000f\r\n"2022-06-04 13:45:17
"||||||||||||-53,6969,$ACCEL,0.80,0.42,9.95,$ALT,659.36,-195.92\r\n"2022-06-04 13:45:18
"||||||||||||-52,6969,$GNGGA,235951.095,,,,,0,0,,,M,,M,,*53\r.92\r\n"2022-06-04 13:45:18
"||||||||||||-52,6969,$ACCEL,0.80,0.42,9.95,$ALT,659.33,-195.92\r\n"2022-06-04 13:45:18
"||||||||||||-56,6969,$GNRMC,235951.095,V,,,,,0.00,0.00,050180,,,N*5A\r\u000f\r\n"2022-06-04 13:45:18
"||||||||||||-54,6969,$ACCEL,0.79,0.41,9.96,$ALT,659.44,-195.97,,N*5A\r\u000f\r\n"2022-06-04 13:45:19
"||||||||||||-54,6969,$GNGGA,235952.095,,,,,0,0,,,M,,M,,*50\r.97,,N*5A\r\u000f\r\n"2022-06-04 13:45:19
"||||||||||||-48,6969,$ACCEL,0.79,0.41,9.96,$ALT,659.29,-195.94,,N*5A\r\u000f\r\n"2022-06-04 13:45:19
"||||||||||||-51,6969,$GNRMC,235952.095,V,,,,,0.00,0.00,050180,,,N*59\r\u000f\r\n"2022-06-04 13:45:19
"||||||||||||-55,6969,$ACCEL,0.79,0.41,9.96,$ALT,659.38,-195.96\r\n"2022-06-04 13:45:20
"||||||||||||-55,6969,$GNGGA,235953.095,,,,,0,0,,,M,,M,,*51\r.\r\n"2022-06-04 13:45:20
"||||||||||||-55,6969,$ACCEL,0.81,0.41,9.98,$ALT,659.42,-195.98\r\n"2022-06-04 13:45:20
"||||||||||||-53,6969,$GNRMC,235953.095,V,,,,,0.00,0.00,050180,,,N*58\r\u000f\r\n"2022-06-04 13:45:20
"||||||||||||-55,6969,$ACCEL,0.81,0.41,9.98,$ALT,659.27,-195.93,,N*58\r\u000f\r\n"2022-06-04 13:45:21
"||||||||||||-55,6969,$GNGGA,235954.095,,,,,0,0,,,M,,M,,*56\r.93,,N*58\r\u000f\r\n"2022-06-04 13:45:21
"||||||||||||-54,6969,$ACCEL,0.79,0.40,9.92,$ALT,659.35,-195.96,,N*58\r\u000f\r\n"2022-06-04 13:45:21
"||||||||||||-55,6969,$GNRMC,235954.095,V,,,,,0.00,0.00,050180,,,N*5F\r\u000f\r\n"2022-06-04 13:45:21
"||||||||||||-55,6969,$ACCEL,0.79,0.40,9.92,$ALT,659.44,-195.99\r\n"2022-06-04 13:45:22
"||||||||||||-55,6969,$GNGGA,235954.307,,,,,0,0,,,M,,M,,*5E\r.\r\n"2022-06-04 13:45:22
"||||||||||||-52,6969,$ACCEL,0.80,0.40,9.96,$ALT,659.37,-195.97\r\n"2022-06-04 13:45:22
"||||||||||||-55,6969,$GNRMC,23590,00N$GNGGA,235955.307,,,,,0,0,,,M,,M,,*5F\r\r\n"2022-06-04 13:45:22
"||||||||||||-52,6969,$ACCEL,0.79,0.39,9.94,$ALT,659.39,-195.98\r\n"2022-06-04 13:45:23
"||||||||||||-52,6969,$GNRMC,235955.307,V,,,,,0.00,0.00,050180,,,5$GNGGA,134520.136,,,,,0,0,,,M,,M,,*53\r P\r\n"2022-06-04 13:45:23
"||||||||||||-55,6969,$ACCEL,0.79,0.39,9.94,$ALT,659.27,-195.96\r\n"2022-06-04 13:45:24
"||||||||||||-51,6969,$GNRMC,134520.136,V,,,,,0.00,0.00,120180,,,5$GNGGA,134521.136,,,,,0,0,,,M,,M,,*52\r P\r\n"2022-06-04 13:45:24
"||||||||||||-55,6969,$ACCEL,0.80,0.40,9.95,$ALT,659.39,-196.00,,5$GNGGA,134521.136,,,,,0,0,,,M,,M,,*52\r P\r\n"2022-06-04 13:45:25
"||||||||||||-55,6969,$GNRMC,134521.136,V,,,,,0.00,0.00,120180,,,N$GNGGA,134522.136,,,,,0,0,,,M,,M,,*51\r P\r\n"2022-06-04 13:45:25
"||||||||||||-56,6969,$ACCEL,0.81,0.41,9.97,$ALT,659.41,-196.00\r\n"2022-06-04 13:45:26
"||||||||||||-56,6969,$GNRMC,134522.136,V,,,,,0.00,0.00,120180,,,N*$GNGGA,134523.136,,,,,0,0,,,M,,M,,*50\rP\r\n"2022-06-04 13:45:26
"||||||||||||-57,6969,$ACCEL,0.81,0.39,9.96,$ALT,659.47,-196.03\r\n"2022-06-04 13:45:26
"||||||||||||-57,6969,$GNRMC,134523.136,V,,,,,0.00,0.00,120180,,,N*5F\r\u000f\r\n"2022-06-04 13:45:26
"||||||||||||-57,6969,$ACCEL,0.81,0.39,9.96,$ALT,659.40,-196.02,,N*5F\r\u000f\r\n"2022-06-04 13:45:27
"||||||||||||-57,6969,$GNGGA,134524.096,,,,,0,0,,,M,,M,,*5C\r.02,,N*5F\r\u000f\r\n"2022-06-04 13:45:27
"||||||||||||-56,6969,$ACCEL,0.81,0.39,9.96,$ALT,659.39,-196.02,,N*5F\r\u000f\r\n"2022-06-04 13:45:27
"||||||||||||-56,6969,$GNRMC,134524.096,V,,,,,0.00,0.00,120180,,,N*53\r\u000f\r\n"2022-06-04 13:45:27
"||||||||||||-56,6969,$ACCEL,0.80,0.40,9.96,$ALT,659.41,-196.03\r\n"2022-06-04 13:45:28
"||||||||||||-56,6969,$ACCEL,0.80,0.40,9.96,$ALT,659.35,-196.01\r\n"2022-06-04 13:45:28
"||||||||||||-57,6969,$GNRMC,134525.096,V,,,,,0.00,0.00,120180,,,N*52\r\u000f\r\n"2022-06-04 13:45:28
"||||||||||||-56,6969,$ACCEL,0.81,0.40,9.94,$ALT,659.38,-196.02\r\n"2022-06-04 13:45:29
"||||||||||||-56,6969,$GNGGA,134526.096,,,,,0,0,,,M,,M,,*5E\r.02\r\n"2022-06-04 13:45:29
"||||||||||||-56,6969,$ACCEL,0.81,0.40,9.94,$ALT,659.48,-196.05\r\n"2022-06-04 13:45:29
"||||||||||||-57,6969,$GNRMC,134526.096,V,,,,,0.00,0.00,120180,,,N*51\r\u000f\r\n"2022-06-04 13:45:29
"||||||||||||-56,6969,$ACCEL,0.79,0.42,9.94,$ALT,659.34,-196.02,,N*51\r\u000f\r\n"2022-06-04 13:45:30
"||||||||||||-56,6969,$GNGGA,134527.096,,,,,0,0,,,M,,M,,*5F\r.02,,N*51\r\u000f\r\n"2022-06-04 13:45:30
"||||||||||||-56,6969,$ACCEL,0.79,0.42,9.94,$ALT,659.34,-196.02,,N*51\r\u000f\r\n"2022-06-04 13:45:30
"||||||||||||-57,6969,$GNRMC,134527.096,V,,,,,0.00,0.00,120180,,,N*50\r\u000f\r\n"2022-06-04 13:45:32
"||||||||||||-57,6969,$ACCEL,0.79,0.40,9.93,$ALT,659.42,-196.04\r\n"2022-06-04 13:45:32
"||||||||||||-57,6969,$GNGGA,134528.096,,,,,0,0,,,M,,M,,*50\r.04\r\n"2022-06-04 13:45:32
"||||||||||||-58,6969,$ACCEL,0.79,0.40,9.93,$ALT,659.54,-196.06\r\n"2022-06-04 13:45:32
"||||||||||||-57,6969,$GNRMC,134528.096,V,,,,,0.00,0.00,120180,,,N*5F\r\u000f\r\n"2022-06-04 13:45:33
"||||||||||||-55,6969,$ACCEL,0.79,0.40,9.93,$ALT,659.30,-196.00,,N*5F\r\u000f\r\n"2022-06-04 13:45:33
"||||||||||||-52,6969,$GNGGA,134529.096,,,,,0,0,,,M,,M,,*51\r.\r\n"2022-06-04 13:45:33
"||||||||||||-55,6969,$ACCEL,0.80,0.41,9.94,$ALT,659.33,-196.01\r\n"2022-06-04 13:45:33
"||||||||||||-57,6969,$GNRMC,134529.096,V,,,,,0.00,0.00,120180,,,N*5E\r\u000f\r\n"2022-06-04 13:45:34
"||||||||||||-56,6969,$ACCEL,0.80,0.41,9.94,$ALT,659.13,-195.96,,N*5E\r\u000f\r\n"2022-06-04 13:45:34
"||||||||||||-53,6969,$GNGGA,134530.086,,,,,0,0,,,M,,M,,*58\r.96,,N*5E\r\u000f\r\n"2022-06-04 13:45:34
"||||||||||||-57,6969,$ACCEL,0.79,0.40,9.94,$ALT,659.47,-196.06,,N*5E\r\u000f\r\n"2022-06-04 13:45:34
"||||||||||||-55,6969,$GNRMC,134530.086,V,,,,,0.00,0.00,040622,,,N*5F\r\u000f\r\n"2022-06-04 13:45:35
"||||||||||||-52,6969,$ACCEL,0.79,0.40,9.94,$ALT,659.42,-196.05,,N*5F\r\u000f\r\n"2022-06-04 13:45:35
"||||||||||||-50,6969,$GNGGA,134530.305,,,,,0,0,,,M,,M,,*50\r\r\n"2022-06-04 13:45:35
"||||||||||||-54,6969,$ACCEL,0.80,0.40,9.94,$ALT,659.30,-196.02\r\n"2022-06-04 13:45:36
"||||||||||||-55,6969,$GNRMC,45,00N$GNGGA,134531.305,,,,,0,0,,,M,,M,,*51\r\r\n"2022-06-04 13:45:36
"||||||||||||-54,6969,$ACCEL,0.80,0.40,9.94,$ALT,659.29,-196.02M,,M,,*51\r\r\n"2022-06-04 13:45:36
"||||||||||||-54,6969,$GNRMC,134531.305,V,,,,,0.00,0.00$GNGGA,134532.305,,,,,0,0,,,M,,M,,*52\r\u0001\r\n"2022-06-04 13:45:36
"||||||||||||-54,6969,$ACCEL,0.79,0.40,9.94,$ALT,659.28,-196.02\r\n"2022-06-04 13:45:37
"||||||||||||-53,6969,$GNRMC,134532.305,V,,,,,0.00,0.00,040622,,,N*55\r\u000f\r\n"2022-06-04 13:45:37
"||||||||||||-55,6969,$ACCEL,0.79,0.40,9.94,$ALT,659.35,-196.05,,N*55\r\u000f\r\n"2022-06-04 13:45:37
"||||||||||||-54,6969,$GNGGA,134533.305,,,,,0,0,,,M,,M,,*53\r\r\n"2022-06-04 13:45:37
"||||||||||||-55,6969,$ACCEL,0.80,0.40,9.95,$ALT,659.33,-196.06\r\n"2022-06-04 13:45:38
"||||||||||||-51,6969,$GNRMC,134533.305,V,,,,,0.00,0.00,040622,,,N*54\r\u000f\r\n"2022-06-04 13:45:38
"||||||||||||-55,6969,$ACCEL,0.80,0.40,9.95,$ALT,659.51,-196.10\r\n"2022-06-04 13:45:38
"||||||||||||-54,6969,$GNGGA,134534.305,,,,,0,0,,,M,,M,,*54\r.10\r\n"2022-06-04 13:45:38
"||||||||||||-55,6969,$ACCEL,0.81,0.40,9.94,$ALT,659.44,-196.08\r\n"2022-06-04 13:45:39
"||||||||||||-52,6969,$GNRMC,134534.305,V,,,,,0.00,0.00,040622,,,N*53\r\u000f\r\n"2022-06-04 13:45:39
"||||||||||||-56,6969,$ACCEL,0.81,0.40,9.94,$ALT,659.52,-196.11\r\n"2022-06-04 13:45:39
"||||||||||||-53,6969,$GNGGA,134535.305,,,,,0,0,,,M,,M,,*55\r\r\n"2022-06-04 13:45:39
"||||||||||||-55,6969,$ACCEL,0.79,0.40,9.92,$ALT,659.58,-196.11\r\n"2022-06-04 13:45:40
"||||||||||||-54,6969,$GNRMC,134535.305,V,,,,,0.00,0.00,040622,,\r$GNGGA,134536.099,,,,,0,0,,,M,,M,,*50\r\r\n"2022-06-04 13:45:40
"||||||||||||-52,6969,$ACCEL,0.80,0.40,9.93,$ALT,659.59,-196.05\r\n"2022-06-04 13:45:41
"||||||||||||-55,6969,$ACCEL,0.80,0.40,9.93,$ALT,659.44,-195.99\r\n"2022-06-04 13:45:42
"||||||||||||-51,6969,$GNRMC,134537.099,V,,,,,0.00,0.00,040622,,,$GNGGA,134538.099,,,,,0,0,,,M,,M,,*5E\r\r\n"2022-06-04 13:45:42
"||||||||||||-57,6969,$ACCEL,0.79,0.38,9.87,$ALT,659.54,-196.00,,$GNGGA,134538.099,,,,,0,0,,,M,,M,,*5E\r\r\n"2022-06-04 13:45:43
"||||||||||||-58,6969,$GNRMC,134538.099,V,,,,,0.00,0.00,040622,,,N*$GNGGA,134539.099,,,,,0,0,,,M,,M,,*5F\rP\r\n"2022-06-04 13:45:43
"||||||||||||-56,6969,$ACCEL,0.79,0.41,9.90,$ALT,659.48,-195.96,,N*$GNGGA,134539.099,,,,,0,0,,,M,,M,,*5F\rP\r\n"2022-06-04 13:45:43
"||||||||||||-55,6969,$GNRMC,134539.099,V,,,,,0.00,0.00,040622,,,\r$GNGGA,134540.092,,,,,0,0,,,M,,M,,*5A\r P\r\n"2022-06-04 13:45:44
"||||||||||||-54,6969,$ACCEL,0.81,0.40,9.90,$ALT,659.29,-195.89,,\r$GNGGA,134540.092,,,,,0,0,,,M,,M,,*5A\r P\r\n"2022-06-04 13:45:44
"||||||||||||-54,6969,$GNRMC,134540.092,V,,,,,0.00,0.00,040622,,,N*5D\r\u000f\r\n"2022-06-04 13:45:44
"||||||||||||-54,6969,$ACCEL,0.81,0.40,9.90,$ALT,659.41,-195.91,,N*5D\r\u000f\r\n"2022-06-04 13:45:45
"||||||||||||-54,6969,$GNGGA,134541.093,,,,,0,0,,,M,,M,,*5A\r.91,,N*5D\r\u000f\r\n"2022-06-04 13:45:45
"||||||||||||-58,6969,$ACCEL,0.81,0.40,9.90,$ALT,659.42,-195.91\r\n"2022-06-04 13:45:45
"||||||||||||-57,6969,$GNRMC,134541.093,V,,,,,0.00,0.00,040622,,,N*5D\r\u000f\r\n"2022-06-04 13:45:45
"||||||||||||-55,6969,$ACCEL,0.80,0.41,9.90,$ALT,659.33,-195.87\r\n"2022-06-04 13:45:46
"||||||||||||-54,6969,$GNGGA,134542.081,,,,,0,0,,,M,,M,,*5A\r\r\n"2022-06-04 13:45:46
"||||||||||||-55,6969,$ACCEL,0.80,0.41,9.90,$ALT,659.37,-195.87\r\n"2022-06-04 13:45:46
"||||||||||||-55,6969,$GNRMC,134542.081,V,,,,,0.00,0.00,040622,,,N*5D\r\u000f\r\n"2022-06-04 13:45:46
"||||||||||||-56,6969,$ACCEL,0.80,0.40,9.90,$ALT,659.30,-195.85,,N*5D\r\u000f\r\n"2022-06-04 13:45:47
"||||||||||||-56,6969,$GNGGA,134542.302,,,,,0,0,,,M,,M,,*52\r.85,,N*5D\r\u000f\r\n"2022-06-04 13:45:47
"||||||||||||-55,6969,$ACCEL,0.80,0.40,9.90,$ALT,659.37,-195.87,,N*5D\r\u000f\r\n"2022-06-04 13:45:47
"||||||||||||-55,6969,$G$GNGGA,134543.302,,,,,0,0,,,M,,M,,*53\r\u0018\r\n"2022-06-04 13:45:47
"||||||||||||-54,6969,$ACCEL,0.80,0.40,9.91,$ALT,659.22,-195.83\r\n"2022-06-04 13:45:48
"||||||||||||-55,6969,$GNRMC,134543.302,V,,,,,0.00,0.00,040622,,,N*54\r\u000f\r\n"2022-06-04 13:45:48
"||||||||||||-57,6969,$ACCEL,0.80,0.40,9.91,$ALT,659.45,-195.88\r\n"2022-06-04 13:45:48
"||||||||||||-55,6969,$GNGGA,134544.303,,,,,0,0,,,M,,M,,*55\r.88\r\n"2022-06-04 13:45:48
"||||||||||||-55,6969,$ACCEL,0.79,0.40,9.92,$ALT,659.37,-195.85\r\n"2022-06-04 13:45:49
"||||||||||||-53,6969,$GNRMC,134544.303,V,,,,,0.00,0.00,040622,,,N*52\r\u000f\r\n"2022-06-04 13:45:49
"||||||||||||-55,6969,$ACCEL,0.79,0.40,9.92,$ALT,659.20,-195.80\r\n"2022-06-04 13:45:49
"||||||||||||-55,6969,$GNGGA,134545.303,,,,,0,0,,,M,,M,,*54\r.80\r\n"2022-06-04 13:45:49
"||||||||||||-55,6969,$ACCEL,0.79,0.40,9.92,$ALT,659.22,-195.80\r\n"2022-06-04 13:45:50
"||||||||||||-52,6969,$GNRMC,134545.303,V,,,,,0.00,0.00,040622,,,N*53\r\u000f\r\n"2022-06-04 13:45:50
"||||||||||||-54,6969,$ACCEL,0.79,0.41,9.93,$ALT,659.20,-195.78,,N*53\r\u000f\r\n"2022-06-04 13:45:50
"||||||||||||-54,6969,$GNGGA,134546.303,,,,,0,0,,,M,,M,,*57\r.\r\n"2022-06-04 13:45:50
"||||||||||||-51,6969,$ACCEL,0.79,0.40,9.94,$ALT,659.25,-195.79\r\n"2022-06-04 13:45:51
"||||||||||||-54,6969,$GNRMC,134546.303,V,,,,,0.23,0.00,040622,,,N1$GNGGA,134547.303,,,,,0,0,,,M,,M,,*56\rP\r\n"2022-06-04 13:45:51
"||||||||||||-53,6969,$ACCEL,0.79,0.40,9.94,$ALT,659.30,-195.79,,N1$GNGGA,134547.303,,,,,0,0,,,M,,M,,*56\rP\r\n"2022-06-04 13:45:52
"||||||||||||-54,6969,$GNRMC,134547.303,V,,,,,0.18,0.00,040622,,,N*58\rGGA,134547.303,,,,,0,0,,,M,,M,,*56\rP\r\n"2022-06-04 13:45:52
"||||||||||||-54,6969,$ACCEL,0.80,0.41,9.93,$ALT,659.34,-195.80,,N*58\rGGA,134547.303,,,,,0,0,,,M,,M,,*56\rP\r\n"2022-06-04 13:45:52
"||||||||||||-54,6969,$GNGGA,134548.099,,,,,0,0,,,M,,M,,*59\r.80,,N*58\rGGA,134547.303,,,,,0,0,,,M,,M,,*56\rP\r\n"2022-06-04 13:45:52
"||||||||||||-52,6969,$ACCEL,0.80,0.41,9.93,$ALT,659.24,-195.77,,N*58\rGGA,134547.303,,,,,0,0,,,M,,M,,*56\rP\r\n"2022-06-04 13:45:53
"||||||||||||-50,6969,$GNRMC,134548.099,V,,,,,0.00,0.00,04062N$GNGGA,134549.099,,,,,0,0,,,M,,M,,*58\r,*56\rP\r\n"2022-06-04 13:45:53
"||||||||||||-53,6969,$ACCEL,0.81,0.41,9.92,$ALT,659.38,-195.79GNGGA,134549.099,,,,,0,0,,,M,,M,,*58\r,*56\rP\r\n"2022-06-04 13:45:54
"||||||||||||-51,6969,$GNRMC,134549.099,V,,,,,0.01,0.00,040622,,5$GNGGA,134550.099,,,,,0,0,,,M,,M,,*50\r6\rP\r\n"2022-06-04 13:45:54
"||||||||||||-54,6969,$ACCEL,0.79,0.39,9.90,$ALT,659.40,-195.80,5$GNGGA,134550.099,,,,,0,0,,,M,,M,,*50\r6\rP\r\n"2022-06-04 13:45:54
"||||||||||||-53,6969,$GNRMC,134550.099,V,,,,,0.14,0.00,040622,,,$GNGGA,134550.099,,,,,0,0,,,M,,M,,*50\r6\rP\r\n"2022-06-04 13:45:54
"||||||||||||-53,6969,$ACCEL,0.79,0.39,9.90,$ALT,659.50,-195.83,,$GNGGA,134550.099,,,,,0,0,,,M,,M,,*50\r6\rP\r\n"2022-06-04 13:45:55
"||||||||||||-49,6969,$GNGGA,134551.099,,,,,0,0,,,M,,M,,*51\r.\r\n"2022-06-04 13:45:55
"||||||||||||-53,6969,$ACCEL,0.79,0.39,9.90,$ALT,659.32,-195.77\r\n"2022-06-04 13:45:55
"||||||||||||-53,6969,$GNRMC,134551.099,V,,,,,0.25,0.00,040622,,,N*51\r\u000f\r\n"2022-06-04 13:45:55
"||||||||||||-49,6969,$ACCEL,0.80,0.41,9.93,$ALT,659.30,-195.76\r\n"2022-06-04 13:45:56
"||||||||||||-50,6969,$GNGGA,134552.099,,,,,0,0,,,M,,M,,*52\r\r\n"2022-06-04 13:45:56
"||||||||||||-53,6969,$ACCEL,0.80,0.41,9.93,$ALT,659.30,-195.76\r\n"2022-06-04 13:45:56
"||||||||||||-53,6969,$GNRMC,134552.099,V,,,,,0.04,0.00,040622,,,N*51\r\u000f\r\n"2022-06-04 13:45:56
"||||||||||||-52,6969,$ACCEL,0.81,0.41,9.94,$ALT,659.35,-195.77,,N*51\r\u000f\r\n"2022-06-04 13:45:57
"||||||||||||-53,6969,$GNGGA,134553.099,,,,,0,0,,,M,,M,,*53\r\r\n"2022-06-04 13:45:57
"||||||||||||-54,6969,$ACCEL,0.81,0.41,9.94,$ALT,659.31,-195.76\r\n"2022-06-04 13:45:57
"||||||||||||-54,6969,$GNRMC,134553.099,V,,,,,0.39,0.00,040622,,,N*5E\r\u000f\r\n"2022-06-04 13:45:57
"||||||||||||-51,6969,$ACCEL,0.80,0.40,9.91,$ALT,659.38,-195.79,,N*5E\r\u000f\r\n"2022-06-04 13:45:58
"||||||||||||-51,6969,$GNGGA,134554.099,,,,,0,0,,,M,,M,,*54\r.\r\n"2022-06-04 13:45:58
"||||||||||||-54,6969,$ACCEL,0.80,0.40,9.91,$ALT,659.26,-195.75\r\n"2022-06-04 13:45:58
"||||||||||||-54,6969,$GNRMC,134554.099,V,,,,,0.48,0.00,040622,,,N*5F\r\u000f\r\n"2022-06-04 13:45:58
"||||||||||||-53,6969,$ACCEL,0.80,0.40,9.91,$ALT,659.21,-195.73,,N*5F\r\u000f\r\n"2022-06-04 13:45:59
"||||||||||||-53,6969,$GNGGA,134555.099,,,,,0,0,,,M,,M,,*55\r.\r\n"2022-06-04 13:45:59
"||||||||||||-56,6969,$ACCEL,0.79,0.40,9.92,$ALT,659.17,-195.74\r\n"2022-06-04 13:45:59
"||||||||||||-58,6969,$GNRMC,134555.099,V,,,,,0.22,0.00,040622,,,N*52\r\u000f\r\n"2022-06-04 13:46:00
"||||||||||||-50,6969,$ACCEL,0.79,0.40,9.92,$ALT,659.39,-195.82\r\n"2022-06-04 13:46:00
"||||||||||||-52,6969,$GNGGA,134557.000,,,,,0,0,,,M,,M,,*57\r.82\r\n"2022-06-04 13:46:00
"||||||||||||-65,6969,$ACCEL,0.79,0.40,9.94,$ALT,659.48,-195.86\r\n"2022-06-04 13:46:00
"||||||||||||-70,6969,$GNRMC,134557.000,V,,,,,0.44,0.00,040622,,,N*50\r\u000f\r\n"2022-06-04 13:46:01
"||||||||||||-54,6969,$ACCEL,0.79,0.40,9.94,$ALT,659.99,-195.99\r\n"2022-06-04 13:46:01
"||||||||||||-60,6969,$GNGGA,134558.000,,,,,0,0,,,M,,M,,*58\r.\r\n"2022-06-04 13:46:01
"||||||||||||-48,6969,$ACCEL,-4.42,1.42,9.20,$ALT,659.73,-195.88\r\n"2022-06-04 13:46:01
"||||||||||||-49,6969,$GNRMC,134558.000,V,,,,,0.18,0.00,040622,,,N*56\r\u000f\r\n"2022-06-04 13:46:02
"||||||||||||-51,6969,$ACCEL,-4.42,1.42,9.20,$ALT,659.86,-195.90,N*56\r\u000f\r\n"2022-06-04 13:46:02
"||||||||||||-49,6969,$GNGGA,134559.000,,,,,0,0,,,M,,M,,*59\r5.90,N*56\r\u000f\r\n"2022-06-04 13:46:02
"||||||||||||-54,6969,$ACCEL,-7.24,6.04,3.32,$ALT,659.71,-195.84,N*56\r\u000f\r\n"2022-06-04 13:46:03
"||||||||||||-56,6969,$GNRMC,134559.000,V,,,,,0.17,0.00,040622,,,N*58\r\u000f\r\n"2022-06-04 13:46:03
"||||||||||||-59,6969,$ACCEL,-7.24,6.04,3.32,$ALT,659.55,-195.79,N*58\r\u000f\r\n"2022-06-04 13:46:03
"||||||||||||-60,6969,$GNGGA,134600.000,,,,,0,0,,,M,,M,,*56\r5\r\n"2022-06-04 13:46:03
"||||||||||||-60,6969,$ACCEL,-7.24,6.04,3.32,$ALT,659.59,-195.80B\u0001\r\n"2022-06-04 13:46:04
"||||||||||||-58,6969,$GNRMC,134600.000,V,,,,,0.16,0.00,040622,,,N*56\r\u000f\r\n"2022-06-04 13:46:04
"||||||||||||-65,6969,$ACCEL,-3.89,8.25,3.05,$ALT,659.60,-195.80B\u0001\r\n"2022-06-04 13:46:04
"||||||||||||-65,6969,$GNGGA,134601.000,,,,,0,0,,,M,,M,,*57\r5.80B\u0001\r\n"2022-06-04 13:46:04
"||||||||||||-64,6969,$ACCEL,-3.89,8.25,3.05,$ALT,659.72,-195.83B\u0001\r\n"2022-06-04 13:46:05
"||||||||||||-64,6969,$GNRMC,134601.000,V,,,,,0.47,0.00,040622,,,N*53\r\u000f\r\n"2022-06-04 13:46:05
"||||||||||||-61,6969,$ACCEL,0.58,9.29,-2.91,$ALT,659.89,-195.89,N*53\r\u000f\r\n"2022-06-04 13:46:05
"||||||||||||-64,6969,$GNGGA,134602.000,,,,,0,0,,,M,,M,,*54\r\r\n"2022-06-04 13:46:05
"||||||||||||-59,6969,$ACCEL,0.58,9.29,-2.91,$ALT,659.81,-195.86\r\n"2022-06-04 13:46:06
"||||||||||||-61,6969,$GNRMC,134602.000,V,,,,,0.28,0.00,040622,,,N*59\r\u000f\r\n"2022-06-04 13:46:06
"||||||||||||-64,6969,$ACCEL,2.16,8.92,-3.66,$ALT,659.69,-195.83,N*59\r\u000f\r\n"2022-06-04 13:46:06
"||||||||||||-65,6969,$GNGGA,134603.000,,,,,0,0,,,M,,M,,*55\r5\r\n"2022-06-04 13:46:06
"||||||||||||-66,6969,$ACCEL,2.16,8.92,-3.66,$ALT,659.76,-195.85B\u0001\r\n"2022-06-04 13:46:07
"||||||||||||-65,6969,$GNRMC,134603.000,V,,,,,0.54,0.00,040622,,,N*53\r\u000f\r\n"2022-06-04 13:46:07
"||||||||||||-64,6969,$ACCEL,0.12,9.57,-2.45,$ALT,659.82,-195.86,N*53\r\u000f\r\n"2022-06-04 13:46:07
"||||||||||||-68,6969,$ACCEL,0.11,9.74,-0.80,$ALT,659.90,-195.88B\u0001\r\n"2022-06-04 13:46:08
"||||||||||||-66,6969,$GNRMC,134604.000,A,3520.9208,N,11748.4183,W,0.32,0.00,040622,,,A*67\r\r\n"2022-06-04 13:46:08
"||||||||||||-64,6969,$ACCEL,0.11,9.74,-0.80,$ALT,659.94,-195.89,W,0.32,0.00,040622,,,A*67\r\r\n"2022-06-04 13:46:09
"||||||||||||-58,6969,$GNRM,.39706,,\r$GNGGA,134606.000,3520.9191,N,11748.4194,W,1,04,7.91,1110.3,M,-29.3,M,DR6,.,4006*$GNGGA,134607.000,3520\r\n"2022-06-04 13:46:11
"||||||||||||-64,6969,$ACCEL,1.09,9.66,-1.52,$ALT,659.91,-195.81,N,11748.4194,W,1,04,7.91,1110.3,M,-29.3,M,DR6,.,4006*$GNGGA,134607.000,3520\r\n"2022-06-04 13:46:12
"||||||||||||-63,6969,$GNRMC,134607.000,A,3520.9111.0$GNGGA,134608.000,3520.9180,N,11748.4199,W,1,04,7.92,1105.2,M,-29.3,M,\r$GNGGA,134609.00\r\n"2022-06-04 13:46:12
"||||||||||||-63,6969,$ACCEL,1.09,9.66,-1.52,$ALT,659.74,-195.7508.000,3520.9180,N,11748.4199,W,1,04,7.92,1105.2,M,-29.3,M,\r$GNGGA,134609.00\r\n"2022-06-04 13:46:13
"||||||||||||-59,6969,$GNRMC,134609.000,A554150,T,659.74,-195.7508.000,3520.9180,N,11748.4199,W,1,04,7.92,1105.2,M,-29.3,M,\r$GNGGA,134609.00\r\n"2022-06-04 13:46:13
"||||||||||||-68,6969,$GNGGA,134610.000,3520.9172,N,11748.4202,W,1,04,7.93,1101.1,M,-29.3,M,,*7B\r,04,7.92,1105.2,M,-29.3,M,\r$GNGGA,134609.00\r\n"2022-06-04 13:46:13
"||||||||||||-63,6969,$ACCEL,0.19,9.71,-1.30,$ALT,660.29,-195.91B\u0001\r\n"2022-06-04 13:46:14
"||||||||||||-63,6969,$GNRMC,134610.000,A,3520.9172,N,11748.4202,W,0.19,0.00,040622,6$GNGGA,134611.000,3520.9173,N,11748.4195,W,1,05,1.76,11 \r\n"2022-06-04 13:46:15
"||||||||||||-69,6969,$ACCEL,0.41,9.71,-1.19,$ALT,659.65,-195.69,W,0.19,0.00,040622,6$GNGGA,134611.000,3520.9173,N,11748.4195,W,1,05,1.76,11 \r\n"2022-06-04 13:46:15
"||||||||||||-54,6969,$GNRMC,1346,.,40.6*$GNGGA,134612.000,3520.9169,N,11748.4185,W,1,05,1.76,1099.2,M,-29.3,M,,*70\r1748.4195,W,1,05,1.76,11 \r\n"2022-06-04 13:46:16
"||||||||||||-44,6969,$ACCEL,-0.81,9.85,-1.09,$ALT,659.25,-195.53\u0001\r\n"2022-06-04 13:46:16
"||||||||||||-42,6969,$GNRMC,1346118.021$GNGGA,134613.000,3520.9168,N,11748.4172,W,1,05,1.76,1098.8,M,-29.3,M,,*73\r\r\n"2022-06-04 13:46:17
"||||||||||||-43,6969,$ACCEL,-0.60,9.53,-1.67,$ALT,659.88,-195.6668,N,11748.4172,W,1,05,1.76,1098.8,M,-29.3,M,,*73\r\r\n"2022-06-04 13:46:17
"||||||||||||-40,6969,$GNRMC,134613.000,A,3$GNGGA,134614.000,3520.9168,N,11748.4162,W,1,05,1.76,1098.6,M,-29.3,M,,*7B\r\r\n"2022-06-04 13:46:18
"||||||||||||-48,6969,$ACCEL,0.24,9.45,-1.52,$ALT,659.98,-195.680.9168,N,11748.4162,W,1,05,1.76,1098.6,M,-29.3,M,,*7B\r\r\n"2022-06-04 13:46:19
"||||||||||||-54,6969,$GNRMC,134614.000,A,3520.9168,N,11748.410.6*$GNGGA,134615.000,3520.9165,N,11748.4161,W,1,04,7.95,1097.8,M,-29.3,M,,*7F\r\n"2022-06-04 13:46:19
"||||||||||||-54,6969,$ACCEL,0.11,9.69,-1.47,$ALT,659.97,-195.72B\u0001\r\n"2022-06-04 13:46:20
"||||||||||||-55,6969,$GNRMC,13400N.,.0A$GNGGA,134616.000,3520.9178,N,11748.4148,W,1,05,1.76,1103.8,M,-29.3,M,,*7D\r\r\n"2022-06-04 13:46:20
"||||||||||||-57,6969,$ACCEL,-0.30,9.74,-1.11,$ALT,660.06,-195.76\u0005R\r\n"2022-06-04 13:46:21
"||||||||||||-54,6969,$GNRMC,134616.00A911.026$GNGGA,134617.000,3520.9179,N,11748.4149,W,1,05,1.76,1103.9,M,-29.3,M,,*7D\r,\u0001\r\n"2022-06-04 13:46:21
"||||||||||||-51,6969,$ACCEL,-0.30,9.74,-1.11,$ALT,659.90,-195.71520.9179,N,11748.4149,W,1,05,1.76,1103.9,M,-29.3,M,,*7D\r,\u0001\r\n"2022-06-04 13:46:21
"||||||||||||-51,6969,$GNRMC,134617.00594,,4,,$ALT,659.90,-195.71520.9179,N,11748.4149,W,1,05,1.76,1103.9,M,-29.3,M,,*7D\r,\u0001\r\n"2022-06-04 13:46:21
"||||||||||||-44,6969,$ACCEL,-0.13,9.70,-0.98,$ALT,659.67,-195.66520.9179,N,11748.4149,W,1,05,1.76,1103.9,M,-29.3,M,,*7D\r,\u0001\r\n"2022-06-04 13:46:22
"||||||||||||-47,6969,$GNGGA,134618.000,3520.9179,N,11748.4151,W,1,05,1.76,1103.7,M,-29.3,M,,*75\r6,1103.9,M,-29.3,M,,*7D\r,\u0001\r\n"2022-06-04 13:46:22
"||||||||||||-45,6969,$ACCEL,2.18,9.57,-2.97,$ALT,659.90,-195.72,1,05,1.76,1103.7,M,-29.3,M,,*75\r6,1103.9,M,-29.3,M,,*7D\r,\u0001\r\n"2022-06-04 13:46:23
"||||||||||||-48,6969,$GNRMC,134618.00N.,.6*$GNGGA,134619.000,3520.9176,N,11748.4154,W,1,05,1.76,1102.4,M,-29.3,M,,*7C\rD\r,\u0001\r\n"2022-06-04 13:46:23
"||||||||||||-49,6969,$ACCEL,1.39,9.35,-2.77,$ALT,659.84,-195.6920.9176,N,11748.4154,W,1,05,1.76,1102.4,M,-29.3,M,,*7C\rD\r,\u0001\r\n"2022-06-04 13:46:24
"||||||||||||-49,6969,$GNRMC,1349,115102D$GNGGA,134620.000,3520.9175,N,11748.4155,W,1,05,1.76,1102.0,M,-29.3,M,,*70\r\r\n"2022-06-04 13:46:24
"||||||||||||-56,6969,$ACCEL,-0.03,9.66,-1.37,$ALT,659.97,-195.72\u0001\r\n"2022-06-04 13:46:25
"||||||||||||-58,6969,$GNRMC,134620.000N.,00A$GNGGA,134621.000,3520.9175,N,11748.4156,W,1,05,1.76,1102.5,M2,G302,4,,4,$GNGGA,134622.000,3520 \r\n"2022-06-04 13:46:25
"||||||||||||-61,6969,$ACCEL,-0.03,9.66,-1.37,$ALT,659.86,-195.69\u0001\r\n"2022-06-04 13:46:26
"||||||||||||-56,6969,$GNRMC,134622.000,A,567790,T,659.86,-195.69\u0001\r\n"2022-06-04 13:46:26
"||||||||||||-66,6969,$ACCEL,-1.86,9.17,1.51,$ALT,659.82,-195.67\r\n"2022-06-04 13:46:26
"||||||||||||-60,6969,$GNGGA,134623.000,3520.9175,N,11748.4156,W,1,05,1.76,1103.9,M,-29.3,M,,*78\r]K\r\n"2022-06-04 13:46:27
"||||||||||||-57,6969,$ACCEL,-1.96,9.50,0.27,$ALT,660.09,-195.77,1,05,1.76,1103.9,M,-29.3,M,,*78\r]K\r\n"2022-06-04 13:46:27
"||||||||||||-53,6969,$GNRMC,134623.02,8,,4,$GNGGA,134624.000,3520.9176,N,11748.4156,W,1,04,8.01,1104.5,M,-29.3,M,,*7F\r\r\n"2022-06-04 13:46:28
"||||||||||||-57,6969,$ACCEL,-3.20,9.43,-0.45,$ALT,659.80,-195.740.9176,N,11748.4156,W,1,04,8.01,1104.5,M,-29.3,M,,*7F\r\r\n"2022-06-04 13:46:28
"||||||||||||-54,6969,$GNRMC,134624.00,1150,,\r$GNGGA,134625.000,3520.9175,N,11748.4154,W,1,06,1.69,1105.0,M,-29.3,M,,*7E\r,\u0001\r\n"2022-06-04 13:46:29
"||||||||||||-47,6969,$ACCEL,-3.69,9.07,-0.46,$ALT,659.85,-195.84\u0001\r\n"2022-06-04 13:46:29
"||||||||||||-50,6969,$GNRMC,134625.000,A,3520.9175,N,11748.4154,W,0.$GNGGA,134626.000,3520.9169,N,11748.4161,W,1,06,1.69,1102.5,M,-29.3,M,, \r\n"2022-06-04 13:46:30
"||||||||||||-52,6969,$ACCEL,-3.69,9.07,-0.46,$ALT,659.81,-195.86W,0.$GNGGA,134626.000,3520.9169,N,11748.4161,W,1,06,1.69,1102.5,M,-29.3,M,, \r\n"2022-06-04 13:46:30
"||||||||||||-53,6969,$10567180,69,9.07,-0.46,$ALT,659.81,-195.86W,0.$GNGGA,134626.000,3520.9169,N,11748.4161,W,1,06,1.69,1102.5,M,-29.3,M,, \r\n"2022-06-04 13:46:30
"||||||||||||-49,6969,$ACCEL,-1.75,9.12,3.32,$ALT,659.83,-195.90\r\n"2022-06-04 13:46:31
"||||||||||||-52,6969,$GNGGA,134627.000,3520.9163,N,11748.4167,W,1,06,1.69,1099.8,M,-29.3,M,,*77\r]K\r\n"2022-06-04 13:46:31
"||||||||||||-48,6969,$ACCEL,-1.71,9.11,3.12,$ALT,659.74,-195.94,1,06,1.69,1099.8,M,-29.3,M,,*77\r]K\r\n"2022-06-04 13:46:32
"||||||||||||-52,6969,$GNRMC,134627.000,A36161,,\r$GNGGA,134628.000,3520.9163,N,11748.4167,W,1,06,1.69,1099.4,M,-29.3,M,,*74\r @B\u000f\r\n"2022-06-04 13:46:32
"||||||||||||-49,6969,$ACCEL,-1.71,9.11,3.12,$ALT,659.71,-195.92\r\n"2022-06-04 13:46:32
"||||||||||||-49,6969,$GNRMC,134628.0534750,,$ALT,659.71,-195.92\r\n"2022-06-04 13:46:32
"||||||||||||-48,6969,$ACCEL,-2.75,9.24,0.84,$ALT,659.62,-195.80\r\n"2022-06-04 13:46:33
"||||||||||||-39,6969,$GNRMC,134629.0214,,4,$GNGGA,134630.000,3520.9159,N,11748.4171,W,1,06,1.69,1098.4,M32M6,.,4002$GNGGA,134631.000,3520.9 \r\n"2022-06-04 13:46:34
"||||||||||||-40,6969,$ACCEL,-2.95,9.31,-0.92,$ALT,659.69,-195.71\u0001\r\n"2022-06-04 13:46:35
"||||||||||||-39,6969,$GNRMC,134631.000,A,3.,400A$GNGGA,134632.000,3520.9155,N,11748.4179,W,1,06,1.69,1094.6,M,-29.3,M,,*7A\r @B\u000f\r\n"2022-06-04 13:46:35
"||||||||||||-51,6969,$ACCEL,-2.21,9.42,-0.87,$ALT,659.66,-195.700,3520.9155,N,11748.4179,W,1,06,1.69,1094.6,M,-29.3,M,,*7A\r @B\u000f\r\n"2022-06-04 13:46:36
"||||||||||||-49,6969,$GNGGA,134633.000,3520.9146,N,11748.4188,W,1,06,1.69,1090.8,M,-29.3,M,,*7D\r1.69,1094.6,M,-29.3,M,,*7A\r @B\u000f\r\n"2022-06-04 13:46:36
"||||||||||||-49,6969,$ACCEL,-2.20,9.58,-0.41,$ALT,659.54,-195.671,06,1.69,1090.8,M,-29.3,M,,*7D\r1.69,1094.6,M,-29.3,M,,*7A\r @B\u000f\r\n"2022-06-04 13:46:37
"||||||||||||-49,6969,$GNRMC,134633.000347830,\r$GNGGA,134634.000,3520.9140,N,11748.4193,W,1,06,1.68,1087.2,M,-29.3,M,,*7B\rA\r @B\u000f\r\n"2022-06-04 13:46:37
"||||||||||||-44,6969,$ACCEL,-2.12,9.55,-0.06,$ALT,659.97,-195.773520.9140,N,11748.4193,W,1,06,1.68,1087.2,M,-29.3,M,,*7B\rA\r @B\u000f\r\n"2022-06-04 13:46:38
"||||||||||||-49,6969,$GNRMC,134634.000,A,3520.9140,N,11748.4193,W,0.20,0.00,040622*$GNGGA,134635.000,3520.9131,N,11748.4195,W,1,06,1.68,108 \r\n"2022-06-04 13:46:39
"||||||||||||-49,6969,$ACCEL,-2.20,9.55,-0.03,$ALT,659.92,-195.77W,0.20,0.00,040622*$GNGGA,134635.000,3520.9131,N,11748.4195,W,1,06,1.68,108 \r\n"2022-06-04 13:46:39
"||||||||||||-44,6969,$GNRMC,1346,0N.,.6*$GNGGA,134636.000,3520.9122,N,11748.4198,W,1,06,1.68,1080.6,M,-29.3,M,,*75\r748.4195,W,1,06,1.68,108 \r\n"2022-06-04 13:46:40
"||||||||||||-54,6969,$ACCEL,-2.13,9.54,0.02,$ALT,659.50,-195.60\r\n"2022-06-04 13:46:40
"||||||||||||-54,6969,$GNRMC,13463.32$GNGGA,134637.000,3520.9118,N,11748.4202,W,1,06,1.68,1079.8,M,-29.3,M,,*75\r\r\n"2022-06-04 13:46:40
"||||||||||||-43,6969,$ACCEL,-2.01,9.47,1.88,$ALT,659.75,-195.66,N,11748.4202,W,1,06,1.68,1079.8,M,-29.3,M,,*75\r\r\n"2022-06-04 13:46:41
"||||||||||||-43,6969,$GNRMC,134637.000,A,3520.$GNGGA,134638.000,3520.9117,N,11748.4207,W,1,06,1.68,1079.4,M,-29.3,M,,*7C\r\u0001\r\n"2022-06-04 13:46:41
"||||||||||||-39,6969,$ACCEL,-2.20,9.11,2.87,$ALT,659.79,-195.75,3520.9117,N,11748.4207,W,1,06,1.68,1079.4,M,-29.3,M,,*7C\r\u0001\r\n"2022-06-04 13:46:42
"||||||||||||-40,6969,$GNRMC,134638.000,A,3529,40026$GNGGA,134639.000,3520.9111,N,11748.4217,W,1,06,1.68,1076.3,M,-29.3,M,,*72\r\r\n"2022-06-04 13:46:43
"||||||||||||-38,6969,$ACCEL,-2.26,9.17,2.51,$ALT,659.70,-195.75B\u0001\r\n"2022-06-04 13:46:43
"||||||||||||-40,6969,$GNRMC,1346004,,4,$GNGGA,134640.000,3520.8220,N,11748.4890,W,1,07,1.61,670.8,M,-29.4,M,,*4C\rK\r\n"2022-06-04 13:46:43
"||||||||||||-40,6969,$ACCEL,-1.97,9.19,2.82,$ALT,659.86,-195.84220,N,11748.4890,W,1,07,1.61,670.8,M,-29.4,M,,*4C\rK\r\n"2022-06-04 13:46:44
"||||||||||||-41,6969,$GNRMC,134640.000,A8.,54,$GNGGA,134641.000,3520.8206,N,11748.4904,W,1,07,1.61,665.1,M,-29.4,M,,*48\r`\r\n"2022-06-04 13:46:44
"||||||||||||-42,6969,$ACCEL,-2.03,9.15,2.79,$ALT,659.87,-195.86\r\n"2022-06-04 13:46:45
"||||||||||||-45,6969,$GNRMC,134641.000,A04,,,,7$GNGGA,134642.000,3520.8199,N,11748.4912,W,1,07,1.61,661.7,M,-29.4,M,,*4B\r\u0001\r\n"2022-06-04 13:46:45
"||||||||||||-41,6969,$ACCEL,-2.16,9.19,2.35,$ALT,659.73,-195.830,3520.8199,N,11748.4912,W,1,07,1.61,661.7,M,-29.4,M,,*4B\r\u0001\r\n"2022-06-04 13:46:46
"||||||||||||-45,6969,$GNRMC,134642.00311..6A$GNGGA,134643.000,3520.8197,N,11748.4917,W,1,07,1.61,659.6,M,-29.4,M,,*4B\r4B\r\u0001\r\n"2022-06-04 13:46:46
"||||||||||||-43,6969,$ACCEL,-2.54,9.13,2.34,$ALT,659.71,-195.82520.8197,N,11748.4917,W,1,07,1.61,659.6,M,-29.4,M,,*4B\r4B\r\u0001\r\n"2022-06-04 13:46:47
"||||||||||||-41,6969,$GNRMC,134643.0,819..A$GNGGA,134644.000,3520.8199,N,11748.4918,W,1,07,1.61,659.0,M,-29.4,M,,*4B\r\r\n"2022-06-04 13:46:47
"||||||||||||-38,6969,$ACCEL,-2.52,9.09,2.93,$ALT,659.93,-195.9020.8199,N,11748.4918,W,1,07,1.61,659.0,M,-29.4,M,,*4B\r\r\n"2022-06-04 13:46:48
"||||||||||||-41,6969,$GNRMC,134644.000,2,8W304$GNGGA,134645.000,3520.8198,N,11748.4915,W,1,07,1.61,658.5,M,-29.4,M,,*42\r`\r\n"2022-06-04 13:46:48
"||||||||||||-42,6969,$ACCEL,-2.57,9.02,2.69,$ALT,659.79,-195.88,3520.8198,N,11748.4915,W,1,07,1.61,658.5,M,-29.4,M,,*42\r`\r\n"2022-06-04 13:46:49
"||||||||||||-41,6969,$GNRMC,134645.0A814000A$GNGGA,134646.000,3520.8199,N,11748.4912,W,1,07,1.61,658.7,M,-29.4,M,,*45\r2\r`\r\n"2022-06-04 13:46:49
"||||||||||||-41,6969,$ACCEL,-2.38,9.25,2.24,$ALT,659.57,-195.80520.8199,N,11748.4912,W,1,07,1.61,658.7,M,-29.4,M,,*45\r2\r`\r\n"2022-06-04 13:46:50
"||||||||||||-40,6969,$GNRMC,134646.0,0N.,54,$GNGGA,134647.000,3520.8197,N,11748.4911,W,1,07,1.61,658.4,M,-29.4,M,,*4A\r2\r`\r\n"2022-06-04 13:46:50
"||||||||||||-44,6969,$ACCEL,-1.85,9.36,1.89,$ALT,659.44,-195.77520.8197,N,11748.4911,W,1,07,1.61,658.4,M,-29.4,M,,*4A\r2\r`\r\n"2022-06-04 13:46:51
"||||||||||||-45,6969,$GNRMC,134647.00,0N.,54,$GNGGA,134648.000,3520.8197,N,11748.4907,W,1,07,1.61,658.8,M,-29.4,M,,*4E\r\r`\r\n"2022-06-04 13:46:51
"||||||||||||-52,6969,$ACCEL,-2.95,9.26,1.69,$ALT,659.44,-195.84B\u0001\r\n"2022-06-04 13:46:52
"||||||||||||-52,6969,$GNRMC,134648.00A.,4000A$GNGGA,134649.000,3520.8199,N,11748.4905,W,1,07,1.61,659.4,M,-29.4,M,,*4E\r\r\n"2022-06-04 13:46:52
"||||||||||||-47,6969,$ACCEL,-2.95,9.26,1.69,$ALT,659.49,-195.883520.8199,N,11748.4905,W,1,07,1.61,659.4,M,-29.4,M,,*4E\r\r\n"2022-06-04 13:46:53
"||||||||||||-45,6969,$GNRMC,134649.000N.,54,$ALT,659.49,-195.883520.8199,N,11748.4905,W,1,07,1.61,659.4,M,-29.4,M,,*4E\r\r\n"2022-06-04 13:46:53
"||||||||||||-45,6969,$ACCEL,-3.34,9.09,1.13,$ALT,659.31,-195.813520.8199,N,11748.4905,W,1,07,1.61,659.4,M,-29.4,M,,*4E\r\r\n"2022-06-04 13:46:53
"||||||||||||-47,6969,$GNGGA,134650.000,3520.8198,N,11748.4901,W,1,07,1.61,659.6,M,-29.4,M,,*41\r\r\n"2022-06-04 13:46:54
"||||||||||||-42,6969,$ACCEL,-2.31,9.47,0.19,$ALT,659.52,-195.75B\u0001\r\n"2022-06-04 13:46:54
"||||||||||||-45,6969,$GNRMC,134650.0A814000A$GNGGA,134651.000,3520.8200,N,11748.4899,W,1,07,1.61,659.9,M,-29.4,M,,*4D\r\r\n"2022-06-04 13:46:55
"||||||||||||-43,6969,$ACCEL,0.64,9.30,-3.06,$ALT,660.02,-195.83\r\n"2022-06-04 13:46:55
"||||||||||||-47,6969,$GNRMC,134651.00,818.522$GNGGA,134652.000,3520.8193,N,11748.4908,W,1,06,2.95,654.6,M,-29.4,M,,*45\r\r\n"2022-06-04 13:46:56
"||||||||||||-48,6969,$ACCEL,1.37,9.16,-3.28,$ALT,660.54,-195.963520.8193,N,11748.4908,W,1,06,2.95,654.6,M,-29.4,M,,*45\r\r\n"2022-06-04 13:46:57
"||||||||||||-48,6969,$GNRMC,134652.0,0N.,.6*$GNGGA,134653.000,3520.8192,N,11748.4906,W,1,07,1.61,654.6,M,M\rC3,110572F$GNGGA,134654.000,3520\r\n"2022-06-04 13:46:57
"||||||||||||-49,6969,$ACCEL,1.52,9.12,-3.23,$ALT,659.20,-195.51520.8192,N,11748.4906,W,1,07,1.61,654.6,M,M\rC3,110572F$GNGGA,134654.000,3520\r\n"2022-06-04 13:46:58
"||||||||||||-45,6969,$GNRMC,134654.000,A,32,8W44,$GNGGA,134655.000,3520.8176,N,11748.4916,W,1,08,1.58,645.5,M,-29.4,M,,*49\r @B\u000f\r\n"2022-06-04 13:46:58
"||||||||||||-55,6969,$ACCEL,0.97,9.29,-3.12,$ALT,659.20,-195.48\r\n"2022-06-04 13:46:59
"||||||||||||-49,6969,$GNRMC,134655.000A8140826$GNGGA,134656.000,3520.8171,N,11748.4920,W,1,08,1.58,642.3,M,-29.4,M,,*49\r,\u0001\r\n"2022-06-04 13:46:59
"||||||||||||-47,6969,$ACCEL,0.30,9.31,-2.70,$ALT,658.87,-195.36,3520.8171,N,11748.4920,W,1,08,1.58,642.3,M,-29.4,M,,*49\r,\u0001\r\n"2022-06-04 13:47:00
"||||||||||||-47,6969,$GNRMC,134656.000,A,3520.7125,,\r$GNGGA,134657.000,3520.8170,N,11748.4920,W,1,08,1.58,642.2,M,-29.4,M,,*48\r\r\n"2022-06-04 13:47:00
"||||||||||||-49,6969,$ACCEL,1.38,9.65,-0.95,$ALT,659.40,-195.48657.000,3520.8170,N,11748.4920,W,1,08,1.58,642.2,M,-29.4,M,,*48\r\r\n"2022-06-04 13:47:01
"||||||||||||-61,6969,$GNRMC,134657.000,A,3520.8170,N,11748.4$GNGGA,134658.000,3520.8167,N,11748.4923,W,1,07,2.72,640.5,M,-29.4,M,,*43\r\r\n"2022-06-04 13:47:01
"||||||||||||-53,6969,$ACCEL,0.50,10.18,-0.47,$ALT,659.33,-195.42GA,134658.000,3520.8167,N,11748.4923,W,1,07,2.72,640.5,M,-29.4,M,,*43\r\r\n"2022-06-04 13:47:02
"||||||||||||-50,6969,$GNRMC,134658.000,A,3520.816$GNGGA,134659.000,3520.8162,N,11748.4924,W,1,08,1.58,638.9,M,-29.4,M,,*47\r9.4,M,,*43\r\r\n"2022-06-04 13:47:02
"||||||||||||-50,6969,$ACCEL,0.16,9.94,-0.50,$ALT,658.92,-195.27000,3520.8162,N,11748.4924,W,1,08,1.58,638.9,M,-29.4,M,,*47\r9.4,M,,*43\r\r\n"2022-06-04 13:47:03
"||||||||||||-48,6969,$GNRMC,134659.000,A,3520.$GNGGA,134700.000,3520.8160,N,11748.4928,W,1,08,1.58,638.7,M,-29.4,M,,*4A\r47\r9.4,M,,*43\r\r\n"2022-06-04 13:47:03
"||||||||||||-50,6969,$ACCEL,0.45,9.62,-1.47,$ALT,658.54,-195.13,3520.8160,N,11748.4928,W,1,08,1.58,638.7,M,-29.4,M,,*4A\r47\r9.4,M,,*43\r\r\n"2022-06-04 13:47:04
"||||||||||||-53,6969,$GNRMC,134700.000,A,3520.8160,N7$GNGGA,134701.000,3520.8159,N,11748.4930,W,1,08,1.58,638.2,M,-29.4,M,,*4D\r\r\n"2022-06-04 13:47:04
"||||||||||||-47,6969,$ACCEL,0.34,9.29,-1.27,$ALT,658.86,-195.20701.000,3520.8159,N,11748.4930,W,1,08,1.58,638.2,M,-29.4,M,,*4D\r\r\n"2022-06-04 13:47:05
"||||||||||||-49,6969,$GNRMC,134701.000,357030,\r$GNGGA,134702.000,3520.8159,N,11748.4932,W,1,08,1.58,638.4,M,-29.4,M,,*4A\r,,*4D\r\r\n"2022-06-04 13:47:05
"||||||||||||-50,6969,$ACCEL,-0.62,9.95,-0.63,$ALT,659.36,-195.33,3520.8159,N,11748.4932,W,1,08,1.58,638.4,M,-29.4,M,,*4A\r,,*4D\r\r\n"2022-06-04 13:47:06
"||||||||||||-44,6969,$GNRMC,1347000,8W40A$GNGGA,134703.000,3520.8158,N,11748.4935,W,1,08,1.58,637.9,M,-29.4,M,,*4F\r\r\n"2022-06-04 13:47:06
"||||||||||||-65,6969,$ACCEL,-0.12,9.75,-0.30,$ALT,659.23,-195.28\u0001\r\n"2022-06-04 13:47:07
"||||||||||||-66,6969,$GNRMC,134703.035751,,\r$GNGGA,134704.000,3520.8156,N,11748.4937,W,1,08,1.58,637.3,M,-29.4,M,,*4E\r\r\n"2022-06-04 13:47:07
"||||||||||||-66,6969,$ACCEL,-0.12,9.18,-3.07,$ALT,658.89,-195.1720.8156,N,11748.4937,W,1,08,1.58,637.3,M,-29.4,M,,*4E\r\r\n"2022-06-04 13:47:08
"||||||||||||-59,6969,$GNRMC,134704.0,819.725$GNGGA,134705.000,3520.8153,N,11748.4938,W,1,08,1.58,636.4,M,-29.4,M,,*43\r\r\n"2022-06-04 13:47:08
"||||||||||||-54,6969,$ACCEL,-0.09,9.09,-3.71,$ALT,659.30,-195.2820.8153,N,11748.4938,W,1,08,1.58,636.4,M,-29.4,M,,*43\r\r\n"2022-06-04 13:47:09
"||||||||||||-61,6969,$GNRMC,134705.,113.728$GNGGA,134706.000,3520.8152,N,11748.4937,W,1,08,1.58,636.6,M,-29.4,M,,*4C\r\r\r\n"2022-06-04 13:47:09
"||||||||||||-58,6969,$ACCEL,-0.09,9.09,-3.71,$ALT,658.89,-195.140.8152,N,11748.4937,W,1,08,1.58,636.6,M,-29.4,M,,*4C\r\r\r\n"2022-06-04 13:47:10
"||||||||||||-58,6969,$GNRMC,134706.0524790,1,$ALT,658.89,-195.140.8152,N,11748.4937,W,1,08,1.58,636.6,M,-29.4,M,,*4C\r\r\r\n"2022-06-04 13:47:10
"||||||||||||-59,6969,$ACCEL,-0.10,9.08,-3.71,$ALT,659.21,-195.230.8152,N,11748.4937,W,1,08,1.58,636.6,M,-29.4,M,,*4C\r\r\r\n"2022-06-04 13:47:10
"||||||||||||-60,6969,$GNGGA,134707.000,3520.8154,N,11748.4938,W,1,08,1.58,636.9,M,-29.4,M,,*4B\r\r\n"2022-06-04 13:47:10
"||||||||||||-57,6969,$ACCEL,-0.10,9.08,-3.71,$ALT,659.20,-195.22\u0005R\r\n"2022-06-04 13:47:11
"||||||||||||-58,6969,$GNRMC,134707.0544,,0,1,$ALT,659.20,-195.22\u0005R\r\n"2022-06-04 13:47:12
"||||||||||||-63,6969,$ACCEL,-0.08,9.08,-3.72,$ALT,659.05,-195.18\u0001\r\n"2022-06-04 13:47:12
"||||||||||||-56,6969,$GNRMC,134708.00,.,4086*$GNGGA,134709.000,3520.8156,N,11748.4950,W,1,08,1.58,636.5,M,-29.4,M,,*45\r\r\n"2022-06-04 13:47:14
"||||||||||||-55,6969,$ACCEL,-0.08,9.08,-3.71,$ALT,658.94,-195.11\u0005R\r\n"2022-06-04 13:47:14
"||||||||||||-55,6969,$GNRMC,134709.00035706026$GNGGA,134710.000,3520.8156,N,11748.4959,W,1,08,1.58,636.1,M,-MB\u000f\r\n"2022-06-04 13:47:14
"||||||||||||-54,6969,$ACCEL,-0.09,9.09,-3.72,$ALT,658.84,-195.073520.8156,N,11748.4959,W,1,08,1.58,636.1,M,-MB\u000f\r\n"2022-06-04 13:47:15
"||||||||||||-58,6969,,.35756,,\r$GNGGA,134711.000,3520.8156,N,11748.4966,W,1,08,1.58,635.8,M,-29.4,M,,*47\r\r\n"2022-06-04 13:47:15
"||||||||||||-57,6969,$ACCEL,-0.09,9.10,-3.71,$ALT,658.72,-195.0248.4966,W,1,08,1.58,635.8,M,-29.4,M,,*47\r\r\n"2022-06-04 13:47:16
"||||||||||||-60,6969,$A$GNGGA,134712.000,3520.8156,N,11748.4971,W,1,08,1.58,635.7,M,-29.4,M,,*4D\r,M,,*47\r\r\n"2022-06-04 13:47:16
"||||||||||||-55,6969,$ACCEL,-0.08,9.07,-3.72,$ALT,658.93,-195.08W,1,08,1.58,635.7,M,-29.4,M,,*4D\r,M,,*47\r\r\n"2022-06-04 13:47:17
"||||||||||||-54,6969,$GNRMC,134712.000,A,355773,,\r$GNGGA,134713.000,3520.8156,N,11748.4975,W,1,08,1.58,635.6,M,-29.4,M,,*49\r\r\n"2022-06-04 13:47:17
"||||||||||||-50,6969,$ACCEL,-0.09,9.09,-3.72,$ALT,658.78,-195.01000,3520.8156,N,11748.4975,W,1,08,1.58,635.6,M,-29.4,M,,*49\r\r\n"2022-06-04 13:47:18
"||||||||||||-49,6969,$GNRMC,134713.00A.,40726$GNGGA,134714.000,3520.8156,N,11748.4979,W,1,08,1.58,635.5,M,-29.4,M,,*41\r\r\n"2022-06-04 13:47:18
"||||||||||||-50,6969,$ACCEL,-0.08,9.10,-3.73,$ALT,658.94,-195.04520.8156,N,11748.4979,W,1,08,1.58,635.5,M,-29.4,M,,*41\r\r\n"2022-06-04 13:47:19
"||||||||||||-53,6969,$GNRMC,134714.00A8190726$GNGGA,134715.000,3520.8156,N,11748.4983,W,1,08,1.58,635.6,M,-29.4,M,,*46\r\r\n"2022-06-04 13:47:19
"||||||||||||-51,6969,$ACCEL,-0.09,9.10,-3.72,$ALT,659.12,-195.04520.8156,N,11748.4983,W,1,08,1.58,635.6,M,-29.4,M,,*46\r\r\n"2022-06-04 13:47:20
"||||||||||||-54,6969,$GNRMC,134715.000,A.,40726$GNGGA,134716.000,3520.8155,N,11748.4985,W,1,08,1.58,635.7,M,-29.4,M,,*41\r\r\n"2022-06-04 13:47:20
"||||||||||||-55,6969,$ACCEL,-0.10,9.06,-3.70,$ALT,659.03,-195.07,3520.8155,N,11748.4985,W,1,08,1.58,635.7,M,-29.4,M,,*41\r\r\n"2022-06-04 13:47:21
"||||||||||||-56,6969,$GNRMC,134716.000,A,352,8W00A$GNGGA,134717.000,3520.8155,N,11748.4988,W,1,08,1.58,635.9,M,-29.4,M,,*43\r@B\u000f\r\n"2022-06-04 13:47:21
"||||||||||||-55,6969,$ACCEL,-0.08,9.04,-3.74,$ALT,659.01,-195.06000,3520.8155,N,11748.4988,W,1,08,1.58,635.9,M,-29.4,M,,*43\r@B\u000f\r\n"2022-06-04 13:47:22
"||||||||||||-57,6969,$GNRMC,134717.,119.52E$GNGGA,134718.000,3520.8152,N,11748.4991,W,1,08,1.58,636.1,M,-29.4,M,,*48\rM,,*43\r@B\u000f\r\n"2022-06-04 13:47:22
"||||||||||||-52,6969,$ACCEL,-0.09,9.08,-3.73,$ALT,659.10,-195.070.8152,N,11748.4991,W,1,08,1.58,636.1,M,-29.4,M,,*48\rM,,*43\r@B\u000f\r\n"2022-06-04 13:47:23
"||||||||||||-55,6969,$GNRMC,134718.002,8W00A$GNGGA,134719.000,3520.8154,N,11748.4992,W,1,08,1.58,636.6,M,-29.4,M,,*4B\r,,*43\r@B\u000f\r\n"2022-06-04 13:47:23
"||||||||||||-53,6969,$ACCEL,-0.08,9.11,-3.72,$ALT,659.02,-195.0420.8154,N,11748.4992,W,1,08,1.58,636.6,M,-29.4,M,,*4B\r,,*43\r@B\u000f\r\n"2022-06-04 13:47:24
"||||||||||||-61,6969,$GNRMC,134719.000,8W00A$GNGGA,134720.000,3520.8155,N,11748.4994,W,1,08,1.58,637.2,M,-29.4,M,,*43\r,,*43\r@B\u000f\r\n"2022-06-04 13:47:24
"||||||||||||-54,6969,$ACCEL,-0.09,9.07,-3.72,$ALT,658.85,-194.9720.8155,N,11748.4994,W,1,08,1.58,637.2,M,-29.4,M,,*43\r,,*43\r@B\u000f\r\n"2022-06-04 13:47:25
"||||||||||||-60,6969,$GNRMC,134720.000,8W00A$GNGGA,134721.000,3520.8157,N,11748.4996,W,1,08,1.58,637.5,M,-29.4,M,,*45\r\r\n"2022-06-04 13:47:25
"||||||||||||-58,6969,$ACCEL,-0.09,9.07,-3.72,$ALT,659.09,-195.0320.8157,N,11748.4996,W,1,08,1.58,637.5,M,-29.4,M,,*45\r\r\n"2022-06-04 13:47:25
"||||||||||||-57,6969,$GNRMC,134721.00574670,,$ALT,659.09,-195.0320.8157,N,11748.4996,W,1,08,1.58,637.5,M,-29.4,M,,*45\r\r\n"2022-06-04 13:47:25
"||||||||||||-60,6969,$ACCEL,-0.09,9.04,-3.72,$ALT,658.92,-194.98\u0001\r\n"2022-06-04 13:47:26
"||||||||||||-58,6969,$GNRMC,134722.00A819.526$GNGGA,134723.000,3520.8163,N,11748.4998,W,1,08,1.58,638.8,M,-29.4,M,,*4C\r\r\n"2022-06-04 13:47:27
"||||||||||||-59,6969,$ACCEL,-0.08,9.10,-3.75,$ALT,659.08,-195.00520.8163,N,11748.4998,W,1,08,1.58,638.8,M,-29.4,M,,*4C\r\r\n"2022-06-04 13:47:28
"||||||||||||-60,6969,$GNRMC,134723.00,1194,28$GNGGA,134724.000,3520.8164,N,11748.5000,W,1,08,1.58,638.9,M,-29.4,M,,*44\r\r\n"2022-06-04 13:47:28
"||||||||||||-63,6969,$ACCEL,-0.09,9.10,-3.72,$ALT,658.96,-194.97520.8164,N,11748.5000,W,1,08,1.58,638.9,M,-29.4,M,,*44\r\r\n"2022-06-04 13:47:30
"||||||||||||-64,6969,$GNRMC,134724.00367010,\r$GNGGA,134725.000,3520.8164,N,11748.5001,W,1,08,1.58,639.0,M,-2,G302,4,,4,$GNGGA,134726.000,35\r\n"2022-06-04 13:47:30
"||||||||||||-57,6969,$ACCEL,-0.09,9.08,-3.73,$ALT,658.93,-194.93\u0001\r\n"2022-06-04 13:47:31
"||||||||||||-52,6969,$GNRMC,134726.000,A,3544,,,\r$GNGGA,134727.000,3520.8164,N,11748.5001,W,1,08,1.58,639.4,M,-29.4,M,,*4A\r @B\u000f\r\n"2022-06-04 13:47:31
"||||||||||||-56,6969,$ACCEL,-0.09,9.09,-3.72,$ALT,658.86,-194.9000,3520.8164,N,11748.5001,W,1,08,1.58,639.4,M,-29.4,M,,*4A\r @B\u000f\r\n"2022-06-04 13:47:32
"||||||||||||-52,6969,$GNRMC,134727.00367110,$GNGGA,134728.000,3520.8162,N,11748.5002,W,1,08,1.57,639.6,M,-29.4,M,,*4D\r,*4A\r @B\u000f\r\n"2022-06-04 13:47:32
"||||||||||||-61,6969,$ACCEL,-0.08,9.07,-3.71,$ALT,658.88,-194.8920.8162,N,11748.5002,W,1,08,1.57,639.6,M,-29.4,M,,*4D\r,*4A\r @B\u000f\r\n"2022-06-04 13:47:33
"||||||||||||-59,6969,$GNRMC,134728.0036724,,\r$GNGGA,134729.000,3520.8162,N,11748.5003,W,1,08,1.57,639.3,M,-29.4,M,,*48\r*4A\r @B\u000f\r\n"2022-06-04 13:47:33
"||||||||||||-55,6969,$ACCEL,-0.08,9.09,-3.73,$ALT,658.84,-194.87520.8162,N,11748.5003,W,1,08,1.57,639.3,M,-29.4,M,,*48\r*4A\r @B\u000f\r\n"2022-06-04 13:47:34
"||||||||||||-56,6969,$ACCEL,-0.08,9.09,-3.73,$ALT,658.69,-194.80\u0005R\r\n"2022-06-04 13:47:36
"||||||||||||-56,6969,$GNRMC,134731.000,A,3.,$GNGGA,134732.000,3520.8160,N,11748.5007,W,1,08,1.57,639.2,M,-29.4,M,,*45\r\r\n"2022-06-04 13:47:36
"||||||||||||-54,6969,$ACCEL,-0.08,9.07,-3.73,$ALT,658.55,-194.75\u0001\r\n"2022-06-04 13:47:37
"||||||||||||-60,6969,$GNRMC,134732.000,A,3810$GNGGA,134733.000,3520.8158,N,11748.5008,W,1,08,1.57,639.1,M,-29.4,M,,*43\r\r\n"2022-06-04 13:47:37
"||||||||||||-56,6969,$ACCEL,-0.08,9.09,-3.73,$ALT,659.08,-194.90520.8158,N,11748.5008,W,1,08,1.57,639.1,M,-29.4,M,,*43\r\r\n"2022-06-04 13:47:38
"||||||||||||-59,6969,$GNRMC,134733.000,A,350N.,.0A$GNGGA,134734.000,3520.8157,N,11748.5009,W,1,08,1.57,638.6,M,-29.4,M,,*4C\r@B\u000f\r\n"2022-06-04 13:47:38
"||||||||||||-58,6969,$ACCEL,-0.08,9.09,-3.72,$ALT,659.29,-194.96000,3520.8157,N,11748.5009,W,1,08,1.57,638.6,M,-29.4,M,,*4C\r@B\u000f\r\n"2022-06-04 13:47:39
"||||||||||||-60,6969,$GNRMC,1344,810.524$GNGGA,134735.000,3520.8156,N,11748.5010,W,1,08,1.57,638.4,M,-29.4,M,,*46\r.4,M,,*4C\r@B\u000f\r\n"2022-06-04 13:47:39
"||||||||||||-56,6969,$ACCEL,-0.08,9.05,-3.71,$ALT,658.89,-194.85156,N,11748.5010,W,1,08,1.57,638.4,M,-29.4,M,,*46\r.4,M,,*4C\r@B\u000f\r\n"2022-06-04 13:47:40
"||||||||||||-56,6969,$GNRMC,134735.,.,5,.6*$GNGGA,134736.000,3520.8157,N,11748.5011,W,1,08,1.57,638.1,M,-29.4,M,,*40\rM,,*4C\r@B\u000f\r\n"2022-06-04 13:47:40
"||||||||||||-58,6969,$ACCEL,-0.08,9.05,-3.71,$ALT,659.01,-194.88\u0001\r\n"2022-06-04 13:47:40
"||||||||||||-59,6969,$GNRMC,134736.000,574120,\r\n"2022-06-04 13:47:40
"||||||||||||-59,6969,$ACCEL,-0.07,9.09,-3.73,$ALT,658.87,-194.82\u0005R\r\n"2022-06-04 13:47:41
"||||||||||||-58,6969,$GNGGA,134737.000,3520.8158,N,11748.5013,W,1,08,1.57,637.8,M,-29.4,M,,*4A\r\r\n"2022-06-04 13:47:41
"||||||||||||-58,6969,$ACCEL,-0.07,9.09,-3.73,$ALT,659.05,-194.861,08,1.57,637.8,M,-29.4,M,,*4A\r\r\n"2022-06-04 13:47:41
"||||||||||||-58,6969,$GNRMC,1347370584,,0,73,$ALT,659.05,-194.861,08,1.57,637.8,M,-29.4,M,,*4A\r\r\n"2022-06-04 13:47:41
"||||||||||||-60,6969,$ACCEL,-0.08,9.09,-3.73,$ALT,658.79,-194.781,08,1.57,637.8,M,-29.4,M,,*4A\r\r\n"2022-06-04 13:47:42
"||||||||||||-58,6969,$GNGGA,134738.000,3520.8157,N,11748.5012,W,1,08,1.57,638.1,M,-29.4,M,,*4D\r\r\n"2022-06-04 13:47:42
"||||||||||||-60,6969,$ACCEL,-0.06,9.07,-3.75,$ALT,658.88,-194.811,08,1.57,638.1,M,-29.4,M,,*4D\r\r\n"2022-06-04 13:47:43
"||||||||||||-59,6969,$GNRMC,134738.,.,.,.6*$GNGGA,134739.000,3520.8158,N,11748.5013,W,1,08,1.57,638.0,M,-29.4,M,,*43\r\r\n"2022-06-04 13:47:43
"||||||||||||-63,6969,$ACCEL,-0.06,9.07,-3.73,$ALT,658.69,-194.710.8158,N,11748.5013,W,1,08,1.57,638.0,M,-29.4,M,,*43\r\r\n"2022-06-04 13:47:45
"||||||||||||-57,6969,$GNRMC,134739.000,1111526$GNGGA,134740.000,3520.8157,N,11748.5013,W,1,08,1.57,638.0,M,.4R7,.,.,.6*$GNGGA,134741.000,35\r\n"2022-06-04 13:47:45
"||||||||||||-59,6969,$ACCEL,-0.06,9.07,-3.73,$ALT,658.62,-194.67\u0001\r\n"2022-06-04 13:47:45
"||||||||||||-59,6969,$GNR$GNGGA,134742.000,3520.8157,N,11748.5013,W,1,08,1.57,638.0,M,-29.4,M,,*40\r\r\n"2022-06-04 13:47:46
"||||||||||||-57,6969,$ACCEL,-0.09,9.08,-3.74,$ALT,658.84,-194.723,W,1,08,1.57,638.0,M,-29.4,M,,*40\r\r\n"2022-06-04 13:47:46
"||||||||||||-55,6969,$GNRMC,134742.000,A,351110524$GNGGA,134743.000,3520.8157,N,11748.5013,W,1,08,1.57,638.0,M,-29.4,M,,*41\r@B\u000f\r\n"2022-06-04 13:47:47
"||||||||||||-57,6969,$ACCEL,-0.07,9.10,-3.72,$ALT,659.08,-194.80000,3520.8157,N,11748.5013,W,1,08,1.57,638.0,M,-29.4,M,,*41\r@B\u000f\r\n"2022-06-04 13:47:47
"||||||||||||-54,6969,$GNRMC,134743.00,1110,,7$GNGGA,134744.000,3520.8157,N,11748.5013,W,1,08,1.57,638.0,M,-29.4,M,,*46\r\r\n"2022-06-04 13:47:48
"||||||||||||-58,6969,$ACCEL,-0.08,9.08,-3.73,$ALT,659.15,-194.82\u0001\r\n"2022-06-04 13:47:48
"||||||||||||-59,6969,$GNRMC,134744.000,A,3520.8157,N,11748.5013,W,0.05,0.75,040622,\r\n"2022-06-04 13:47:48
"||||||||||||-63,6969,$ACCEL,-0.08,9.08,-3.72,$ALT,658.82,-194.72W,0.05,0.75,040622,\r\n"2022-06-04 13:47:49
"||||||||||||-63,6969,$GNRMC,1$GNGGA,134746.000,3520.8157,N,11748.5013,W,1,08,1.57,638.0,M,-29.4,M,,*44\r P\r\n"2022-06-04 13:47:50
"||||||||||||-63,6969,$ACCEL,-0.11,9.08,-3.72,$ALT,658.85,-194.71.5013,W,1,08,1.57,638.0,M,-29.4,M,,*44\r P\r\n"2022-06-04 13:47:51
"||||||||||||-60,6969,$GNRMC,134746.000,A,3520.8157$GNGGA,134747.000,3520.8157,N,11748.5013,W,1,08,1.57,638.0,M,-29.4,M,,*45\r@B\u000f\r\n"2022-06-04 13:47:51
"||||||||||||-67,6969,$ACCEL,-0.09,9.09,-3.73,$ALT,659.01,-194.75\u0001\r\n"2022-06-04 13:47:52
"||||||||||||-64,6969,$GNRMC,134747.000,A,3520$GNGGA,134748.000,3520.8157,N,11748.5013,W,1,08,1.57,638.0,M,-2G302,4,,4,$GNGGA,134749.000,352 \r\n"2022-06-04 13:47:53
"||||||||||||-59,6969,$ACCEL,-0.10,9.06,-3.71,$ALT,658.83,-194.70\u0005R\r\n"2022-06-04 13:47:53
"||||||||||||-58,6969,$GNRMC,134749.000,A,3520N.,.6*$GNGGA,134750.000,3520.8157,N,11748.5014,W,1,08,1.57,638.0,M,-29.4,M,,*44\r\r\n"2022-06-04 13:47:54
"||||||||||||-59,6969,$ACCEL,-0.08,9.07,-3.70,$ALT,658.91,-194.71.000,3520.8157,N,11748.5014,W,1,08,1.57,638.0,M,-29.4,M,,*44\r\r\n"2022-06-04 13:47:54
"||||||||||||-56,6969,$GNRMC,134750.000,A2,8W00A$GNGGA,134751.000,3520.8157,N,11748.5013,W,1,08,1.57,638.0,M,-29.4,M,,*42\r*44\r\r\n"2022-06-04 13:47:55
"||||||||||||-64,6969,$ACCEL,-0.10,9.09,-3.73,$ALT,658.95,-194.73\u0001\r\n"2022-06-04 13:47:55
"||||||||||||-61,6969,$GNRMC,134751.00A810.526$GNGGA,134752.000,3520.8157,N,11748.5013,W,1,08,1.57,638.0,M,-29.4,M,,*41\r\r\n"2022-06-04 13:47:56
"||||||||||||-61,6969,$ACCEL,-0.09,9.07,-3.73,$ALT,659.09,-194.76\u0001\r\n"2022-06-04 13:47:57
"||||||||||||-54,6969,$GNRMC,134752.000,A,3520.8157,N,11748.5013,W$GNGGA,134753.000,3520.8156,N,11748.5013,W,1,08,1.57,638.0,M,-29.4,M,,*41\r \r\n"2022-06-04 13:47:57
"||||||||||||-58,6969,$ACCEL,-0.08,9.08,-3.72,$ALT,658.85,-194.69W$GNGGA,134753.000,3520.8156,N,11748.5013,W,1,08,1.57,638.0,M,-29.4,M,,*41\r \r\n"2022-06-04 13:47:58
"||||||||||||-59,6969,$GNRMC,134753.000,A,3520.8156,$GNGGA,134754.000,3520.8156,N,11748.5013,W,1,08,1.57,638.0,M,-29.4,M,,*46\r,-29.4,M,,*41\r \r\n"2022-06-04 13:47:58
"||||||||||||-56,6969,$ACCEL,-0.08,9.08,-3.72,$ALT,658.85,-194.69.000,3520.8156,N,11748.5013,W,1,08,1.57,638.0,M,-29.4,M,,*46\r,-29.4,M,,*41\r \r\n"2022-06-04 13:47:59
"||||||||||||-59,6969,$GNRMC,134754.000,A,35208,$GNGGA,134755.000,3520.8154,N,11748.5013,W,1,08,1.57,638.0,M,-29.4,M,,*45\r\r\n"2022-06-04 13:47:59
"||||||||||||-55,6969,$ACCEL,-0.09,9.06,-3.73,$ALT,658.93,-194.70,3520.8154,N,11748.5013,W,1,08,1.57,638.0,M,-29.4,M,,*45\r\r\n"2022-06-04 13:48:00
"||||||||||||-58,6969,$GNRMC,134755.000,A,3511$GNGGA,134756.000,3520.8153,N,11748.5013,W,1,08,1.57,638.0,M,-29.4,M,,*41\r5\r\r\n"2022-06-04 13:48:00
"||||||||||||-61,6969,$ACCEL,-0.08,9.09,-3.73,$ALT,658.92,-194.70\u0001\r\n"2022-06-04 13:48:01
"||||||||||||-60,6969,$GNRMC,134756.000,A,35113,,\r$GNGGA,134757.000,3520.8152,N,11748.5014,W,1,08,1.57,638.0,M,-29.4,M,,*46\r @B\u000f\r\n"2022-06-04 13:48:01
"||||||||||||-59,6969,$ACCEL,-0.08,9.08,-3.72,$ALT,659.00,-194.7300,3520.8152,N,11748.5014,W,1,08,1.57,638.0,M,-29.4,M,,*46\r @B\u000f\r\n"2022-06-04 13:48:02
"||||||||||||-60,6969,$GNRMC,13477A810.522$GNGGA,134758.000,3520.8152,N,11748.5014,W,1,08,1.57,638.0,M,-29.4,M,,*49\r,M,,*46\r @B\u000f\r\n"2022-06-04 13:48:02
"||||||||||||-56,6969,$ACCEL,-0.09,9.09,-3.71,$ALT,659.04,-194.74\u0001\r\n"2022-06-04 13:48:03
"||||||||||||-61,6969,$GNRMC,13475.31112,,\r$GNGGA,134759.000,3520.8151,N,11748.5015,W,1,08,1.57,638.0,M,-29.4,M,,*4A\r\r\n"2022-06-04 13:48:03
"||||||||||||-61,6969,$ACCEL,-0.09,9.09,-3.71,$ALT,658.87,-194.68.8151,N,11748.5015,W,1,08,1.57,638.0,M,-29.4,M,,*4A\r\r\n"2022-06-04 13:48:03
"||||||||||||-65,6969,$GNRMC,134759.00517520,\r\n"2022-06-04 13:48:03
"||||||||||||-61,6969,$ACCEL,-0.07,9.07,-3.73,$ALT,658.97,-194.71\u0001\r\n"2022-06-04 13:48:04
"||||||||||||-61,6969,$GNGGA,134800.000,3520.8150,N,11748.5015,W,1,08,1.57,638.0,M,-29.4,M,,*48\r\r\n"2022-06-04 13:48:04
"||||||||||||-60,6969,$ACCEL,-0.07,9.07,-3.73,$ALT,658.75,-194.631,08,1.57,638.0,M,-29.4,M,,*48\r\r\n"2022-06-04 13:48:04
"||||||||||||-61,6969,$GNRMC,134800.00504,00,,$ALT,658.75,-19\r\n"2022-06-04 13:48:04
"||||||||||||-60,6969,$ACCEL,-0.07,9.10,-3.73,$ALT,658.97,-194.69\u0001\r\n"2022-06-04 13:48:05
"||||||||||||-60,6969,$GNGGA,134801.000,3520.8149,N,11748.5015,W,1,08,1.57,638.0,M,-29.4,M,,*41\r\r\n"2022-06-04 13:48:05
"||||||||||||-60,6969,$ACCEL,-0.07,9.10,-3.73,$ALT,658.82,-194.64\u0001\r\n"2022-06-04 13:48:05
"||||||||||||-60,6969,$GNRMC,134801.000,594,70,ALT,658.82,-194.64\u0001\r\n"2022-06-04 13:48:05
"||||||||||||-56,6969,$ACCEL,-0.10,9.08,-3.74,$ALT,658.78,-194.61\u0001\r\n"2022-06-04 13:48:06
"||||||||||||-57,6969,$ACCEL,-0.09,9.08,-3.73,$ALT,658.77,-194.60\u0001\r\n"2022-06-04 13:48:08
"||||||||||||-63,6969,$GNRMC,13480.34116426$GNGGA,134803.000,3520.8145,N,11748.5017,W,1,08,1.57,638.0,M,9*N302,8W10,\r$GNGGA,134804.000,3520. \r\n"2022-06-04 13:48:08
"||||||||||||-63,6969,$ACCEL,-0.09,9.07,-3.73,$ALT,658.84,-194.62.8145,N,11748.5017,W,1,08,1.57,638.0,M,9*N302,8W10,\r$GNGGA,134804.000,3520. \r\n"2022-06-04 13:48:08
"||||||||||||-56,6969,$GN$GNGGA,134805.000,3520.8145,N,11748.5017,W,1,08,1.56,638.0,M,-29.4,M,,*4A\r.0,M,9*N302,8W10,\r$GNGGA,134804.000,3520. \r\n"2022-06-04 13:48:09
"||||||||||||-65,6969,$ACCEL,-0.10,9.11,-3.73,$ALT,658.81,-194.60\u0001\r\n"2022-06-04 13:48:09
"||||||||||||-61,6969,$GNRMC,134805.000,A,32,8W1$GNGGA,134806.000,3520.8142,N,11748.5017,W,1,08,1.56,638.0,M,-29.4,M,,*4E\r\r\n"2022-06-04 13:48:10
"||||||||||||-67,6969,$ACCEL,-0.08,9.08,-3.73,$ALT,659.15,-194.71,3520.8142,N,11748.5017,W,1,08,1.56,638.0,M,-29.4,M,,*4E\r\r\n"2022-06-04 13:48:10
"||||||||||||-68,6969,78426$GNGGA,134807.000,3520.8139,N,11748.5017,W,1,08,1.57,638.0,M,-29.4,M,,*42\r\r\n"2022-06-04 13:48:10
"||||||||||||-58,6969,$ACCEL,-0.09,9.09,-3.73,$ALT,659.14,-194.6817,W,1,08,1.57,638.0,M,-29.4,M,,*42\r\r\n"2022-06-04 13:48:11
"||||||||||||-63,6969,$GNRMC,134807.000,A,3520.8139,N,11748.5017,W,0.22,192.48,040622*$GNGGA,134808.000,3520.8134,N,11748.5017,W,1,08,1.56,6\r\n"2022-06-04 13:48:12
"||||||||||||-59,6969,$ACCEL,-0.09,9.07,-3.74,$ALT,659.20,-194.70\u0001\r\n"2022-06-04 13:48:12
"||||||||||||-63,6969,$GNRMC,1348.33778826$GNGGA,134809.000,3520.8133,N,11748.5017,W,1,08,1.56,638.0,M,-29.4,M,,*47\r\r\n"2022-06-04 13:48:13
"||||||||||||-53,6969,$ACCEL,-0.10,9.10,-3.70,$ALT,658.97,-194.638133,N,11748.5017,W,1,08,1.56,638.0,M,-29.4,M,,*47\r\r\n"2022-06-04 13:48:13
"||||||||||||-57,6969,$GNRMC,134809.000,A53775823$GNGGA,134810.000,3520.8142,N,11748.5016,W,1,10,1.07,638.0,M,-29.4,M,,*45\r\r\n"2022-06-04 13:48:14
"||||||||||||-56,6969,$ACCEL,-0.08,9.09,-3.73,$ALT,659.02,-194.64\u0001\r\n"2022-06-04 13:48:14
"||||||||||||-57,6969,$GNRMC,134810$GNGGA,134811.000,3520.8145,N,11748.5016,W,1,10,1.07,638.1,M,-29.4,M,,*42\r\u0001\r\n"2022-06-04 13:48:15
"||||||||||||-58,6969,$ACCEL,-0.09,9.09,-3.73,$ALT,658.92,-194.6011748.5016,W,1,10,1.07,638.1,M,-29.4,M,,*42\r\u0001\r\n"2022-06-04 13:48:15
"||||||||||||-58,6969,$GNRMC,134811.000,A,3520.8145,N,1178W10,.6011748.5016,W,1,10,1.07,638.1,M,-29.4,M,,*42\r\u0001\r\n"2022-06-04 13:48:15
"||||||||||||-61,6969,$ACCEL,-0.09,9.09,-3.73,$ALT,658.87,-194.5911748.5016,W,1,10,1.07,638.1,M,-29.4,M,,*42\r\u0001\r\n"2022-06-04 13:48:16
