"||||||||||||-58,6969,$ACCEL,3.30,6.73,-0.99,$ALT,774.75,-228.2829.6961,N,11657.5519,W,2,17,0.62,873.5,M,-31.0,M,,*47\r\n"2022-03-12 19:34:38"||||||||||||-58,6969,$ACCEL,3.30,6.73,-0.99,$ALT,774.75,-228.2829.6961,N,11657.5519,W,2,17,0.62,873.5,M,-31.0,M,,*47\r\n"2022-03-12 19:34:38
"||||||||||||-59,6969,$GNRMC,193434.000,A,$GNGGA,193435.000,3429.6961,N,11657.5518,W,2,17,0.62,873.4,M,-31.0,M,,*46\r\r\n"2022-03-12 19:34:38"||||||||||||-59,6969,$GNRMC,193434.000,A,$GNGGA,193435.000,3429.6961,N,11657.5518,W,2,17,0.62,873.4,M,-31.0,M,,*46\r\r\n"2022-03-12 19:34:38
"||||||||||||-54,6969,$ACCEL,5.04,3.69,-5.98,$ALT,774.81,-228.29.6961,N,11657.5518,W,2,17,0.62,873.4,M,-31.0,M,,*46\r\r\n"2022-03-12 19:34:39"||||||||||||-54,6969,$ACCEL,5.04,3.69,-5.98,$ALT,774.81,-228.29.6961,N,11657.5518,W,2,17,0.62,873.4,M,-31.0,M,,*46\r\r\n"2022-03-12 19:34:39
"||||||||||||-56,6969,$GNRMC,193435.000,A,3429.696,5010D$GNGGA,193436.000,3429.6962,N,11657.5518,W,2,17,0.62,873.4,M,-31.0,M,,*46\r\r\n"2022-03-12 19:34:39"||||||||||||-56,6969,$GNRMC,193435.000,A,3429.696,5010D$GNGGA,193436.000,3429.6962,N,11657.5518,W,2,17,0.62,873.4,M,-31.0,M,,*46\r\r\n"2022-03-12 19:34:39
"||||||||||||-56,6969,$ACCEL,7.55,4.99,-3.54,$ALT,774.88,-228.3293436.000,3429.6962,N,11657.5518,W,2,17,0.62,873.4,M,-31.0,M,,*46\r\r\n"2022-03-12 19:34:40"||||||||||||-56,6969,$ACCEL,7.55,4.99,-3.54,$ALT,774.88,-228.3293436.000,3429.6962,N,11657.5518,W,2,17,0.62,873.4,M,-31.0,M,,*46\r\r\n"2022-03-12 19:34:40
"||||||||||||-55,6969,$GNRMC,193436.0425,,,23$GNGGA,193437.000,3429.6962,N,11657.5518,W,2,17,0.62,873.4,M,-31.0,M,,*47\r1.0,M,,*46\r\r\n"2022-03-12 19:34:40"||||||||||||-55,6969,$GNRMC,193436.0425,,,23$GNGGA,193437.000,3429.6962,N,11657.5518,W,2,17,0.62,873.4,M,-31.0,M,,*47\r1.0,M,,*46\r\r\n"2022-03-12 19:34:40
"||||||||||||-56,6969,$ACCEL,5.63,3.01,-6.95,$ALT,774.70,-228.28429.6962,N,11657.5518,W,2,17,0.62,873.4,M,-31.0,M,,*47\r1.0,M,,*46\r\r\n"2022-03-12 19:34:41"||||||||||||-56,6969,$ACCEL,5.63,3.01,-6.95,$ALT,774.70,-228.28429.6962,N,11657.5518,W,2,17,0.62,873.4,M,-31.0,M,,*47\r1.0,M,,*46\r\r\n"2022-03-12 19:34:41
"||||||||||||-53,6969,$GNRMC,19347,615..3D$GNGGA,193438.000,3429.6962,N,11657.5520,W,2,17,0.62,873.4,M,-31.0,M,,*43\r47\r1.0,M,,*46\r\r\n"2022-03-12 19:34:41"||||||||||||-53,6969,$GNRMC,19347,615..3D$GNGGA,193438.000,3429.6962,N,11657.5520,W,2,17,0.62,873.4,M,-31.0,M,,*43\r47\r1.0,M,,*46\r\r\n"2022-03-12 19:34:41
"||||||||||||-53,6969,$ACCEL,5.33,4.32,-6.36,$ALT,774.44,-228.20.6962,N,11657.5520,W,2,17,0.62,873.4,M,-31.0,M,,*43\r47\r1.0,M,,*46\r\r\n"2022-03-12 19:34:42"||||||||||||-53,6969,$ACCEL,5.33,4.32,-6.36,$ALT,774.44,-228.20.6962,N,11657.5520,W,2,17,0.62,873.4,M,-31.0,M,,*43\r47\r1.0,M,,*46\r\r\n"2022-03-12 19:34:42
"||||||||||||-53,6969,$GNRMC,193438.000,2,7,,,,\r$GNGGA,193439.000,3429.6961,N,11657.5519,W,2,17,0.62,873.4,M,-31.0,M,,*4B\r\u0001\r\n"2022-03-12 19:34:42"||||||||||||-53,6969,$GNRMC,193438.000,2,7,,,,\r$GNGGA,193439.000,3429.6961,N,11657.5519,W,2,17,0.62,873.4,M,-31.0,M,,*4B\r\u0001\r\n"2022-03-12 19:34:42
"||||||||||||-57,6969,$ACCEL,5.94,5.73,-4.29,$ALT,774.33,-228.170,3429.6961,N,11657.5519,W,2,17,0.62,873.4,M,-31.0,M,,*4B\r\u0001\r\n"2022-03-12 19:34:43"||||||||||||-57,6969,$ACCEL,5.94,5.73,-4.29,$ALT,774.33,-228.170,3429.6961,N,11657.5519,W,2,17,0.62,873.4,M,-31.0,M,,*4B\r\u0001\r\n"2022-03-12 19:34:43
"||||||||||||-64,6969,$GNRMC,193439.000A.,5010,$GNGGA,193440.000,3429.6961,N,11657.5520,W,2,17,0.62,873.4,M,-31.0,M,,*4F\r`\r\n"2022-03-12 19:34:43"||||||||||||-64,6969,$GNRMC,193439.000A.,5010,$GNGGA,193440.000,3429.6961,N,11657.5520,W,2,17,0.62,873.4,M,-31.0,M,,*4F\r`\r\n"2022-03-12 19:34:43
"||||||||||||-58,6969,$ACCEL,7.80,5.43,-2.42,$ALT,774.30,-228.16,3429.6961,N,11657.5520,W,2,17,0.62,873.4,M,-31.0,M,,*4F\r`\r\n"2022-03-12 19:34:44"||||||||||||-58,6969,$ACCEL,7.80,5.43,-2.42,$ALT,774.30,-228.16,3429.6961,N,11657.5520,W,2,17,0.62,873.4,M,-31.0,M,,*4F\r`\r\n"2022-03-12 19:34:44
"||||||||||||-57,6969,$GNRMC,193440.0,.,5012,$GNGGA,193441.000,3429.6961,N,11657.5520,W,2,17,0.62,873.4,M,-31.0,M,,*4E\r\r\n"2022-03-12 19:34:44"||||||||||||-57,6969,$GNRMC,193440.0,.,5012,$GNGGA,193441.000,3429.6961,N,11657.5520,W,2,17,0.62,873.4,M,-31.0,M,,*4E\r\r\n"2022-03-12 19:34:44
"||||||||||||-61,6969,$ACCEL,8.06,4.71,-2.28,$ALT,774.28,-228.15\r\n"2022-03-12 19:34:45"||||||||||||-61,6969,$ACCEL,8.06,4.71,-2.28,$ALT,774.28,-228.15\r\n"2022-03-12 19:34:45
"||||||||||||-63,6969,$GNRMC,193441.000A615010D$GNGGA,193442.000,3429.6961,N,11657.5521,W,2,17,0.62,873.4,M,-31.0,M,,*4C\r,\u0001\r\n"2022-03-12 19:34:45"||||||||||||-63,6969,$GNRMC,193441.000A615010D$GNGGA,193442.000,3429.6961,N,11657.5521,W,2,17,0.62,873.4,M,-31.0,M,,*4C\r,\u0001\r\n"2022-03-12 19:34:45
"||||||||||||-64,6969,$ACCEL,8.53,4.44,-3.15,$ALT,774.43,-228.20,3429.6961,N,11657.5521,W,2,17,0.62,873.4,M,-31.0,M,,*4C\r,\u0001\r\n"2022-03-12 19:34:46"||||||||||||-64,6969,$ACCEL,8.53,4.44,-3.15,$ALT,774.43,-228.20,3429.6961,N,11657.5521,W,2,17,0.62,873.4,M,-31.0,M,,*4C\r,\u0001\r\n"2022-03-12 19:34:46
"||||||||||||-64,6969,$GNRMC,193442.000,A615..0D$GNGGA,193443.000,3429.6960,N,11657.5521,W,2,17,0.62,873.4,M,-31.0,M,,*4C\r\u0001\r\n"2022-03-12 19:34:46"||||||||||||-64,6969,$GNRMC,193442.000,A615..0D$GNGGA,193443.000,3429.6960,N,11657.5521,W,2,17,0.62,873.4,M,-31.0,M,,*4C\r\u0001\r\n"2022-03-12 19:34:46
"||||||||||||-61,6969,$ACCEL,8.35,4.98,-3.25,$ALT,774.32,-228.180,3429.6960,N,11657.5521,W,2,17,0.62,873.4,M,-31.0,M,,*4C\r\u0001\r\n"2022-03-12 19:34:47"||||||||||||-61,6969,$ACCEL,8.35,4.98,-3.25,$ALT,774.32,-228.180,3429.6960,N,11657.5521,W,2,17,0.62,873.4,M,-31.0,M,,*4C\r\u0001\r\n"2022-03-12 19:34:47
"||||||||||||-63,6969,$GNRMC,193443.00,615..3D$GNGGA,193444.000,3429.6960,N,11657.5520,W,2,17,0.62,873.4,M,-31.0,M,,*4A\rC\r\u0001\r\n"2022-03-12 19:34:47"||||||||||||-63,6969,$GNRMC,193443.00,615..3D$GNGGA,193444.000,3429.6960,N,11657.5520,W,2,17,0.62,873.4,M,-31.0,M,,*4A\rC\r\u0001\r\n"2022-03-12 19:34:47
"||||||||||||-63,6969,$ACCEL,8.25,4.69,-3.64,$ALT,774.34,-228.19B\u0001\r\n"2022-03-12 19:34:48"||||||||||||-63,6969,$ACCEL,8.25,4.69,-3.64,$ALT,774.34,-228.19B\u0001\r\n"2022-03-12 19:34:48
"||||||||||||-65,6969,$GNRMC,193444.00036601226$GNGGA,193445.000,3429.6959,N,11657.5521,W,2,17,0.62,873.4,M,-31.0,M,,*40\r`\r\n"2022-03-12 19:34:48"||||||||||||-65,6969,$GNRMC,193444.00036601226$GNGGA,193445.000,3429.6959,N,11657.5521,W,2,17,0.62,873.4,M,-31.0,M,,*40\r`\r\n"2022-03-12 19:34:48
"||||||||||||-56,6969,$ACCEL,8.25,4.69,-3.64,$ALT,774.48,-228.21,3429.6959,N,11657.5521,W,2,17,0.62,873.4,M,-31.0,M,,*40\r`\r\n"2022-03-12 19:34:49"||||||||||||-56,6969,$ACCEL,8.25,4.69,-3.64,$ALT,774.48,-228.21,3429.6959,N,11657.5521,W,2,17,0.62,873.4,M,-31.0,M,,*40\r`\r\n"2022-03-12 19:34:49
"||||||||||||-57,6969,$GNRMC,193445.00,9N.,52,ALT,774.48,-228.21,3429.6959,N,11657.5521,W,2,17,0.62,873.4,M,-31.0,M,,*40\r`\r\n"2022-03-12 19:34:49"||||||||||||-57,6969,$GNRMC,193445.00,9N.,52,ALT,774.48,-228.21,3429.6959,N,11657.5521,W,2,17,0.62,873.4,M,-31.0,M,,*40\r`\r\n"2022-03-12 19:34:49
"||||||||||||-53,6969,$ACCEL,5.57,2.28,-5.67,$ALT,774.41,-228.22,3429.6959,N,11657.5521,W,2,17,0.62,873.4,M,-31.0,M,,*40\r`\r\n"2022-03-12 19:34:49"||||||||||||-53,6969,$ACCEL,5.57,2.28,-5.67,$ALT,774.41,-228.22,3429.6959,N,11657.5521,W,2,17,0.62,873.4,M,-31.0,M,,*40\r`\r\n"2022-03-12 19:34:49
"||||||||||||-54,6969,$GNRMC,193446.002,7,,,,\r$GNGGA,193447.000,3429.6960,N,11657.5521,W,2,17,0.62,873.4,M,-31.0,M,,*48\r\r\n"2022-03-12 19:34:50"||||||||||||-54,6969,$GNRMC,193446.002,7,,,,\r$GNGGA,193447.000,3429.6960,N,11657.5521,W,2,17,0.62,873.4,M,-31.0,M,,*48\r\r\n"2022-03-12 19:34:50
"||||||||||||-56,6969,$ACCEL,1.71,9.62,-3.25,$ALT,774.06,-228.133429.6960,N,11657.5521,W,2,17,0.62,873.4,M,-31.0,M,,*48\r\r\n"2022-03-12 19:34:51"||||||||||||-56,6969,$ACCEL,1.71,9.62,-3.25,$ALT,774.06,-228.133429.6960,N,11657.5521,W,2,17,0.62,873.4,M,-31.0,M,,*48\r\r\n"2022-03-12 19:34:51
"||||||||||||-58,6969,$GNRMC,193447.3912122*$GNGGA,193448.000,3429.6960,N,11657.5522,W,2,17,0.62,873.4,M,-31.0,M,,*44\r8\r\r\n"2022-03-12 19:34:51"||||||||||||-58,6969,$GNRMC,193447.3912122*$GNGGA,193448.000,3429.6960,N,11657.5522,W,2,17,0.62,873.4,M,-31.0,M,,*44\r8\r\r\n"2022-03-12 19:34:51
"||||||||||||-61,6969,$ACCEL,0.61,7.56,-5.11,$ALT,773.84,-228.0629.6960,N,11657.5522,W,2,17,0.62,873.4,M,-31.0,M,,*44\r8\r\r\n"2022-03-12 19:34:53"||||||||||||-61,6969,$ACCEL,0.61,7.56,-5.11,$ALT,773.84,-228.0629.6960,N,11657.5522,W,2,17,0.62,873.4,M,-31.0,M,,*44\r8\r\r\n"2022-03-12 19:34:53
"||||||||||||-57,6969,$GNRMC,193448.000,2,5,,,,\r$GNGGA,193449.000,3429.6962,N,11657.5522,W,2,17,0.62,873.4,M,-307M4,.,5012,$GNGGA,193450.000\r\n"2022-03-12 19:34:53"||||||||||||-57,6969,$GNRMC,193448.000,2,5,,,,\r$GNGGA,193449.000,3429.6962,N,11657.5522,W,2,17,0.62,873.4,M,-307M4,.,5012,$GNGGA,193450.000\r\n"2022-03-12 19:34:53
"||||||||||||-53,6969,$ACCEL,1.57,9.17,-2.16,$ALT,774.05,-228.130,3429.6962,N,11657.5522,W,2,17,0.62,873.4,M,-307M4,.,5012,$GNGGA,193450.000\r\n"2022-03-12 19:34:54"||||||||||||-53,6969,$ACCEL,1.57,9.17,-2.16,$ALT,774.05,-228.130,3429.6962,N,11657.5522,W,2,17,0.62,873.4,M,-307M4,.,5012,$GNGGA,193450.000\r\n"2022-03-12 19:34:54
"||||||||||||-53,6969,$GNRMC,193450.000,A,34225,,329$GNGGA,193451.000,3429.6963,N,11657.5522,W,2,17,0.62,873.4,M,-31.0,M,,*4F\rB\u000f\r\n"2022-03-12 19:34:54"||||||||||||-53,6969,$GNRMC,193450.000,A,34225,,329$GNGGA,193451.000,3429.6963,N,11657.5522,W,2,17,0.62,873.4,M,-31.0,M,,*4F\rB\u000f\r\n"2022-03-12 19:34:54
"||||||||||||-60,6969,$ACCEL,2.09,8.78,-2.40,$ALT,773.99,-228.12\r\n"2022-03-12 19:34:55"||||||||||||-60,6969,$ACCEL,2.09,8.78,-2.40,$ALT,773.99,-228.12\r\n"2022-03-12 19:34:55
"||||||||||||-60,6969,$GNRMC,193451.0036622226$GNGGA,193452.000,3429.6963,N,11657.5521,W,2,17,0.62,873.4,M,-31.0,M,,*4F\r\r\n"2022-03-12 19:34:55"||||||||||||-60,6969,$GNRMC,193451.0036622226$GNGGA,193452.000,3429.6963,N,11657.5521,W,2,17,0.62,873.4,M,-31.0,M,,*4F\r\r\n"2022-03-12 19:34:55
"||||||||||||-57,6969,$ACCEL,4.56,6.04,-6.04,$ALT,774.41,-228.253429.6963,N,11657.5521,W,2,17,0.62,873.4,M,-31.0,M,,*4F\r\r\n"2022-03-12 19:34:57"||||||||||||-57,6969,$ACCEL,4.56,6.04,-6.04,$ALT,774.41,-228.253429.6963,N,11657.5521,W,2,17,0.62,873.4,M,-31.0,M,,*4F\r\r\n"2022-03-12 19:34:57
"||||||||||||-58,6969,$GNRMC,193452.000A.,5010D$GNGGA,193453.000,3429.6962,N,11657.5521,W,2,17,0.62,873.4,M,-31.0,M,,*4F\r,\u0001\r\n"2022-03-12 19:34:57"||||||||||||-58,6969,$GNRMC,193452.000A.,5010D$GNGGA,193453.000,3429.6962,N,11657.5521,W,2,17,0.62,873.4,M,-31.0,M,,*4F\r,\u0001\r\n"2022-03-12 19:34:57
"||||||||||||-53,6969,$ACCEL,1.28,3.09,-7.59,$ALT,774.39,-228.25,3429.6962,N,11657.5521,W,2,17,0.62,873.4,M,-31.0,M,,*4F\r,\u0001\r\n"2022-03-12 19:34:58"||||||||||||-53,6969,$ACCEL,1.28,3.09,-7.59,$ALT,774.39,-228.25,3429.6962,N,11657.5521,W,2,17,0.62,873.4,M,-31.0,M,,*4F\r,\u0001\r\n"2022-03-12 19:34:58
"||||||||||||-54,6969,$GNRMC,193453.000,A,3429.6962,N,11657.5521,W,$GNGGA,193454.000,3429.6962,N,11657.5520,W,2,17,0.62,873.4,M,-31.0,M,,*49\r\n"2022-03-12 19:34:58"||||||||||||-54,6969,$GNRMC,193453.000,A,3429.6962,N,11657.5521,W,$GNGGA,193454.000,3429.6962,N,11657.5520,W,2,17,0.62,873.4,M,-31.0,M,,*49\r\n"2022-03-12 19:34:58
"||||||||||||-53,6969,$ACCEL,7.87,2.62,-3.66,$ALT,774.11,-228.17B\u0001\r\n"2022-03-12 19:34:59"||||||||||||-53,6969,$ACCEL,7.87,2.62,-3.66,$ALT,774.11,-228.17B\u0001\r\n"2022-03-12 19:34:59
"||||||||||||-49,6969,$GNRMC,193454.000,A,3429.6962,$GNGGA,193455.000,3429.6962,N,11657.5520,W,2,17,0.62,873.4,M,-31.0,M,,*48\r\r\n"2022-03-12 19:34:59"||||||||||||-49,6969,$GNRMC,193454.000,A,3429.6962,$GNGGA,193455.000,3429.6962,N,11657.5520,W,2,17,0.62,873.4,M,-31.0,M,,*48\r\r\n"2022-03-12 19:34:59
"||||||||||||-50,6969,$ACCEL,9.24,3.16,-1.43,$ALT,774.09,-228.17B\u0001\r\n"2022-03-12 19:35:00"||||||||||||-50,6969,$ACCEL,9.24,3.16,-1.43,$ALT,774.09,-228.17B\u0001\r\n"2022-03-12 19:35:00
"||||||||||||-48,6969,$GNRMC,193455.000,A,3429$GNGGA,193456.000,3429.6960,N,11657.5519,W,2,17,0.62,873.4,M,-31.0,M,,*43\r\r\n"2022-03-12 19:35:00"||||||||||||-48,6969,$GNRMC,193455.000,A,3429$GNGGA,193456.000,3429.6960,N,11657.5519,W,2,17,0.62,873.4,M,-31.0,M,,*43\r\r\n"2022-03-12 19:35:00
"||||||||||||-44,6969,$ACCEL,6.45,4.25,-2.31,$ALT,774.14,-228.183429.6960,N,11657.5519,W,2,17,0.62,873.4,M,-31.0,M,,*43\r\r\n"2022-03-12 19:35:01"||||||||||||-44,6969,$ACCEL,6.45,4.25,-2.31,$ALT,774.14,-228.183429.6960,N,11657.5519,W,2,17,0.62,873.4,M,-31.0,M,,*43\r\r\n"2022-03-12 19:35:01
"||||||||||||-44,6969,$GNRMC,193456.000,A,3429.$GNGGA,193457.000,3429.6956,N,11657.5519,W,2,17,0.62,873.4,M,-31.0,M,,*47\r`\r\n"2022-03-12 19:35:01"||||||||||||-44,6969,$GNRMC,193456.000,A,3429.$GNGGA,193457.000,3429.6956,N,11657.5519,W,2,17,0.62,873.4,M,-31.0,M,,*47\r`\r\n"2022-03-12 19:35:01
"||||||||||||-47,6969,$ACCEL,6.45,4.25,-2.31,$ALT,773.95,-228.12,3429.6956,N,11657.5519,W,2,17,0.62,873.4,M,-31.0,M,,*47\r`\r\n"2022-03-12 19:35:01"||||||||||||-47,6969,$ACCEL,6.45,4.25,-2.31,$ALT,773.95,-228.12,3429.6956,N,11657.5519,W,2,17,0.62,873.4,M,-31.0,M,,*47\r`\r\n"2022-03-12 19:35:01
"||||||||||||-45,6969,$GNRMC,193457.000,A,3429.695N7W11,,-228.12,3429.6956,N,11657.5519,W,2,17,0.62,873.4,M,-31.0,M,,*47\r`\r\n"2022-03-12 19:35:02"||||||||||||-45,6969,$GNRMC,193457.000,A,3429.695N7W11,,-228.12,3429.6956,N,11657.5519,W,2,17,0.62,873.4,M,-31.0,M,,*47\r`\r\n"2022-03-12 19:35:02
"||||||||||||-47,6969,$ACCEL,-0.24,9.64,-1.13,$ALT,774.03,-228.163429.6956,N,11657.5519,W,2,17,0.62,873.4,M,-31.0,M,,*47\r`\r\n"2022-03-12 19:35:02"||||||||||||-47,6969,$ACCEL,-0.24,9.64,-1.13,$ALT,774.03,-228.163429.6956,N,11657.5519,W,2,17,0.62,873.4,M,-31.0,M,,*47\r`\r\n"2022-03-12 19:35:02
"||||||||||||-47,6969,$GNGGA,193458.000,3429.6955,N,11657.5520,W,2,17,0.62,873.4,M,-31.0,M,,*41\r.62,873.4,M,-31.0,M,,*47\r`\r\n"2022-03-12 19:35:02"||||||||||||-47,6969,$GNGGA,193458.000,3429.6955,N,11657.5520,W,2,17,0.62,873.4,M,-31.0,M,,*41\r.62,873.4,M,-31.0,M,,*47\r`\r\n"2022-03-12 19:35:02
"||||||||||||-48,6969,$ACCEL,-0.24,9.64,-1.13,$ALT,773.95,-228.142,17,0.62,873.4,M,-31.0,M,,*41\r.62,873.4,M,-31.0,M,,*47\r`\r\n"2022-03-12 19:35:03"||||||||||||-48,6969,$ACCEL,-0.24,9.64,-1.13,$ALT,773.95,-228.142,17,0.62,873.4,M,-31.0,M,,*41\r.62,873.4,M,-31.0,M,,*47\r`\r\n"2022-03-12 19:35:03
"||||||||||||-48,6969,$GNRMC,19345,.N.,52,.13,$ALT,773.95,-228.142,17,0.62,873.4,M,-31.0,M,,*41\r.62,873.4,M,-31.0,M,,*47\r`\r\n"2022-03-12 19:35:03"||||||||||||-48,6969,$GNRMC,19345,.N.,52,.13,$ALT,773.95,-228.142,17,0.62,873.4,M,-31.0,M,,*41\r.62,873.4,M,-31.0,M,,*47\r`\r\n"2022-03-12 19:35:03
"||||||||||||-56,6969,$ACCEL,1.07,8.26,4.71,$ALT,773.80,-228.08142,17,0.62,873.4,M,-31.0,M,,*41\r.62,873.4,M,-31.0,M,,*47\r`\r\n"2022-03-12 19:35:03"||||||||||||-56,6969,$ACCEL,1.07,8.26,4.71,$ALT,773.80,-228.08142,17,0.62,873.4,M,-31.0,M,,*41\r.62,873.4,M,-31.0,M,,*47\r`\r\n"2022-03-12 19:35:03
"||||||||||||-54,6969,$GNGGA,193459.000,3429.6954,N,11657.5520,W,2,17,0.62,873.4,M,-31.0,M,,*41\r.62,873.4,M,-31.0,M,,*47\r`\r\n"2022-03-12 19:35:03"||||||||||||-54,6969,$GNGGA,193459.000,3429.6954,N,11657.5520,W,2,17,0.62,873.4,M,-31.0,M,,*41\r.62,873.4,M,-31.0,M,,*47\r`\r\n"2022-03-12 19:35:03
"||||||||||||-52,6969,$ACCEL,0.32,9.13,-2.09,$ALT,773.80,-228.09,2,17,0.62,873.4,M,-31.0,M,,*41\r.62,873.4,M,-31.0,M,,*47\r`\r\n"2022-03-12 19:35:04"||||||||||||-52,6969,$ACCEL,0.32,9.13,-2.09,$ALT,773.80,-228.09,2,17,0.62,873.4,M,-31.0,M,,*41\r.62,873.4,M,-31.0,M,,*47\r`\r\n"2022-03-12 19:35:04
"||||||||||||-44,6969,$GNRMC,193459.035622626$GNGGA,193500.000,3429.6954,N,11657.5520,W,2,17,0.62,873.4,M,-31.0,M,,*4C\r7\r`\r\n"2022-03-12 19:35:04"||||||||||||-44,6969,$GNRMC,193459.035622626$GNGGA,193500.000,3429.6954,N,11657.5520,W,2,17,0.62,873.4,M,-31.0,M,,*4C\r7\r`\r\n"2022-03-12 19:35:04
"||||||||||||-41,6969,$ACCEL,0.32,9.13,-2.09,$ALT,773.84,-228.10429.6954,N,11657.5520,W,2,17,0.62,873.4,M,-31.0,M,,*4C\r7\r`\r\n"2022-03-12 19:35:05"||||||||||||-41,6969,$ACCEL,0.32,9.13,-2.09,$ALT,773.84,-228.10429.6954,N,11657.5520,W,2,17,0.62,873.4,M,-31.0,M,,*4C\r7\r`\r\n"2022-03-12 19:35:05
"||||||||||||-41,6969,$GNRMC,193500.0009N.,51,ALT,773.84,-228.10429.6954,N,11657.5520,W,2,17,0.62,873.4,M,-31.0,M,,*4C\r7\r`\r\n"2022-03-12 19:35:05"||||||||||||-41,6969,$GNRMC,193500.0009N.,51,ALT,773.84,-228.10429.6954,N,11657.5520,W,2,17,0.62,873.4,M,-31.0,M,,*4C\r7\r`\r\n"2022-03-12 19:35:05
"||||||||||||-50,6969,$ACCEL,4.95,6.57,-1.84,$ALT,773.84,-228.12429.6954,N,11657.5520,W,2,17,0.62,873.4,M,-31.0,M,,*4C\r7\r`\r\n"2022-03-12 19:35:06"||||||||||||-50,6969,$ACCEL,4.95,6.57,-1.84,$ALT,773.84,-228.12429.6954,N,11657.5520,W,2,17,0.62,873.4,M,-31.0,M,,*4C\r7\r`\r\n"2022-03-12 19:35:06
"||||||||||||-49,6969,$GNGGA,193501.000,3429.6954,N,11657.5522,W,2,17,0.62,873.5M,\rC1,615..3D$GNGGA,193502.000,3429.6953,N,11657.5523,W,2,17 \r\n"2022-03-12 19:35:06"||||||||||||-49,6969,$GNGGA,193501.000,3429.6954,N,11657.5522,W,2,17,0.62,873.5M,\rC1,615..3D$GNGGA,193502.000,3429.6953,N,11657.5523,W,2,17 \r\n"2022-03-12 19:35:06
"||||||||||||-48,6969,$ACCEL,7.88,5.16,2.12,$ALT,773.79,-228.09W,2,17,0.62,873.5M,\rC1,615..3D$GNGGA,193502.000,3429.6953,N,11657.5523,W,2,17 \r\n"2022-03-12 19:35:07"||||||||||||-48,6969,$ACCEL,7.88,5.16,2.12,$ALT,773.79,-228.09W,2,17,0.62,873.5M,\rC1,615..3D$GNGGA,193502.000,3429.6953,N,11657.5523,W,2,17 \r\n"2022-03-12 19:35:07
"||||||||||||-49,6969,$GNRM\r$GNGGA,193503.000,3429.6952,N,11657.5524,W,2,17,0.62,873.4,M,-31.0,M,,*4D\r\b\r\n"2022-03-12 19:35:07"||||||||||||-49,6969,$GNRM\r$GNGGA,193503.000,3429.6952,N,11657.5524,W,2,17,0.62,873.4,M,-31.0,M,,*4D\r\b\r\n"2022-03-12 19:35:07
"||||||||||||-53,6969,$ACCEL,6.99,6.07,3.16,$ALT,773.63,-228.06.5524,W,2,17,0.62,873.4,M,-31.0,M,,*4D\r\b\r\n"2022-03-12 19:35:08"||||||||||||-53,6969,$ACCEL,6.99,6.07,3.16,$ALT,773.63,-228.06.5524,W,2,17,0.62,873.4,M,-31.0,M,,*4D\r\b\r\n"2022-03-12 19:35:08
"||||||||||||-45,6969,$GNRMC,193503.000,A,342,7W,,,\r$GNGGA,193504.000,3429.6952,N,11657.5524,W,2,17,0.62,873.4,M,-31.0,M,,*4A\rB\u000f\r\n"2022-03-12 19:35:08"||||||||||||-45,6969,$GNRMC,193503.000,A,342,7W,,,\r$GNGGA,193504.000,3429.6952,N,11657.5524,W,2,17,0.62,873.4,M,-31.0,M,,*4A\rB\u000f\r\n"2022-03-12 19:35:08
"||||||||||||-47,6969,$ACCEL,7.94,5.64,2.70,$ALT,773.89,-228.14\r\n"2022-03-12 19:35:09"||||||||||||-47,6969,$ACCEL,7.94,5.64,2.70,$ALT,773.89,-228.14\r\n"2022-03-12 19:35:09
"||||||||||||-44,6969,$GNRMC,193504.000$GNGGA,193505.000,3429.6952,N,11657.5523,W,2,17,0.62,873.4,M,-31.0,M,,*4C\r\r\n"2022-03-12 19:35:09"||||||||||||-44,6969,$GNRMC,193504.000$GNGGA,193505.000,3429.6952,N,11657.5523,W,2,17,0.62,873.4,M,-31.0,M,,*4C\r\r\n"2022-03-12 19:35:09
"||||||||||||-39,6969,$ACCEL,8.46,2.04,-1.31,$ALT,774.07,-228.2052,N,11657.5523,W,2,17,0.62,873.4,M,-31.0,M,,*4C\r\r\n"2022-03-12 19:35:10"||||||||||||-39,6969,$ACCEL,8.46,2.04,-1.31,$ALT,774.07,-228.2052,N,11657.5523,W,2,17,0.62,873.4,M,-31.0,M,,*4C\r\r\n"2022-03-12 19:35:10
"||||||||||||-40,6969,$GNRMC,193505.000,A,3429.6952,N,11657.5523,W1626$GNGGA,193506.000,3429.6952,N,11657.5523,W,2,17,0.62,873.4,M,-31.0,M,,\r\n"2022-03-12 19:35:10"||||||||||||-40,6969,$GNRMC,193505.000,A,3429.6952,N,11657.5523,W1626$GNGGA,193506.000,3429.6952,N,11657.5523,W,2,17,0.62,873.4,M,-31.0,M,,\r\n"2022-03-12 19:35:10
"||||||||||||-43,6969,$ACCEL,8.63,3.36,-3.15,$ALT,774.01,-228.20,W1626$GNGGA,193506.000,3429.6952,N,11657.5523,W,2,17,0.62,873.4,M,-31.0,M,,\r\n"2022-03-12 19:35:11"||||||||||||-43,6969,$ACCEL,8.63,3.36,-3.15,$ALT,774.01,-228.20,W1626$GNGGA,193506.000,3429.6952,N,11657.5523,W,2,17,0.62,873.4,M,-31.0,M,,\r\n"2022-03-12 19:35:11
"||||||||||||-43,6969,$GNRMC,1935002,7W11,\r$GNGGA,193507.000,3429.6952,N,11657.5523,W,2,17,0.62,873.4,M,-31.0,M,,*4E\r,0.62,873.4,M,-31.0,M,,\r\n"2022-03-12 19:35:11"||||||||||||-43,6969,$GNRMC,1935002,7W11,\r$GNGGA,193507.000,3429.6952,N,11657.5523,W,2,17,0.62,873.4,M,-31.0,M,,*4E\r,0.62,873.4,M,-31.0,M,,\r\n"2022-03-12 19:35:11
"||||||||||||-43,6969,$ACCEL,6.78,5.16,-4.33,$ALT,773.93,-228.199.6952,N,11657.5523,W,2,17,0.62,873.4,M,-31.0,M,,*4E\r,0.62,873.4,M,-31.0,M,,\r\n"2022-03-12 19:35:12"||||||||||||-43,6969,$ACCEL,6.78,5.16,-4.33,$ALT,773.93,-228.199.6952,N,11657.5523,W,2,17,0.62,873.4,M,-31.0,M,,*4E\r,0.62,873.4,M,-31.0,M,,\r\n"2022-03-12 19:35:12
"||||||||||||-43,6969,$GNRMC,193507.000,A,32,5,,,,\r$GNGGA,193508.000,3429.6951,N,11657.5522,W,2,17,0.62,873.4,M,-31.0,M,,*43\r3.4,M,-31.0,M,,\r\n"2022-03-12 19:35:12"||||||||||||-43,6969,$GNRMC,193507.000,A,32,5,,,,\r$GNGGA,193508.000,3429.6951,N,11657.5522,W,2,17,0.62,873.4,M,-31.0,M,,*43\r3.4,M,-31.0,M,,\r\n"2022-03-12 19:35:12
"||||||||||||-48,6969,$ACCEL,6.55,6.78,-2.39,$ALT,774.00,-228.22\r\n"2022-03-12 19:35:13"||||||||||||-48,6969,$ACCEL,6.55,6.78,-2.39,$ALT,774.00,-228.22\r\n"2022-03-12 19:35:13
"||||||||||||-48,6969,$GNRMC,193508.00,912063*$GNGGA,193509.000,3429.6951,N,11657.5521,W,2,17,0.62,873.3,M,-31.0,M,,*46\r\r\n"2022-03-12 19:35:13"||||||||||||-48,6969,$GNRMC,193508.00,912063*$GNGGA,193509.000,3429.6951,N,11657.5521,W,2,17,0.62,873.3,M,-31.0,M,,*46\r\r\n"2022-03-12 19:35:13
"||||||||||||-44,6969,$ACCEL,4.37,7.27,-3.66,$ALT,773.92,-228.203429.6951,N,11657.5521,W,2,17,0.62,873.3,M,-31.0,M,,*46\r\r\n"2022-03-12 19:35:14"||||||||||||-44,6969,$ACCEL,4.37,7.27,-3.66,$ALT,773.92,-228.203429.6951,N,11657.5521,W,2,17,0.62,873.3,M,-31.0,M,,*46\r\r\n"2022-03-12 19:35:14
"||||||||||||-43,6969,$GNRMC,193509.000,A415,,921$GNGGA,193510.000,3429.6952,N,11657.5523,W,2,17,0.62,873.3,M,-31.0,M,,*4F\r\r\n"2022-03-12 19:35:14"||||||||||||-43,6969,$GNRMC,193509.000,A415,,921$GNGGA,193510.000,3429.6952,N,11657.5523,W,2,17,0.62,873.3,M,-31.0,M,,*4F\r\r\n"2022-03-12 19:35:14
"||||||||||||-47,6969,$ACCEL,3.18,9.04,-0.68,$ALT,773.92,-228.19B\u0001\r\n"2022-03-12 19:35:14"||||||||||||-47,6969,$ACCEL,3.18,9.04,-0.68,$ALT,773.92,-228.19B\u0001\r\n"2022-03-12 19:35:14
"||||||||||||-49,6969,$GNRMC,1935109,7W11,68,$ALT,773.92,-228\r\n"2022-03-12 19:35:14"||||||||||||-49,6969,$GNRMC,1935109,7W11,68,$ALT,773.92,-228\r\n"2022-03-12 19:35:14
"||||||||||||-55,6969,$ACCEL,3.18,9.04,-0.68,$ALT,774.07,-228.24B\u0001\r\n"2022-03-12 19:35:15"||||||||||||-55,6969,$ACCEL,3.18,9.04,-0.68,$ALT,774.07,-228.24B\u0001\r\n"2022-03-12 19:35:15
"||||||||||||-54,6969,$GNGGA,193511.000,3429.6953,N,11657.5523,W,2,17,0.62,873.2,M,-31.0,M,,*4E\r\r\n"2022-03-12 19:35:15"||||||||||||-54,6969,$GNGGA,193511.000,3429.6953,N,11657.5523,W,2,17,0.62,873.2,M,-31.0,M,,*4E\r\r\n"2022-03-12 19:35:15
"||||||||||||-55,6969,$ACCEL,3.74,8.49,-0.38,$ALT,774.09,-228.24,2,17,0.62,873.2,M,-31.0,M,,*4E\r\r\n"2022-03-12 19:35:15"||||||||||||-55,6969,$ACCEL,3.74,8.49,-0.38,$ALT,774.09,-228.24,2,17,0.62,873.2,M,-31.0,M,,*4E\r\r\n"2022-03-12 19:35:15
"||||||||||||-56,6969,$GNRMC,193511.0009N.W11,ALT,774.09,-228.24,2,17,0.62,873.2,M,-31.0,M,,*4E\r\r\n"2022-03-12 19:35:16"||||||||||||-56,6969,$GNRMC,193511.0009N.W11,ALT,774.09,-228.24,2,17,0.62,873.2,M,-31.0,M,,*4E\r\r\n"2022-03-12 19:35:16
"||||||||||||-52,6969,$ACCEL,3.74,8.49,-0.38,$ALT,773.93,-228.21,2,17,0.62,873.2,M,-31.0,M,,*4E\r\r\n"2022-03-12 19:35:16"||||||||||||-52,6969,$ACCEL,3.74,8.49,-0.38,$ALT,773.93,-228.21,2,17,0.62,873.2,M,-31.0,M,,*4E\r\r\n"2022-03-12 19:35:16
"||||||||||||-52,6969,$GNGGA,193512.000,3429.6954,N,11657.5522,W,2,17,0.62,873.2,M,-31.0,M,,*4B\r\r\n"2022-03-12 19:35:16"||||||||||||-52,6969,$GNGGA,193512.000,3429.6954,N,11657.5522,W,2,17,0.62,873.2,M,-31.0,M,,*4B\r\r\n"2022-03-12 19:35:16
"||||||||||||-54,6969,$ACCEL,2.36,8.23,-4.14,$ALT,773.99,-228.24B\u0001\r\n"2022-03-12 19:35:17"||||||||||||-54,6969,$ACCEL,2.36,8.23,-4.14,$ALT,773.99,-228.24B\u0001\r\n"2022-03-12 19:35:17
"||||||||||||-49,6969,$GNRMC,193512.04452792B$GNGGA,193513.000,3429.6954,N,11657.5521,W,2,17,0.62,873.1,M,-31.0,M,,*4A\r\r\n"2022-03-12 19:35:17"||||||||||||-49,6969,$GNRMC,193512.04452792B$GNGGA,193513.000,3429.6954,N,11657.5521,W,2,17,0.62,873.1,M,-31.0,M,,*4A\r\r\n"2022-03-12 19:35:17
"||||||||||||-44,6969,$ACCEL,1.92,8.19,-4.60,$ALT,774.00,-228.24B\u0001\r\n"2022-03-12 19:35:18"||||||||||||-44,6969,$ACCEL,1.92,8.19,-4.60,$ALT,774.00,-228.24B\u0001\r\n"2022-03-12 19:35:18
"||||||||||||-43,6969,$GNRMC,193513.0002,7,,,,\r$GNGGA,193514.000,3429.6953,N,11657.5522,W,2,17,0.62,873.1,M,-.4R309N.,11,`\r\n"2022-03-12 19:35:18"||||||||||||-43,6969,$GNRMC,193513.0002,7,,,,\r$GNGGA,193514.000,3429.6953,N,11657.5522,W,2,17,0.62,873.1,M,-.4R309N.,11,`\r\n"2022-03-12 19:35:18
"||||||||||||-41,6969,$ACCEL,1.68,7.60,-5.02,$ALT,773.98,-228.24,3429.6953,N,11657.5522,W,2,17,0.62,873.1,M,-.4R309N.,11,`\r\n"2022-03-12 19:35:19"||||||||||||-41,6969,$ACCEL,1.68,7.60,-5.02,$ALT,773.98,-228.24,3429.6953,N,11657.5522,W,2,17,0.62,873.1,M,-.4R309N.,11,`\r\n"2022-03-12 19:35:19
"||||||||||||-42,6969,$GNGGA,193515.000,3429.6954,N,11657.5521,W,2,17,0.62,873.1,M,-31.0,M,,*4C\r.62,873.1,M,-.4R309N.,11,`\r\n"2022-03-12 19:35:19"||||||||||||-42,6969,$GNGGA,193515.000,3429.6954,N,11657.5521,W,2,17,0.62,873.1,M,-31.0,M,,*4C\r.62,873.1,M,-.4R309N.,11,`\r\n"2022-03-12 19:35:19
"||||||||||||-66,6969,$ACCEL,1.88,7.82,-5.30,$ALT,773.89,-228.22,2,17,0.62,873.1,M,-31.0,M,,*4C\r.62,873.1,M,-.4R309N.,11,`\r\n"2022-03-12 19:35:20"||||||||||||-66,6969,$ACCEL,1.88,7.82,-5.30,$ALT,773.89,-228.22,2,17,0.62,873.1,M,-31.0,M,,*4C\r.62,873.1,M,-.4R309N.,11,`\r\n"2022-03-12 19:35:20
"||||||||||||-53,6969,$929$GNGGA,193516.000,3429.6954,N,11657.5521,W,2,17,0.62,873.1,M,-31.0,M,,*4F\r873.1,M,-.4R309N.,11,`\r\n"2022-03-12 19:35:20"||||||||||||-53,6969,$929$GNGGA,193516.000,3429.6954,N,11657.5521,W,2,17,0.62,873.1,M,-31.0,M,,*4F\r873.1,M,-.4R309N.,11,`\r\n"2022-03-12 19:35:20
"||||||||||||-50,6969,$ACCEL,3.95,7.97,-1.51,$ALT,773.84,-228.2021,W,2,17,0.62,873.1,M,-31.0,M,,*4F\r873.1,M,-.4R309N.,11,`\r\n"2022-03-12 19:35:21"||||||||||||-50,6969,$ACCEL,3.95,7.97,-1.51,$ALT,773.84,-228.2021,W,2,17,0.62,873.1,M,-31.0,M,,*4F\r873.1,M,-.4R309N.,11,`\r\n"2022-03-12 19:35:21
"||||||||||||-49,6969,$GNRMC,193516.000,A,349,7W11,\r$GNGGA,193517.000,3429.6953,N,11657.5520,W,2,17,0.62,873.1,M,-31.0,M,,*48\r\r\n"2022-03-12 19:35:21"||||||||||||-49,6969,$GNRMC,193516.000,A,349,7W11,\r$GNGGA,193517.000,3429.6953,N,11657.5520,W,2,17,0.62,873.1,M,-31.0,M,,*48\r\r\n"2022-03-12 19:35:21
"||||||||||||-48,6969,$ACCEL,6.70,6.81,-0.69,$ALT,774.00,-228.267.000,3429.6953,N,11657.5520,W,2,17,0.62,873.1,M,-31.0,M,,*48\r\r\n"2022-03-12 19:35:22"||||||||||||-48,6969,$ACCEL,6.70,6.81,-0.69,$ALT,774.00,-228.267.000,3429.6953,N,11657.5520,W,2,17,0.62,873.1,M,-31.0,M,,*48\r\r\n"2022-03-12 19:35:22
"||||||||||||-47,6969,$GNRMC,193517.00A6,5090,$GNGGA,193518.000,3429.6953,N,11657.5519,W,2,17,0.62,873.1,M,-31.0,M,,*4D\r,,*48\r\r\n"2022-03-12 19:35:22"||||||||||||-47,6969,$GNRMC,193517.00A6,5090,$GNGGA,193518.000,3429.6953,N,11657.5519,W,2,17,0.62,873.1,M,-31.0,M,,*4D\r,,*48\r\r\n"2022-03-12 19:35:22
"||||||||||||-48,6969,$ACCEL,8.62,4.76,1.15,$ALT,774.02,-228.26,3429.6953,N,11657.5519,W,2,17,0.62,873.1,M,-31.0,M,,*4D\r,,*48\r\r\n"2022-03-12 19:35:23"||||||||||||-48,6969,$ACCEL,8.62,4.76,1.15,$ALT,774.02,-228.26,3429.6953,N,11657.5519,W,2,17,0.62,873.1,M,-31.0,M,,*4D\r,,*48\r\r\n"2022-03-12 19:35:23
"||||||||||||-50,6969,$GNRMC,193518.0002,7W,,,\r$GNGGA,193519.000,3429.6953,N,11657.5520,W,2,17,0.62,873.1,M,-31.0,M,,*46\r`\r\n"2022-03-12 19:35:23"||||||||||||-50,6969,$GNRMC,193518.0002,7W,,,\r$GNGGA,193519.000,3429.6953,N,11657.5520,W,2,17,0.62,873.1,M,-31.0,M,,*46\r`\r\n"2022-03-12 19:35:23
"||||||||||||-48,6969,$ACCEL,8.51,4.84,0.64,$ALT,774.18,-228.32\r\n"2022-03-12 19:35:24"||||||||||||-48,6969,$ACCEL,8.51,4.84,0.64,$ALT,774.18,-228.32\r\n"2022-03-12 19:35:24
"||||||||||||-49,6969,$GNRMC,193519.000,A,343504925$GNGGA,193520.000,3429.6953,N,11657.5520,W,2,17,0.62,873.1,M,-31.0,M,,*4C\r@B\u000f\r\n"2022-03-12 19:35:24"||||||||||||-49,6969,$GNRMC,193519.000,A,343504925$GNGGA,193520.000,3429.6953,N,11657.5520,W,2,17,0.62,873.1,M,-31.0,M,,*4C\r@B\u000f\r\n"2022-03-12 19:35:24
"||||||||||||-49,6969,$ACCEL,8.50,4.73,0.69,$ALT,774.19,-228.32\r\n"2022-03-12 19:35:25"||||||||||||-49,6969,$ACCEL,8.50,4.73,0.69,$ALT,774.19,-228.32\r\n"2022-03-12 19:35:25
"||||||||||||-49,6969,$GNRMC,193520.000,A,3435,,922$GNGGA,193521.000,3429.6953,N,11657.5520,W,2,17,0.62,873.1,M,-31.0,M,,*4D\r\r\n"2022-03-12 19:35:25"||||||||||||-49,6969,$GNRMC,193520.000,A,3435,,922$GNGGA,193521.000,3429.6953,N,11657.5520,W,2,17,0.62,873.1,M,-31.0,M,,*4D\r\r\n"2022-03-12 19:35:25
"||||||||||||-50,6969,$ACCEL,8.52,4.84,0.30,$ALT,774.14,-228.32\r\n"2022-03-12 19:35:26"||||||||||||-50,6969,$ACCEL,8.52,4.84,0.30,$ALT,774.14,-228.32\r\n"2022-03-12 19:35:26
"||||||||||||-51,6969,$GNRMC,193521.00435,2928$GNGGA,193522.000,3429.6952,N,11657.5518,W,2,17,0.62,873.1,M,-31.0,M,,*44\r\r\n"2022-03-12 19:35:26"||||||||||||-51,6969,$GNRMC,193521.00435,2928$GNGGA,193522.000,3429.6952,N,11657.5518,W,2,17,0.62,873.1,M,-31.0,M,,*44\r\r\n"2022-03-12 19:35:26
"||||||||||||-45,6969,$ACCEL,8.49,4.71,-0.08,$ALT,774.25,-228.35B\u0001\r\n"2022-03-12 19:35:27"||||||||||||-45,6969,$ACCEL,8.49,4.71,-0.08,$ALT,774.25,-228.35B\u0001\r\n"2022-03-12 19:35:27
"||||||||||||-45,6969,$GNRMC,193522.00,915..3*$GNGGA,193523.000,3429.6951,N,11657.5518,W,2,17,0.62,873.0,M,-31.0,M,,*47\r\r\n"2022-03-12 19:35:27"||||||||||||-45,6969,$GNRMC,193522.00,915..3*$GNGGA,193523.000,3429.6951,N,11657.5518,W,2,17,0.62,873.0,M,-31.0,M,,*47\r\r\n"2022-03-12 19:35:27
"||||||||||||-65,6969,$ACCEL,7.24,4.23,-1.37,$ALT,774.45,-228.42B\u0001\r\n"2022-03-12 19:35:28"||||||||||||-65,6969,$ACCEL,7.24,4.23,-1.37,$ALT,774.45,-228.42B\u0001\r\n"2022-03-12 19:35:28
"||||||||||||-54,6969,$GNRMC,193523.00041687927$GNGGA,193524.000,3429.6951,N,11657.5517,W,2,17,0.62,873.0,M,-31.0,M,,*4F\r`\r\n"2022-03-12 19:35:28"||||||||||||-54,6969,$GNRMC,193523.00041687927$GNGGA,193524.000,3429.6951,N,11657.5517,W,2,17,0.62,873.0,M,-31.0,M,,*4F\r`\r\n"2022-03-12 19:35:28
"||||||||||||-49,6969,$ACCEL,9.20,3.12,0.60,$ALT,774.40,-228.410,3429.6951,N,11657.5517,W,2,17,0.62,873.0,M,-31.0,M,,*4F\r`\r\n"2022-03-12 19:35:29"||||||||||||-49,6969,$ACCEL,9.20,3.12,0.60,$ALT,774.40,-228.410,3429.6951,N,11657.5517,W,2,17,0.62,873.0,M,-31.0,M,,*4F\r`\r\n"2022-03-12 19:35:29
"||||||||||||-50,6969,$GNRMC,193524.00,915..3*$GNGGA,193525.000,3429.6951,N,11657.5517,W,2,17,0.62,873.0,M,-31.0,M,,*4E\r\r\n"2022-03-12 19:35:29"||||||||||||-50,6969,$GNRMC,193524.00,915..3*$GNGGA,193525.000,3429.6951,N,11657.5517,W,2,17,0.62,873.0,M,-31.0,M,,*4E\r\r\n"2022-03-12 19:35:29
"||||||||||||-48,6969,$ACCEL,9.18,3.70,0.05,$ALT,774.84,-228.55\r\n"2022-03-12 19:35:30"||||||||||||-48,6969,$ACCEL,9.18,3.70,0.05,$ALT,774.84,-228.55\r\n"2022-03-12 19:35:30
"||||||||||||-51,6969,$GNRMC,193525.00035676626$GNGGA,193526.000,3429.6950,N,11657.5516,W,2,17,0.62,872.9,M,-31.0,M,,*45\r`\r\n"2022-03-12 19:35:30"||||||||||||-51,6969,$GNRMC,193525.00035676626$GNGGA,193526.000,3429.6950,N,11657.5516,W,2,17,0.62,872.9,M,-31.0,M,,*45\r`\r\n"2022-03-12 19:35:30
"||||||||||||-54,6969,$ACCEL,8.90,2.68,-0.71,$ALT,774.79,-228.54,3429.6950,N,11657.5516,W,2,17,0.62,872.9,M,-31.0,M,,*45\r`\r\n"2022-03-12 19:35:31"||||||||||||-54,6969,$ACCEL,8.90,2.68,-0.71,$ALT,774.79,-228.54,3429.6950,N,11657.5516,W,2,17,0.62,872.9,M,-31.0,M,,*45\r`\r\n"2022-03-12 19:35:31
"||||||||||||-56,6969,$GNRMC,193526.00035110626$GNGGA,193527.000,3429.6951,N,11657.5516,W,2,17,0.62,872.9,M,-31.0,M,,*45\r`\r\n"2022-03-12 19:35:31"||||||||||||-56,6969,$GNRMC,193526.00035110626$GNGGA,193527.000,3429.6951,N,11657.5516,W,2,17,0.62,872.9,M,-31.0,M,,*45\r`\r\n"2022-03-12 19:35:31
"||||||||||||-48,6969,$ACCEL,8.23,4.51,2.27,$ALT,774.59,-228.480,3429.6951,N,11657.5516,W,2,17,0.62,872.9,M,-31.0,M,,*45\r`\r\n"2022-03-12 19:35:32"||||||||||||-48,6969,$ACCEL,8.23,4.51,2.27,$ALT,774.59,-228.480,3429.6951,N,11657.5516,W,2,17,0.62,872.9,M,-31.0,M,,*45\r`\r\n"2022-03-12 19:35:32
"||||||||||||-50,6969,$GNRMC,193527.0035664626$GNGGA,193528.000,3429.6951,N,11657.5515,W,2,17,0.62,872.9,M,-31.0,M,,*49\r\r`\r\n"2022-03-12 19:35:32"||||||||||||-50,6969,$GNRMC,193527.0035664626$GNGGA,193528.000,3429.6951,N,11657.5515,W,2,17,0.62,872.9,M,-31.0,M,,*49\r\r`\r\n"2022-03-12 19:35:32
"||||||||||||-45,6969,$ACCEL,7.84,6.50,-4.09,$ALT,774.52,-228.47B\u0001\r\n"2022-03-12 19:35:33"||||||||||||-45,6969,$ACCEL,7.84,6.50,-4.09,$ALT,774.52,-228.47B\u0001\r\n"2022-03-12 19:35:33
"||||||||||||-49,6969,$GNRMC,193528.0009,7W11,\r$GNGGA,193529.000,3429.6952,N,11657.5515,W,2,17,0.62,872.9,M,-31.0,M,,*4B\r`\r\n"2022-03-12 19:35:33"||||||||||||-49,6969,$GNRMC,193528.0009,7W11,\r$GNGGA,193529.000,3429.6952,N,11657.5515,W,2,17,0.62,872.9,M,-31.0,M,,*4B\r`\r\n"2022-03-12 19:35:33
"||||||||||||-56,6969,$ACCEL,5.23,5.15,-4.63,$ALT,774.75,-228.53B\u0001\r\n"2022-03-12 19:35:34"||||||||||||-56,6969,$ACCEL,5.23,5.15,-4.63,$ALT,774.75,-228.53B\u0001\r\n"2022-03-12 19:35:34
"||||||||||||-54,6969,$GNRMC,193529.00,.,5052,$GNGGA,193530.000,3429.6951,N,11657.5515,W,2,17,0.62,872.8,M,-31.0,M,,*41\r\r\n"2022-03-12 19:35:34"||||||||||||-54,6969,$GNRMC,193529.00,.,5052,$GNGGA,193530.000,3429.6951,N,11657.5515,W,2,17,0.62,872.8,M,-31.0,M,,*41\r\r\n"2022-03-12 19:35:34
"||||||||||||-56,6969,$ACCEL,7.83,0.46,-4.59,$ALT,774.49,-228.463429.6951,N,11657.5515,W,2,17,0.62,872.8,M,-31.0,M,,*41\r\r\n"2022-03-12 19:35:35"||||||||||||-56,6969,$ACCEL,7.83,0.46,-4.59,$ALT,774.49,-228.463429.6951,N,11657.5515,W,2,17,0.62,872.8,M,-31.0,M,,*41\r\r\n"2022-03-12 19:35:35
"||||||||||||-55,6969,$GNRMC,193530.000,4565492B$GNGGA,193531.000,3429.6950,N,11657.5515,W,2,17,0.62,872.8,M,-31.0,M,,*41\r\u0001\r\n"2022-03-12 19:35:35"||||||||||||-55,6969,$GNRMC,193530.000,4565492B$GNGGA,193531.000,3429.6950,N,11657.5515,W,2,17,0.62,872.8,M,-31.0,M,,*41\r\u0001\r\n"2022-03-12 19:35:35
"||||||||||||-58,6969,$ACCEL,6.41,3.28,-5.20,$ALT,774.40,-228.440,3429.6950,N,11657.5515,W,2,17,0.62,872.8,M,-31.0,M,,*41\r\u0001\r\n"2022-03-12 19:35:36"||||||||||||-58,6969,$ACCEL,6.41,3.28,-5.20,$ALT,774.40,-228.440,3429.6950,N,11657.5515,W,2,17,0.62,872.8,M,-31.0,M,,*41\r\u0001\r\n"2022-03-12 19:35:36
"||||||||||||-57,6969,$GNRMC,193531.00405,092C$GNGGA,193532.000,3429.6949,N,11657.5515,W,2,17,0.62,872.7,M,-31.0,M,,*45\r\r\n"2022-03-12 19:35:36"||||||||||||-57,6969,$GNRMC,193531.00405,092C$GNGGA,193532.000,3429.6949,N,11657.5515,W,2,17,0.62,872.7,M,-31.0,M,,*45\r\r\n"2022-03-12 19:35:36
"||||||||||||-56,6969,$ACCEL,2.19,7.87,-4.17,$ALT,774.10,-228.36B\u0001\r\n"2022-03-12 19:35:37"||||||||||||-56,6969,$ACCEL,2.19,7.87,-4.17,$ALT,774.10,-228.36B\u0001\r\n"2022-03-12 19:35:37
"||||||||||||-56,6969,$GNRMC,193532.000A615090D$GNGGA,193533.000,3429.6952,N,11657.5517,W,2,17,0.62,872.7,M,-31.0,M,,*4C\r`\r\n"2022-03-12 19:35:37"||||||||||||-56,6969,$GNRMC,193532.000A615090D$GNGGA,193533.000,3429.6952,N,11657.5517,W,2,17,0.62,872.7,M,-31.0,M,,*4C\r`\r\n"2022-03-12 19:35:37
"||||||||||||-52,6969,$ACCEL,-0.03,9.14,-1.01,$ALT,773.95,-228.333429.6952,N,11657.5517,W,2,17,0.62,872.7,M,-31.0,M,,*4C\r`\r\n"2022-03-12 19:35:38"||||||||||||-52,6969,$ACCEL,-0.03,9.14,-1.01,$ALT,773.95,-228.333429.6952,N,11657.5517,W,2,17,0.62,872.7,M,-31.0,M,,*4C\r`\r\n"2022-03-12 19:35:38
"||||||||||||-52,6969,$GNRMC,193533.00,615..3D$GNGGA,193534.000,3429.6954,N,11657.5524,W,2,17,0.62,872.7,M,-31.0,M,,*4D\r\r`\r\n"2022-03-12 19:35:38"||||||||||||-52,6969,$GNRMC,193533.00,615..3D$GNGGA,193534.000,3429.6954,N,11657.5524,W,2,17,0.62,872.7,M,-31.0,M,,*4D\r\r`\r\n"2022-03-12 19:35:38
"||||||||||||-59,6969,$ACCEL,-5.14,7.73,-0.29,$ALT,774.36,-228.45429.6954,N,11657.5524,W,2,17,0.62,872.7,M,-31.0,M,,*4D\r\r`\r\n"2022-03-12 19:35:39"||||||||||||-59,6969,$ACCEL,-5.14,7.73,-0.29,$ALT,774.36,-228.45429.6954,N,11657.5524,W,2,17,0.62,872.7,M,-31.0,M,,*4D\r\r`\r\n"2022-03-12 19:35:39
"||||||||||||-59,6969,$GNRMC,193534.00035648926$GNGGA,193535.000,3429.6953,N,11657.5525,W,2,17,0.62,872.7,M,-31.0,M,,*4A\r`\r\n"2022-03-12 19:35:39"||||||||||||-59,6969,$GNRMC,193534.00035648926$GNGGA,193535.000,3429.6953,N,11657.5525,W,2,17,0.62,872.7,M,-31.0,M,,*4A\r`\r\n"2022-03-12 19:35:39
"||||||||||||-60,6969,$ACCEL,-0.75,8.16,-1.58,$ALT,774.11,-228.37\u0005R\r\n"2022-03-12 19:35:40"||||||||||||-60,6969,$ACCEL,-0.75,8.16,-1.58,$ALT,774.11,-228.37\u0005R\r\n"2022-03-12 19:35:40
"||||||||||||-61,6969,$GNRMC,193535.0035658326$GNGGA,193536.000,3429.6953,N,11657.5526,W,2,17,0.62,872.7,M,-31.0,M,,*4A\r\r\n"2022-03-12 19:35:40"||||||||||||-61,6969,$GNRMC,193535.0035658326$GNGGA,193536.000,3429.6953,N,11657.5526,W,2,17,0.62,872.7,M,-31.0,M,,*4A\r\r\n"2022-03-12 19:35:40
"||||||||||||-66,6969,$ACCEL,-0.75,8.16,-1.58,$ALT,774.11,-228.37429.6953,N,11657.5526,W,2,17,0.62,872.7,M,-31.0,M,,*4A\r\r\n"2022-03-12 19:35:40"||||||||||||-66,6969,$ACCEL,-0.75,8.16,-1.58,$ALT,774.11,-228.37429.6953,N,11657.5526,W,2,17,0.62,872.7,M,-31.0,M,,*4A\r\r\n"2022-03-12 19:35:40
"||||||||||||-67,6969,$GNRMC,193536.0009N.,71,$ALT,774.11,-228.37429.6953,N,11657.5526,W,2,17,0.62,872.7,M,-31.0,M,,*4A\r\r\n"2022-03-12 19:35:40"||||||||||||-67,6969,$GNRMC,193536.0009N.,71,$ALT,774.11,-228.37429.6953,N,11657.5526,W,2,17,0.62,872.7,M,-31.0,M,,*4A\r\r\n"2022-03-12 19:35:40
"||||||||||||-72,6969,$ACCEL,2.64,9.08,2.42,$ALT,774.09,-228.37\r\n"2022-03-12 19:35:41"||||||||||||-72,6969,$ACCEL,2.64,9.08,2.42,$ALT,774.09,-228.37\r\n"2022-03-12 19:35:41
"||||||||||||-58,6969,$ACCEL,2.64,9.08,2.42,$ALT,774.30,-228.43\r\n"2022-03-12 19:35:41"||||||||||||-58,6969,$ACCEL,2.64,9.08,2.42,$ALT,774.30,-228.43\r\n"2022-03-12 19:35:41
"||||||||||||-57,6969,$GNRMC,193537.009N7W21,\r\n"2022-03-12 19:35:41"||||||||||||-57,6969,$GNRMC,193537.009N7W21,\r\n"2022-03-12 19:35:41
"||||||||||||-57,6969,$ACCEL,-2.08,7.83,3.46,$ALT,774.34,-228.45\r\n"2022-03-12 19:35:42"||||||||||||-57,6969,$ACCEL,-2.08,7.83,3.46,$ALT,774.34,-228.45\r\n"2022-03-12 19:35:42
"||||||||||||-57,6969,$GNGGA,193538.000,3429.6951,N,11657.5527,W,2,17,0.62,872.6,M,-31.0,M,,*46\r\r\n"2022-03-12 19:35:42"||||||||||||-57,6969,$GNGGA,193538.000,3429.6951,N,11657.5527,W,2,17,0.62,872.6,M,-31.0,M,,*46\r\r\n"2022-03-12 19:35:42
"||||||||||||-58,6969,$ACCEL,-5.90,6.65,-1.68,$ALT,774.24,-228.43\u0001\r\n"2022-03-12 19:35:43"||||||||||||-58,6969,$ACCEL,-5.90,6.65,-1.68,$ALT,774.24,-228.43\u0001\r\n"2022-03-12 19:35:43
"||||||||||||-58,6969,$GNRMC,193538.00A.,5030D$GNGGA,193539.000,3429.6951,N,11657.5527,W,2,17,0.62,872.6,M,-31.0,M,,*47\r\r\n"2022-03-12 19:35:43"||||||||||||-58,6969,$GNRMC,193538.00A.,5030D$GNGGA,193539.000,3429.6951,N,11657.5527,W,2,17,0.62,872.6,M,-31.0,M,,*47\r\r\n"2022-03-12 19:35:43
"||||||||||||-60,6969,$ACCEL,3.50,7.56,-4.00,$ALT,774.41,-228.493429.6951,N,11657.5527,W,2,17,0.62,872.6,M,-31.0,M,,*47\r\r\n"2022-03-12 19:35:44"||||||||||||-60,6969,$ACCEL,3.50,7.56,-4.00,$ALT,774.41,-228.493429.6951,N,11657.5527,W,2,17,0.62,872.6,M,-31.0,M,,*47\r\r\n"2022-03-12 19:35:44
"||||||||||||-68,6969,$GNRMC,193539.00A615030D$GNGGA,193540.000,3429.6951,N,11657.5527,W,2,17,0.62,872.6,M,.4R509N.,71,\r\r\n"2022-03-12 19:35:44"||||||||||||-68,6969,$GNRMC,193539.00A615030D$GNGGA,193540.000,3429.6951,N,11657.5527,W,2,17,0.62,872.6,M,.4R509N.,71,\r\r\n"2022-03-12 19:35:44
"||||||||||||-60,6969,$ACCEL,-1.45,7.73,-4.81,$ALT,774.10,-228.39429.6951,N,11657.5527,W,2,17,0.62,872.6,M,.4R509N.,71,\r\r\n"2022-03-12 19:35:45"||||||||||||-60,6969,$ACCEL,-1.45,7.73,-4.81,$ALT,774.10,-228.39429.6951,N,11657.5527,W,2,17,0.62,872.6,M,.4R509N.,71,\r\r\n"2022-03-12 19:35:45
"||||||||||||-58,6969,$GNGGA,193541.000,3429.6951,N,11657.5527,W,2,17,0.62,872.6,M,-31.0,M,,*48\r62,872.6,M,.4R509N.,71,\r\r\n"2022-03-12 19:35:45"||||||||||||-58,6969,$GNGGA,193541.000,3429.6951,N,11657.5527,W,2,17,0.62,872.6,M,-31.0,M,,*48\r62,872.6,M,.4R509N.,71,\r\r\n"2022-03-12 19:35:45
"||||||||||||-66,6969,$ACCEL,-1.45,7.73,-4.81,$ALT,774.18,-228.422,17,0.62,872.6,M,-31.0,M,,*48\r62,872.6,M,.4R509N.,71,\r\r\n"2022-03-12 19:35:46"||||||||||||-66,6969,$ACCEL,-1.45,7.73,-4.81,$ALT,774.18,-228.422,17,0.62,872.6,M,-31.0,M,,*48\r62,872.6,M,.4R509N.,71,\r\r\n"2022-03-12 19:35:46
"||||||||||||-67,6969,$G032,$GNGGA,193542.000,3429.6950,N,11657.5528,W,2,17,0.62,872.6,M,-31.0,M,,*45\r\b\r\n"2022-03-12 19:35:46"||||||||||||-67,6969,$G032,$GNGGA,193542.000,3429.6950,N,11657.5528,W,2,17,0.62,872.6,M,-31.0,M,,*45\r\b\r\n"2022-03-12 19:35:46
"||||||||||||-58,6969,$ACCEL,-4.06,7.87,-3.96,$ALT,774.26,-228.45528,W,2,17,0.62,872.6,M,-31.0,M,,*45\r\b\r\n"2022-03-12 19:35:47"||||||||||||-58,6969,$ACCEL,-4.06,7.87,-3.96,$ALT,774.26,-228.45528,W,2,17,0.62,872.6,M,-31.0,M,,*45\r\b\r\n"2022-03-12 19:35:47
"||||||||||||-72,6969,$GNRMC,193542.000,A,34.,5030,$GNGGA,193543.000,3429.6950,N,11657.5528,W,2,17,0.62,872.5,M,-31.0,M,,*47\r@B\u000f\r\n"2022-03-12 19:35:47"||||||||||||-72,6969,$GNRMC,193542.000,A,34.,5030,$GNGGA,193543.000,3429.6950,N,11657.5528,W,2,17,0.62,872.5,M,-31.0,M,,*47\r@B\u000f\r\n"2022-03-12 19:35:47
