"Feather LoRa RX Test!\r\n"2022-04-09 18:22:50
"LoRa radio init OK!\r\n"2022-04-09 18:22:50
"Set Freq to: 915.00\r\n"2022-04-09 18:22:50
"||||||||||||-40,6969,$GNRMC,182247.000,.,.,99,$GNGGA,182248.000,3429.7286,N,11657.5603,W,2,17,0.61,872.8,M,-31.0,M,,*4E\r$GNGGA,182249.000,3 \r\n"2022-04-09 18:22:51
"||||||||||||-40,6969,$ACCEL,9.52,-2.58,0.08,$ALT,873.48,-269.76,3429.7286,N,11657.5603,W,2,17,0.61,872.8,M,-31.0,M,,*4E\r$GNGGA,182249.000,3 \r\n"2022-04-09 18:22:52
"||||||||||||-39,6969,$GNRMC,182249.000,A,3429.7286,N,11657.5603,W,0.00,196.36,090422,,6$GNGGA,182250.000,3429.7286,N,11657.5603,W,2,17,0.61 \r\n"2022-04-09 18:22:52
"||||||||||||-42,6969,$ACCEL,9.53,-2.59,0.09,$ALT,873.65,-269.81,W,0.00,196.36,090422,,6$GNGGA,182250.000,3429.7286,N,11657.5603,W,2,17,0.61 \r\n"2022-04-09 18:22:53
"||||||||||||-44,6969,$GNRMC,18220,216..4*$GNGGA,182251.000,3429.7286,N,11657.5603,W,2,17,0.61,872.9,M,-31.0,M,,*47\r\r\n"2022-04-09 18:22:53
"||||||||||||-41,6969,$ACCEL,9.52,-2.57,0.05,$ALT,873.47,-269.75.7286,N,11657.5603,W,2,17,0.61,872.9,M,-31.0,M,,*47\r\r\n"2022-04-09 18:22:54
"||||||||||||-41,6969,$GNRMC,182251.0038632326$GNGGA,182252.000,3429.7286,N,11657.5603,W,2,17,0.61,873.0,M,-31.0,M,,*4C\r\r\n"2022-04-09 18:22:54
"||||||||||||-40,6969,$ACCEL,9.54,-2.58,0.07,$ALT,873.39,-269.733429.7286,N,11657.5603,W,2,17,0.61,873.0,M,-31.0,M,,*4C\r\r\n"2022-04-09 18:22:55
"||||||||||||-40,6969,$GNRMC,182252.65,,,2D$GNGGA,182253.000,3429.7286,N,11657.5603,W,2,17,0.61,873.0,M,-31.0,M,,*4D\r\r\n"2022-04-09 18:22:55
"||||||||||||-40,6969,$ACCEL,9.53,-2.58,0.06,$ALT,873.48,-269.769.7286,N,11657.5603,W,2,17,0.61,873.0,M,-31.0,M,,*4D\r\r\n"2022-04-09 18:22:56
"||||||||||||-40,6969,$GNRMC,182253.000,A,3429.7286,N,11657.5603,W,0.02,196.36,09$GNGGA,182254.000,3429.7286,N,11657.5603,W,2,16,0.63,873.0,\r\n"2022-04-09 18:22:56
"||||||||||||-41,6969,$ACCEL,9.53,-2.58,0.09,$ALT,873.58,-269.79,W,0.02,196.36,09$GNGGA,182254.000,3429.7286,N,11657.5603,W,2,16,0.63,873.0,\r\n"2022-04-09 18:22:57
"||||||||||||-40,6969,$GNRMC,182254.000,A7$GNGGA,182255.000,3429.7286,N,11657.5603,W,2,16,0.63,873.0,M,-31.0,M,,*48\r.5603,W,2,16,0.63,873.0,\r\n"2022-04-09 18:22:57
"||||||||||||-40,6969,$ACCEL,9.53,-2.58,0.07,$ALT,873.62,-269.81.7286,N,11657.5603,W,2,16,0.63,873.0,M,-31.0,M,,*48\r.5603,W,2,16,0.63,873.0,\r\n"2022-04-09 18:22:58
"||||||||||||-40,6969,$GNRMC,182255.000,A,3429$GNGGA,182256.000,3429.7286,N,11657.5603,W,2,16,0.63,873.0,M,-31.0,M,,*4B\r3,W,2,16,0.63,873.0,\r\n"2022-04-09 18:22:58
"||||||||||||-38,6969,$ACCEL,9.53,-2.58,0.05,$ALT,873.57,-269.803429.7286,N,11657.5603,W,2,16,0.63,873.0,M,-31.0,M,,*4B\r3,W,2,16,0.63,873.0,\r\n"2022-04-09 18:22:59
"||||||||||||-41,6969,$GNRMC,182256.000,A,3$GNGGA,182257.000,3429.7286,N,11657.5603,W,2,16,0.63,873.0,M,-31.0,M,,*4A\r4B\r3,W,2,16,0.63,873.0,\r\n"2022-04-09 18:22:59
"||||||||||||-41,6969,$ACCEL,9.53,-2.59,0.07,$ALT,873.70,-269.84B\u0001\r\n"2022-04-09 18:23:00
"||||||||||||-39,6969,$GNRMC,182257.000,A,3429.7286,N635626$GNGGA,182258.000,3429.7286,N,11657.5603,W,2,16,0.63,873.0,M,-31.0,M,,*45\r\r\n"2022-04-09 18:23:00
"||||||||||||-40,6969,$ACCEL,9.52,-2.59,0.07,$ALT,873.62,-269.81A,182258.000,3429.7286,N,11657.5603,W,2,16,0.63,873.0,M,-31.0,M,,*45\r\r\n"2022-04-09 18:23:01
"||||||||||||-40,6969,$GNRMC,182250465,2624$GNGGA,182259.000,3429.7286,N,11657.5603,W,2,15,0.68,873.0,M,-31.0,M,,*4C\r,M,-31.0,M,,*45\r\r\n"2022-04-09 18:23:01
"||||||||||||-40,6969,$ACCEL,9.52,-2.58,0.07,$ALT,873.45,-269.75\r\n"2022-04-09 18:23:02
"||||||||||||-39,6969,$GNRMC,182259.00A716..4D$GNGGA,182300.000,3429.7286,N,11657.5603,W,2,16,0.63,873.0,M,-31.0,M,,*49\r\r\n"2022-04-09 18:23:02
"||||||||||||-40,6969,$ACCEL,9.52,-2.59,0.06,$ALT,873.79,-269.863429.7286,N,11657.5603,W,2,16,0.63,873.0,M,-31.0,M,,*49\r\r\n"2022-04-09 18:23:03
"||||||||||||-40,6969,$GNRMC,182300.000,465,,62B$GNGGA,182301.000,3429.7286,N,11657.5603,W,2,16,0.63,873.0,M,-31.0,M,,*48\r\u0001\r\n"2022-04-09 18:23:03
"||||||||||||-40,6969,$ACCEL,9.53,-2.59,0.06,$ALT,873.65,-269.810,3429.7286,N,11657.5603,W,2,16,0.63,873.0,M,-31.0,M,,*48\r\u0001\r\n"2022-04-09 18:23:04
"||||||||||||-41,6969,$GNRMC,182301.0004863162A$GNGGA,182302.000,3429.7286,N,11657.5603,W,2,17,0.61,873.0,M,-31.0,M,,*48\r`\r\n"2022-04-09 18:23:04
"||||||||||||-41,6969,$ACCEL,9.52,-2.59,0.05,$ALT,873.77,-269.85B\u0001\r\n"2022-04-09 18:23:05
"||||||||||||-38,6969,$GNRMC,182302.A716..4D$GNGGA,182303.000,3429.7286,N,11657.5603,W,2,17,0.61,873.0,M,-31.0,M,,*49\r\r\n"2022-04-09 18:23:05
"||||||||||||-39,6969,$ACCEL,9.52,-2.58,0.06,$ALT,873.77,-269.85\r\n"2022-04-09 18:23:06
"||||||||||||-39,6969,$GNRMC,182303.000A715060D$GNGGA,182304.000,3429.7286,N,11657.5603,W,2,17,0.61,873.0,M,-31.0,M,,*4E\r,\u0001\r\n"2022-04-09 18:23:06
"||||||||||||-39,6969,$ACCEL,9.54,-2.58,0.05,$ALT,873.79,-269.87,3429.7286,N,11657.5603,W,2,17,0.61,873.0,M,-31.0,M,,*4E\r,\u0001\r\n"2022-04-09 18:23:07
"||||||||||||-40,6969,$GNRMC,182304.0002,7W1,,\r$GNGGA,182305.000,3429.7286,N,11657.5603,W,2,17,0.61,873.0,M,-31.0,M,,*4F\r,\u0001\r\n"2022-04-09 18:23:07
"||||||||||||-40,6969,$ACCEL,9.54,-2.58,0.05,$ALT,873.64,-269.81,3429.7286,N,11657.5603,W,2,17,0.61,873.0,M,-31.0,M,,*4F\r,\u0001\r\n"2022-04-09 18:23:07
"||||||||||||-40,6969,$GNRMC,182305.009N7W10,$ALT,873.64,-269.81,3429.7286,N,11657.5603,W,2,17,0.61,873.0,M,-31.0,M,,*4F\r,\u0001\r\n"2022-04-09 18:23:07
"||||||||||||-40,6969,$ACCEL,9.53,-2.58,0.06,$ALT,873.71,-269.84,3429.7286,N,11657.5603,W,2,17,0.61,873.0,M,-31.0,M,,*4F\r,\u0001\r\n"2022-04-09 18:23:08
"||||||||||||-40,6969,$ACCEL,9.52,-2.59,0.06,$ALT,873.80,-269.86,3429.7286,N,11657.5603,W,2,17,0.61,873.0,M,-31.0,M,,*4F\r,\u0001\r\n"2022-04-09 18:23:09
"||||||||||||-40,6969,$GNRMC,182306.0038632326$GNGGA,182307.000,3429.7286,N,11657.5603,W,2,17,0.61,873.0,M,-31.0,M,,*4D\r\r,\u0001\r\n"2022-04-09 18:23:09
"||||||||||||-39,6969,$ACCEL,9.53,-2.57,0.05,$ALT,873.91,-269.893429.7286,N,11657.5603,W,2,17,0.61,873.0,M,-31.0,M,,*4D\r\r,\u0001\r\n"2022-04-09 18:23:10
"||||||||||||-39,6969,$GNRMC,182307.000,2,7,,,,\r$GNGGA,182308.000,3429.7286,N,11657.5603,W,2,17,0.61,873.0,M,-31.0,M,,*42\r\u0001\r\n"2022-04-09 18:23:10
"||||||||||||-40,6969,$ACCEL,9.52,-2.59,0.06,$ALT,873.81,-269.86B\u0001\r\n"2022-04-09 18:23:12
"||||||||||||-39,6969,$GNRMC,182308.0038633626$GNGGA,182309.000,3429.7286,N,11657.5603,W,2,17,0.61,873.0,M,1,G802,7,,,,\r$GNGGA,182310.000,34 \r\n"2022-04-09 18:23:12
"||||||||||||-40,6969,$GNRMC,182310.000,A,342.,5,99,$GNGGA,182311.000,3429.7286,N,11657.5603,W,2,16,0.64,873.0,M,-31.0,M,,*4E\r\r\n"2022-04-09 18:23:13
"||||||||||||-40,6969,$ACCEL,9.53,-2.59,0.06,$ALT,873.77,-269.851.000,3429.7286,N,11657.5603,W,2,16,0.64,873.0,M,-31.0,M,,*4E\r\r\n"2022-04-09 18:23:14
"||||||||||||-40,6969,$GNRMC,182311.0,.,5060,$GNGGA,182312.000,3429.7286,N,11657.5603,W,2,16,0.64,873.0,M,-31.0,M,,*4D\rM,,*4E\r\r\n"2022-04-09 18:23:14
"||||||||||||-40,6969,$ACCEL,9.53,-2.59,0.06,$ALT,873.80,-269.84B\u0001\r\n"2022-04-09 18:23:14
"||||||||||||-41,6969,$GNRMC,182312.000,9N.,90,\r\n"2022-04-09 18:23:14
"||||||||||||-40,6969,$ACCEL,9.52,-2.59,0.05,$ALT,873.85,-269.87\r\n"2022-04-09 18:23:15
"||||||||||||-40,6969,$GNGGA,182313.000,3429.7286,N,11657.5603,W,2,16,0.64,873.0,M,-31.0,M,,*4C\r\r\n"2022-04-09 18:23:15
"||||||||||||-40,6969,$ACCEL,9.53,-2.58,0.05,$ALT,873.84,-269.86,2,16,0.64,873.0,M,-31.0,M,,*4C\r\r\n"2022-04-09 18:23:16
"||||||||||||-40,6969,$GNRMC,182313.000,A,3429.7286,N,11657.5603,W,$GNGGA,182314.000,3429.7286,N,11657.5603,W,2,16,0.64,873.0,M,-31.0,M,,*4B\r\n"2022-04-09 18:23:16
"||||||||||||-40,6969,$ACCEL,9.52,-2.60,0.07,$ALT,873.82,-269.86\r\n"2022-04-09 18:23:17
"||||||||||||-40,6969,$GNRMC,182314.000,A,3429.7286,$GNGGA,182315.000,3429.7286,N,11657.5603,W,2,16,0.64,873.0,M,-31.0,M,,*4A\r\r\n"2022-04-09 18:23:17
"||||||||||||-40,6969,$ACCEL,9.52,-2.59,0.07,$ALT,873.79,-269.845.000,3429.7286,N,11657.5603,W,2,16,0.64,873.0,M,-31.0,M,,*4A\r\r\n"2022-04-09 18:23:18
"||||||||||||-40,6969,$GNRMC,182315.000,A,342$GNGGA,182316.000,3429.7286,N,11657.5603,W,2,16,0.64,873.0,M,-31.0,M,,*49\r$1.38631626$GNGGA,182\r\n"2022-04-09 18:23:19
"||||||||||||-40,6969,$ACCEL,9.53,-2.59,0.06,$ALT,873.84,-269.86429.7286,N,11657.5603,W,2,16,0.64,873.0,M,-31.0,M,,*49\r$1.38631626$GNGGA,182\r\n"2022-04-09 18:23:20
"||||||||||||-40,6969,$GNRMC,182317.000,A,3465,,,2E$GNGGA,182318.000,3429.7286,N,11657.5603,W,2,16,0.64,873.1,M,-31.0,M,,*46\r@B\u000f\r\n"2022-04-09 18:23:20
"||||||||||||-40,6969,$ACCEL,9.53,-2.58,0.06,$ALT,873.88,-269.87.000,3429.7286,N,11657.5603,W,2,16,0.64,873.1,M,-31.0,M,,*46\r@B\u000f\r\n"2022-04-09 18:23:20
"||||||||||||-40,6969,$GNRMC,18231.,210034*$GNGGA,182319.000,3429.7286,N,11657.5603,W,2,16,0.64,873.1,M,-31.0,M,,*47\r,M,,*46\r@B\u000f\r\n"2022-04-09 18:23:21
"||||||||||||-39,6969,$ACCEL,9.52,-2.59,0.07,$ALT,873.91,-269.879.7286,N,11657.5603,W,2,16,0.64,873.1,M,-31.0,M,,*47\r,M,,*46\r@B\u000f\r\n"2022-04-09 18:23:21
"||||||||||||-40,6969,$GNRMC,182319.0038600326$GNGGA,182320.000,3429.7286,N,11657.5603,W,2,16,0.64,873.1,M,-31.0,M,,*4D\r,*46\r@B\u000f\r\n"2022-04-09 18:23:22
"||||||||||||-40,6969,$ACCEL,9.52,-2.60,0.06,$ALT,873.99,-269.903429.7286,N,11657.5603,W,2,16,0.64,873.1,M,-31.0,M,,*4D\r,*46\r@B\u000f\r\n"2022-04-09 18:23:23
"||||||||||||-40,6969,$GNRMC,182320.000,A,3429.7286,N,11657.5603,W,0.02,$GNGGA,182321.000,3429.7286,N,11657.5603,W,2,16,0.64,873.1,M,-31.0,M\r\n"2022-04-09 18:23:23
"||||||||||||-40,6969,$ACCEL,9.52,-2.59,0.05,$ALT,873.90,-269.87B\u0001\r\n"2022-04-09 18:23:24
"||||||||||||-40,6969,$GNRMC,182321.000,A,3429.7286$GNGGA,182322.000,3429.7286,N,11657.5603,W,2,17,0.64,873.1,M,-31.0,M,,*4E\r@B\u000f\r\n"2022-04-09 18:23:24
"||||||||||||-41,6969,$ACCEL,9.52,-2.59,0.05,$ALT,873.89,-269.87.000,3429.7286,N,11657.5603,W,2,17,0.64,873.1,M,-31.0,M,,*4E\r@B\u000f\r\n"2022-04-09 18:23:25
"||||||||||||-40,6969,$GNRMC,182322.000,A,3$GNGGA,182323.000,3429.7286,N,11657.5603,W,2,17,0.64,873.1,M,-31.0,M,,*4F\r,M,,*4E\r@B\u000f\r\n"2022-04-09 18:23:25
"||||||||||||-40,6969,$ACCEL,9.52,-2.59,0.06,$ALT,873.99,-269.899.7286,N,11657.5603,W,2,17,0.64,873.1,M,-31.0,M,,*4F\r,M,,*4E\r@B\u000f\r\n"2022-04-09 18:23:26
"||||||||||||-40,6969,$GNRMC,182323.000,A,3429$GNGGA,182324.000,3429.7286,N,11657.5603,W,2,16,0.63,873.1,M,-31.0,M,,*4E\r,*4E\r@B\u000f\r\n"2022-04-09 18:23:26
"||||||||||||-40,6969,$ACCEL,9.52,-2.59,0.06,$ALT,874.12,-269.933429.7286,N,11657.5603,W,2,16,0.63,873.1,M,-31.0,M,,*4E\r,*4E\r@B\u000f\r\n"2022-04-09 18:23:27
"||||||||||||-41,6969,$GNRMC,182324.000,A,3429.728616..4D$GNGGA,182325.000,3429.7286,N,11657.5603,W,2,16,0.67,873.1,M,-31.0,M,,*4B\r\r\n"2022-04-09 18:23:27
"||||||||||||-39,6969,$ACCEL,9.53,-2.59,0.05,$ALT,874.03,-269.90182325.000,3429.7286,N,11657.5603,W,2,16,0.67,873.1,M,-31.0,M,,*4B\r\r\n"2022-04-09 18:23:28
"||||||||||||-40,6969,$GNRMC,18232038634626$GNGGA,182326.000,3429.7286,N,11657.5603,W,2,15,0.67,873.1,M,-31.0,M,,*4B\r,-31.0,M,,*4B\r\r\n"2022-04-09 18:23:28
"||||||||||||-40,6969,$ACCEL,9.53,-2.58,0.05,$ALT,874.06,-269.91B\u0001\r\n"2022-04-09 18:23:29
"||||||||||||-41,6969,$GNRMC,182326.002,7W10,\r$GNGGA,182327.000,3429.7286,N,11657.5603,W,2,16,0.67,873.1,M,-31.0,M,,*49\r\r\n"2022-04-09 18:23:29
"||||||||||||-40,6969,$ACCEL,9.52,-2.59,0.06,$ALT,874.07,-269.923429.7286,N,11657.5603,W,2,16,0.67,873.1,M,-31.0,M,,*49\r\r\n"2022-04-09 18:23:30
"||||||||||||-41,6969,$GNRMC,182327.0004653362C$GNGGA,182328.000,3429.7286,N,11657.5602,W,2,15,0.67,873.1,M,-31.0,M,,*44\r`\r\n"2022-04-09 18:23:30
"||||||||||||-40,6969,$ACCEL,9.53,-2.58,0.06,$ALT,874.15,-269.94,3429.7286,N,11657.5602,W,2,15,0.67,873.1,M,-31.0,M,,*44\r`\r\n"2022-04-09 18:23:31
"||||||||||||-41,6969,$GNRMC,182328.0038621626$GNGGA,182329.000,3429.7286,N,11657.5602,W,2,16,0.67,873.1,M,-31.0,M,,*46\r\r\n"2022-04-09 18:23:31
"||||||||||||-40,6969,$ACCEL,9.52,-2.59,0.05,$ALT,874.20,-269.963429.7286,N,11657.5602,W,2,16,0.67,873.1,M,-31.0,M,,*46\r\r\n"2022-04-09 18:23:32
"||||||||||||-40,6969,$GNRMC,182329.0046624624$GNGGA,182330.000,3429.7286,N,11657.5602,W,2,16,0.67,873.1,M,-31.0,M,,*4E\r\r\n"2022-04-09 18:23:32
"||||||||||||-41,6969,$ACCEL,9.53,-2.58,0.06,$ALT,874.29,-269.983429.7286,N,11657.5602,W,2,16,0.67,873.1,M,-31.0,M,,*4E\r\r\n"2022-04-09 18:23:33
"||||||||||||-40,6969,$GNRMC,182330.0A715060D$GNGGA,182331.000,3429.7285,N,11657.5602,W,2,16,0.67,873.1,M,-31.0,M,,*4C\r\r\n"2022-04-09 18:23:33
"||||||||||||-40,6969,$ACCEL,9.53,-2.57,0.06,$ALT,874.42,-270.03429.7285,N,11657.5602,W,2,16,0.67,873.1,M,-31.0,M,,*4C\r\r\n"2022-04-09 18:23:34
"||||||||||||-40,6969,$GNRMC,182331.0002,7W10,\r$GNGGA,182332.000,3429.7285,N,11657.5602,W,2,16,0.67,873.0,M,-31.0,M,,*4E\r`\r\n"2022-04-09 18:23:34
"||||||||||||-41,6969,$ACCEL,9.53,-2.58,0.05,$ALT,874.39,-270.02,3429.7285,N,11657.5602,W,2,16,0.67,873.0,M,-31.0,M,,*4E\r`\r\n"2022-04-09 18:23:35
"||||||||||||-41,6969,$GNRMC,182332.000255,,,,A$GNGGA,182333.000,3429.7285,N,11657.5602,W,2,15,0.67,873.1,M,-31.0,M,,*4D\r`\r\n"2022-04-09 18:23:35
"||||||||||||-41,6969,$ACCEL,9.52,-2.56,0.06,$ALT,874.41,-270.02,3429.7285,N,11657.5602,W,2,15,0.67,873.1,M,-31.0,M,,*4D\r`\r\n"2022-04-09 18:23:36
"||||||||||||-40,6969,$GNRMC,182333.0,.,.,99,$GNGGA,182334.000,3429.7285,N,11657.5602,W,2,14,0.68,873.0,M,-31.0,M,,*45\rD\r`\r\n"2022-04-09 18:23:36
"||||||||||||-40,6969,$GNRMC,182334.00,.,5069,$GNGGA,182335.000,3429.7285,N,11657.5602,W,2,14,0.68,873.0,M,-31.0,M,,*44\r\r`\r\n"2022-04-09 18:23:37
"||||||||||||-41,6969,$ACCEL,9.53,-2.57,0.05,$ALT,874.39,-270.023429.7285,N,11657.5602,W,2,14,0.68,873.0,M,-31.0,M,,*44\r\r`\r\n"2022-04-09 18:23:38
"||||||||||||-41,6969,$GNRMC,182335.00032100326$GNGGA,182336.000,3429.7285,N,11657.5602,W,2,14,0.68,873.0,M,-31.0,M,,*47\r`\r\n"2022-04-09 18:23:38
"||||||||||||-41,6969,$GNRMC,182336.00,.,5069,$GNGGA,182337.000,3429.7285,N,11657.5602,W,2,14,0.68,873.0,M,-31.0,M,,*46\r\r\n"2022-04-09 18:23:39
"||||||||||||-41,6969,$ACCEL,9.52,-2.58,0.06,$ALT,874.28,-269.97B\u0001\r\n"2022-04-09 18:23:40
"||||||||||||-40,6969,$GNRMC,182337.000,210..4*$GNGGA,182338.000,3429.7285,N,11657.5602,W,2,14,0.68,873.0,M,-31.0,M,,*49\r`\r\n"2022-04-09 18:23:40
"||||||||||||-41,6969,$ACCEL,9.53,-2.58,0.05,$ALT,874.14,-269.92B\u0001\r\n"2022-04-09 18:23:41
"||||||||||||-41,6969,$GNRMC,182338.000455,2621$GNGGA,182339.000,3429.7285,N,11657.5602,W,2,14,0.68,873.0,M,-31.0,M,,*48\r`\r\n"2022-04-09 18:23:41
"||||||||||||-41,6969,$ACCEL,9.52,-2.57,0.04,$ALT,874.14,-269.93,3429.7285,N,11657.5602,W,2,14,0.68,873.0,M,-31.0,M,,*48\r`\r\n"2022-04-09 18:23:42
"||||||||||||-40,6969,$GNRMC,182339.00048623626$GNGGA,182340.000,3429.7285,N,11657.5602,W,2,14,0.68,873.0,M,-31.0,M,,*46\r`\r\n"2022-04-09 18:23:42
"||||||||||||-40,6969,$ACCEL,9.53,-2.58,0.04,$ALT,874.09,-269.91B\u0001\r\n"2022-04-09 18:23:43
"||||||||||||-41,6969,$GNRMC,182340.00,.,5,99,$GNGGA,182341.000,3429.7285,N,11657.5602,W,2,15,0.65,873.0,M,-31.0,M,,*4B\r\r\n"2022-04-09 18:23:43
"||||||||||||-40,6969,$ACCEL,9.53,-2.58,0.04,$ALT,874.01,-269.893429.7285,N,11657.5602,W,2,15,0.65,873.0,M,-31.0,M,,*4B\r\r\n"2022-04-09 18:23:44
"||||||||||||-40,6969,$GNRMC,182341.00048622626$GNGGA,182342.000,3429.7285,N,11657.5602,W,2,15,0.67,873.0,M,-31.0,M,,*4A\r`\r\n"2022-04-09 18:23:44
"||||||||||||-40,6969,$ACCEL,9.52,-2.57,0.07,$ALT,873.83,-269.83\r\n"2022-04-09 18:23:45
"||||||||||||-41,6969,$GNRMC,182342.00A715060D$GNGGA,182343.000,3429.7285,N,11657.5601,W,2,16,0.63,873.0,M,-31.0,M,,*4F\r\r\n"2022-04-09 18:23:45
"||||||||||||-41,6969,$ACCEL,9.54,-2.58,0.07,$ALT,874.08,-269.92B\u0001\r\n"2022-04-09 18:23:46
"||||||||||||-41,6969,$GNRMC,182343.000,2100.4*$GNGGA,182344.000,3429.7285,N,11657.5601,W,2,16,0.63,873.0,M,-31.0,M,,*48\r`\r\n"2022-04-09 18:23:46
"||||||||||||-40,6969,$ACCEL,9.53,-2.57,0.06,$ALT,873.89,-269.86B\u0001\r\n"2022-04-09 18:23:47
"||||||||||||-41,6969,$GNRMC,182344.00,.,5099,$GNGGA,182345.000,3429.7285,N,11657.5601,W,2,16,0.63,873.0,M,-31.0,M,,*49\r\r\n"2022-04-09 18:23:47
"||||||||||||-41,6969,$ACCEL,9.53,-2.57,0.06,$ALT,874.02,-269.893429.7285,N,11657.5601,W,2,16,0.63,873.0,M,-31.0,M,,*49\r\r\n"2022-04-09 18:23:48
"||||||||||||-40,6969,$GNRMC,182345.00045612628$GNGGA,182346.000,3429.7285,N,11657.5601,W,2,16,0.63,873.0,M,-31.0,M,,*4A\r,\u0001\r\n"2022-04-09 18:23:48
"||||||||||||-40,6969,$ACCEL,9.53,-2.58,0.06,$ALT,873.95,-269.87,3429.7285,N,11657.5601,W,2,16,0.63,873.0,M,-31.0,M,,*4A\r,\u0001\r\n"2022-04-09 18:23:49
"||||||||||||-40,6969,$GNRMC,182346.00A716..0D$GNGGA,182347.000,3429.7285,N,11657.5601,W,2,16,0.63,873.0,M,-31.0,M,,*4B\r\r,\u0001\r\n"2022-04-09 18:23:49
"||||||||||||-40,6969,$ACCEL,9.53,-2.57,0.05,$ALT,873.96,-269.873429.7285,N,11657.5601,W,2,16,0.63,873.0,M,-31.0,M,,*4B\r\r,\u0001\r\n"2022-04-09 18:23:50
"||||||||||||-40,6969,$GNRMC,182347.0002,5,,,,\r$GNGGA,182348.000,3429.7285,N,11657.5601,W,2,16,0.63,872.9,M,-31.0,M,,*4C\r,\u0001\r\n"2022-04-09 18:23:50
"||||||||||||-41,6969,$ACCEL,9.53,-2.58,0.06,$ALT,873.99,-269.89,3429.7285,N,11657.5601,W,2,16,0.63,872.9,M,-31.0,M,,*4C\r,\u0001\r\n"2022-04-09 18:23:51
"||||||||||||-41,6969,$GNRMC,182348.0038600326$GNGGA,182349.000,3429.7285,N,11657.5601,W,2,16,0.63,872.9,M,-31.0,M,,*4D\r\r,\u0001\r\n"2022-04-09 18:23:51
"||||||||||||-40,6969,$ACCEL,9.53,-2.58,0.05,$ALT,873.90,-269.86B\u0001\r\n"2022-04-09 18:23:52
"||||||||||||-41,6969,$GNRMC,182349.000455,,,22$GNGGA,182350.000,3429.7285,N,11657.5601,W,2,16,0.63,872.9,M,-31.0,M,,*45\r`\r\n"2022-04-09 18:23:52
"||||||||||||-41,6969,$ACCEL,9.53,-2.57,0.06,$ALT,873.99,-269.88,3429.7285,N,11657.5601,W,2,16,0.63,872.9,M,-31.0,M,,*45\r`\r\n"2022-04-09 18:23:53
"||||||||||||-41,6969,$GNRMC,182350.002,5,,,,\r$GNGGA,182351.000,3429.7285,N,11657.5601,W,2,16,0.63,872.9,M,-31.0,M,,*44\r\r`\r\n"2022-04-09 18:23:53
"||||||||||||-40,6969,$ACCEL,9.52,-2.57,0.06,$ALT,873.99,-269.87\r\n"2022-04-09 18:23:54
"||||||||||||-41,6969,$GNRMC,182351.0038600326$GNGGA,182352.000,3429.7284,N,11657.5601,W,2,16,0.63,872.9,M,-31.0,M,,*46\r\r\n"2022-04-09 18:23:54
"||||||||||||-41,6969,$ACCEL,9.52,-2.57,0.06,$ALT,874.00,-269.87\r\n"2022-04-09 18:23:54
"||||||||||||-41,6969,$GNRMC,182352.0009N7W10,ALT,874.00,-269.87\r\n"2022-04-09 18:23:54
"||||||||||||-41,6969,$ACCEL,9.53,-2.59,0.06,$ALT,874.02,-269.88\r\n"2022-04-09 18:23:55
"||||||||||||-41,6969,$GNRMC,182353.00,210034*$GNGGA,182354.000,3429.7284,N,11657.5600,W,2,16,0.63,872.9,M,-31.0,M,,*41\r\r\n"2022-04-09 18:23:56
"||||||||||||-41,6969,$ACCEL,9.54,-2.58,0.06,$ALT,873.97,-269.86B\u0001\r\n"2022-04-09 18:23:57
"||||||||||||-40,6969,$GNRMC,182354.00,.,5069,$GNGGA,182355.000,3429.7284,N,11657.5600,W,2,16,0.63,872.9,M,-31.0,M,,*40\r\r\n"2022-04-09 18:23:57
"||||||||||||-41,6969,$ACCEL,9.54,-2.58,0.07,$ALT,873.86,-269.793429.7284,N,11657.5600,W,2,16,0.63,872.9,M,-31.0,M,,*40\r\r\n"2022-04-09 18:23:58
"||||||||||||-40,6969,$GNRMC,182355.000,2100.4*$GNGGA,182356.000,3429.7284,N,11657.5600,W,2,16,0.63,872.9,M,-,\rC5A716..0D$GNGGA,182357.000,3\r\n"2022-04-09 18:23:58
"||||||||||||-40,6969,$ACCEL,9.53,-2.59,0.05,$ALT,873.98,-269.86B\u0001\r\n"2022-04-09 18:23:59
"||||||||||||-40,6969,$GNRMC,182357.000,A,34210..4*$GNGGA,182358.000,3429.7284,N,11657.5600,W,2,16,0.63,872.9,M,-31.0,M,,*4D\r@B\u000f\r\n"2022-04-09 18:23:59
"||||||||||||-41,6969,$ACCEL,9.51,-2.58,0.05,$ALT,874.06,-269.89.000,3429.7284,N,11657.5600,W,2,16,0.63,872.9,M,-31.0,M,,*4D\r@B\u000f\r\n"2022-04-09 18:24:00
"||||||||||||-40,6969,$GNRMC,182358.000445,,,,2$GNGGA,182359.000,3429.7284,N,11657.5600,W,2,17,0.61,872.9,M,-31.0,M,,*4F\r*4D\r@B\u000f\r\n"2022-04-09 18:24:00
"||||||||||||-40,6969,$ACCEL,9.53,-2.59,0.05,$ALT,874.14,-269.90,3429.7284,N,11657.5600,W,2,17,0.61,872.9,M,-31.0,M,,*4F\r*4D\r@B\u000f\r\n"2022-04-09 18:24:01
"||||||||||||-40,6969,$GNRMC,182359.00A716.60D$GNGGA,182400.000,3429.7284,N,11657.5600,W,2,16,0.63,872.9,M,-31.0,M,,*47\r\r\n"2022-04-09 18:24:01
"||||||||||||-41,6969,$ACCEL,9.51,-2.59,0.06,$ALT,874.18,-269.92\r\n"2022-04-09 18:24:02
"||||||||||||-40,6969,$GNRMC,182400.000,A,3429.7284,N,11657.5600,W,0$GNGGA,182401.000,3429.7284,N,11657.5600,W,2,16,0.63,872.8,M,-31.0,M,,*4\r\n"2022-04-09 18:24:03
"||||||||||||-40,6969,$ACCEL,9.53,-2.59,0.04,$ALT,874.12,-269.91,W,0$GNGGA,182401.000,3429.7284,N,11657.5600,W,2,16,0.63,872.8,M,-31.0,M,,*4\r\n"2022-04-09 18:24:03
"||||||||||||-39,6969,$GNRMC,182401.000,A,3429.7284$GNGGA,182402.000,3429.7284,N,11657.5600,W,2,16,0.63,872.8,M,-31.0,M,,*44\r8,M,-31.0,M,,*4\r\n"2022-04-09 18:24:04
"||||||||||||-43,6969,$ACCEL,9.53,-2.57,0.08,$ALT,874.09,-269.90.000,3429.7284,N,11657.5600,W,2,16,0.63,872.8,M,-31.0,M,,*44\r8,M,-31.0,M,,*4\r\n"2022-04-09 18:24:04
"||||||||||||-42,6969,$GNRMC,182402.000,A,3429.$GNGGA,182403.000,3429.7284,N,11657.5600,W,2,16,0.63,872.8,M,-31.0,M,,*45\r`\r\n"2022-04-09 18:24:05
"||||||||||||-41,6969,$ACCEL,9.53,-2.58,0.03,$ALT,874.20,-269.93,3429.7284,N,11657.5600,W,2,16,0.63,872.8,M,-31.0,M,,*45\r`\r\n"2022-04-09 18:24:05
"||||||||||||-42,6969,$GNRMC,182403.000,A,3429$GNGGA,182404.000,3429.7284,N,11657.5600,W,2,16,0.63,872.8,M,-31.0,M,,*42\r\r`\r\n"2022-04-09 18:24:06
"||||||||||||-41,6969,$ACCEL,9.53,-2.59,0.05,$ALT,874.23,-269.943429.7284,N,11657.5600,W,2,16,0.63,872.8,M,-31.0,M,,*42\r\r`\r\n"2022-04-09 18:24:06
"||||||||||||-41,6969,$GNRMC,182404.000,A,3429.72845,,,,C$GNGGA,182405.000,3429.7284,N,11657.5600,W,2,16,0.63,872.8,M,-31.0,M,,*43\r\r\n"2022-04-09 18:24:07
"||||||||||||-41,6969,$ACCEL,9.52,-2.58,0.06,$ALT,874.14,-269.90182405.000,3429.7284,N,11657.5600,W,2,16,0.63,872.8,M,-31.0,M,,*43\r\r\n"2022-04-09 18:24:07
"||||||||||||-41,6969,$GNRMC,18240,.N.,99,$GNGGA,182406.000,3429.7284,N,11657.5599,W,2,16,0.63,872.8,M,-31.0,M,,*43\r\r\n"2022-04-09 18:24:08
"||||||||||||-40,6969,$GNRMC,182406.00,215..4*$GNGGA,182407.000,3429.7284,N,11657.5599,W,2,16,0.63,872.8,M,-31.0,M,,*42\r\r\n"2022-04-09 18:24:09
"||||||||||||-40,6969,$ACCEL,9.52,-2.60,0.04,$ALT,874.19,-269.923429.7284,N,11657.5599,W,2,16,0.63,872.8,M,-31.0,M,,*42\r\r\n"2022-04-09 18:24:09
"||||||||||||-40,6969,$GNRMC,182407.0002,7W10,\r$GNGGA,182408.000,3429.7284,N,11657.5599,W,2,16,0.63,872.8,M,-31.0,M,,*4D\r,\u0001\r\n"2022-04-09 18:24:10
"||||||||||||-40,6969,$ACCEL,9.53,-2.59,0.09,$ALT,874.09,-269.89,3429.7284,N,11657.5599,W,2,16,0.63,872.8,M,-31.0,M,,*4D\r,\u0001\r\n"2022-04-09 18:24:10
"||||||||||||-40,6969,$GNRMC,182408.00,715..4D$GNGGA,182409.000,3429.7283,N,11657.5599,W,2,17,0.61,872.8,M,-31.0,M,,*48\r\r,\u0001\r\n"2022-04-09 18:24:11
"||||||||||||-40,6969,$ACCEL,9.53,-2.59,0.09,$ALT,874.15,-269.883429.7283,N,11657.5599,W,2,17,0.61,872.8,M,-31.0,M,,*48\r\r,\u0001\r\n"2022-04-09 18:24:11
"||||||||||||-40,6969,$GNRMC,182409.09N.W10,,$ALT,874.15,-269\r\n"2022-04-09 18:24:11
"||||||||||||-40,6969,$ACCEL,9.53,-2.60,0.06,$ALT,874.12,-269.89B\u0001\r\n"2022-04-09 18:24:12
"||||||||||||-40,6969,$ACCEL,9.53,-2.60,0.06,$ALT,874.17,-269.90\r\n"2022-04-09 18:24:13
"||||||||||||-40,6969,$GNRMC,182410.000,435,,62D$GNGGA,182411.000,3429.7283,N,11657.5599,W,2,17,0.61,872.7,M,-31.0,M,,*4E\r\r\n"2022-04-09 18:24:13
"||||||||||||-40,6969,$ACCEL,9.53,-2.59,0.05,$ALT,874.14,-269.890,3429.7283,N,11657.5599,W,2,17,0.61,872.7,M,-31.0,M,,*4E\r\r\n"2022-04-09 18:24:14
"||||||||||||-40,6969,$GNRMC,182411.00,2190.4*$GNGGA,182412.000,3429.7283,N,11657.5599,W,2,16,0.63,872.7,M,-31.0,M,,*4E\r\r\n"2022-04-09 18:24:14
"||||||||||||-40,6969,$ACCEL,9.54,-2.59,0.06,$ALT,874.14,-269.903429.7283,N,11657.5599,W,2,16,0.63,872.7,M,-31.0,M,,*4E\r\r\n"2022-04-09 18:24:14
"||||||||||||-40,6969,$GNRMC,182412.00235,,,,\r$GNGGA,182413.000,3429.7283,N,11657.5599,W,2,16,0.63,872.7,M,-M1.0,M,,*4E\r\r\n"2022-04-09 18:24:16
"||||||||||||-40,6969,$ACCEL,9.52,-2.60,0.07,$ALT,874.23,-269.93\r\n"2022-04-09 18:24:16
"||||||||||||-40,6969,,3,219034*$GNGGA,182414.000,3429.7283,N,11657.5599,W,2,16,0.63,872.7,M,-31.0,M,,*48\r\r\n"2022-04-09 18:24:16
"||||||||||||-40,6969,$ACCEL,9.53,-2.59,0.06,$ALT,874.19,-269.91657.5599,W,2,16,0.63,872.7,M,-31.0,M,,*48\r\r\n"2022-04-09 18:24:17
"||||||||||||-40,6969,$GNRMC,182414.000,A,342,7W10,\r$GNGGA,182415.000,3429.7283,N,11657.5599,W,2,16,0.63,872.7,M,-31.0,M,,*49\r\r\n"2022-04-09 18:24:18
"||||||||||||-40,6969,$ACCEL,9.52,-2.60,0.06,$ALT,874.38,-269.975.000,3429.7283,N,11657.5599,W,2,16,0.63,872.7,M,-31.0,M,,*49\r\r\n"2022-04-09 18:24:18
"||||||||||||-40,6969,$GNRMC,182415.00435,,62E$GNGGA,182416.000,3429.7283,N,11657.5598,W,2,17,0.61,872.7,M,-31.0,M,,*48\r\r\n"2022-04-09 18:24:18
"||||||||||||-40,6969,$ACCEL,9.53,-2.58,0.05,$ALT,874.43,-269.98\r\n"2022-04-09 18:24:19
"||||||||||||-40,6969,$GNRMC,182416.000,219034*$GNGGA,182417.000,3429.7283,N,11657.5598,W,2,16,0.63,872.7,M,-31.0,M,,*4A\r,\u0001\r\n"2022-04-09 18:24:19
"||||||||||||-40,6969,$ACCEL,9.52,-2.61,0.04,$ALT,874.45,-269.98B\u0001\r\n"2022-04-09 18:24:20
"||||||||||||-40,6969,$GNRMC,182417.000,A715.60D$GNGGA,182418.000,3429.7283,N,11657.5598,W,2,16,0.63,872.7,M,-31.0,M,,*45\r\r\n"2022-04-09 18:24:21
"||||||||||||-41,6969,$ACCEL,9.53,-2.56,0.09,$ALT,874.43,-269.98B\u0001\r\n"2022-04-09 18:24:21
"||||||||||||-40,6969,$GNRMC,182418.000,A,235,,,,\r$GNGGA,182419.000,3429.7283,N,11657.5598,W,2,16,0.63,872.6,M,-31.0,M,,*45\r @B\u000f\r\n"2022-04-09 18:24:22
"||||||||||||-41,6969,$ACCEL,9.53,-2.60,0.07,$ALT,874.41,-269.97000,3429.7283,N,11657.5598,W,2,16,0.63,872.6,M,-31.0,M,,*45\r @B\u000f\r\n"2022-04-09 18:24:22
"||||||||||||-41,6969,$GNRMC,182419.00435,,,27$GNGGA,182420.000,3429.7283,N,11657.5598,W,2,16,0.63,872.6,M,-31.0,M,,*4F\r\r\n"2022-04-09 18:24:23
"||||||||||||-40,6969,$ACCEL,9.52,-2.58,0.07,$ALT,874.39,-269.963429.7283,N,11657.5598,W,2,16,0.63,872.6,M,-31.0,M,,*4F\r\r\n"2022-04-09 18:24:23
"||||||||||||-41,6969,$GNRMC,182420.00435,,,,E$GNGGA,182421.000,3429.7283,N,11657.5598,W,2,16,0.63,872.6,M,-31.0,M,,*4E\r\r\n"2022-04-09 18:24:23
"||||||||||||-41,6969,$ACCEL,9.53,-2.58,0.07,$ALT,874.44,-269.98\r\n"2022-04-09 18:24:24
"||||||||||||-41,6969,$GNRMC,182421.004368462E$GNGGA,182422.000,3429.7283,N,11657.5598,W,2,16,0.63,872.6,M,-31.0,M,,*4D\r\r\n"2022-04-09 18:24:24
"||||||||||||-41,6969,$ACCEL,9.53,-2.58,0.07,$ALT,874.44,-269.973429.7283,N,11657.5598,W,2,16,0.63,872.6,M,-31.0,M,,*4D\r\r\n"2022-04-09 18:24:25
"||||||||||||-40,6969,$GNRMC,182422.0009N.,10,ALT,874.44,-269.973429.7283,N,11657.5598,W,2,16,0.63,872.6,M,-31.0,M,,*4D\r\r\n"2022-04-09 18:24:25
"||||||||||||-41,6969,$ACCEL,9.53,-2.59,0.08,$ALT,874.46,-269.98B\u0001\r\n"2022-04-09 18:24:25
"||||||||||||-41,6969,$ACCEL,9.53,-2.59,0.06,$ALT,874.41,-269.97B\u0001\r\n"2022-04-09 18:24:26
"||||||||||||-41,6969,$GNRMC,182423.0A7,5060D$GNGGA,182424.000,3429.7283,N,11657.5597,W,2,16,0.63,872.6,M,-31.0,M,,*44\r\r\n"2022-04-09 18:24:27
"||||||||||||-44,6969,$ACCEL,9.52,-2.60,0.07,$ALT,874.50,-269.99429.7283,N,11657.5597,W,2,16,0.63,872.6,M,-31.0,M,,*44\r\r\n"2022-04-09 18:24:27
"||||||||||||-43,6969,$GNRMC,182424.000435,,626$GNGGA,182425.000,3429.7282,N,11657.5597,W,2,17,0.61,872.5,M,-31.0,M,,*44\r`\r\n"2022-04-09 18:24:28
"||||||||||||-42,6969,$ACCEL,9.52,-2.60,0.07,$ALT,874.52,-270.00B\u0001\r\n"2022-04-09 18:24:29
"||||||||||||-42,6969,$GNRMC,182425.00048675625$GNGGA,182426.000,3429.7282,N,11657.5597,W,2,16,0.63,872.5,M,04R4,.,.,99,$GNGGA,182427.000,34\r\n"2022-04-09 18:24:29
"||||||||||||-43,6969,$ACCEL,9.52,-2.59,0.06,$ALT,874.56,-270.01B\u0001\r\n"2022-04-09 18:24:30
"||||||||||||-43,6969,$GNRMC,182427.000,A,3429,7W10,\r$GNGGA,182428.000,3429.7282,N,11657.5597,W,2,16,0.63,872.5,M,-31.0,M,,*4A\r\u000f\r\n"2022-04-09 18:24:30
"||||||||||||-45,6969,$ACCEL,9.52,-2.59,0.07,$ALT,874.63,-270.04\r\n"2022-04-09 18:24:31
"||||||||||||-45,6969,$GNRMC,182428.00,215..4*$GNGGA,182429.000,3429.7282,N,11657.5597,W,2,16,0.63,872.5,M,-31.0,M,,*4B\r\r\n"2022-04-09 18:24:31
"||||||||||||-45,6969,$ACCEL,9.53,-2.59,0.08,$ALT,874.56,-270.01\r\n"2022-04-09 18:24:32
"||||||||||||-45,6969,$GNRMC,182429.00,.,5069,$GNGGA,182430.000,3429.7282,N,11657.5597,W,2,16,0.63,872.4,M,-31.0,M,,*42\r\r\n"2022-04-09 18:24:32
"||||||||||||-50,6969,$ACCEL,9.52,-2.60,0.07,$ALT,874.61,-270.023429.7282,N,11657.5597,W,2,16,0.63,872.4,M,-31.0,M,,*42\r\r\n"2022-04-09 18:24:33
"||||||||||||-50,6969,$GNRMC,182430.000,A,3429.7282,N,11657.5597,W,$GNGGA,182431.000,3429.7282,N,11657.5596,W,2,16,0.63,872.4,M,-31.0,M,,*42\r\n"2022-04-09 18:24:33
"||||||||||||-45,6969,$ACCEL,9.52,-2.58,0.06,$ALT,874.60,-270.02,W,$GNGGA,182431.000,3429.7282,N,11657.5596,W,2,16,0.63,872.4,M,-31.0,M,,*42\r\n"2022-04-09 18:24:34
"||||||||||||-43,6969,$GNRMC,182431.000,A,3429.7282,N$GNGGA,182432.000,3429.7282,N,11657.5596,W,2,16,0.63,872.4,M,-31.0,M,,*41\r\r\n"2022-04-09 18:24:34
"||||||||||||-43,6969,$ACCEL,9.52,-2.61,0.05,$ALT,874.57,-270.01B\u0001\r\n"2022-04-09 18:24:35
"||||||||||||-43,6969,$GNRMC,182432.000,A,3429$GNGGA,182433.000,3429.7282,N,11657.5596,W,2,16,0.63,872.4,M,-31.0,M,,*40\r\r\n"2022-04-09 18:24:35
"||||||||||||-43,6969,$ACCEL,9.53,-2.59,0.07,$ALT,874.52,-269.99\r\n"2022-04-09 18:24:36
"||||||||||||-43,6969,$GNRMC,182433.000,A,3429$GNGGA,182434.000,3429.7282,N,11657.5596,W,2,16,0.63,872.4,M,-31.0,M,,*47\r\r\n"2022-04-09 18:24:36
"||||||||||||-43,6969,$ACCEL,9.52,-2.60,0.07,$ALT,874.58,-270.013429.7282,N,11657.5596,W,2,16,0.63,872.4,M,-31.0,M,,*47\r\r\n"2022-04-09 18:24:37
"||||||||||||-42,6969,$GNRMC,182434.000,A,3429.72819034*$GNGGA,182435.000,3429.7282,N,11657.5596,W,2,17,0.61,872.4,M,-31.0,M,,*45\r\u0001\r\n"2022-04-09 18:24:37
"||||||||||||-43,6969,$ACCEL,9.52,-2.60,0.07,$ALT,874.56,-270.0182435.000,3429.7282,N,11657.5596,W,2,17,0.61,872.4,M,-31.0,M,,*45\r\u0001\r\n"2022-04-09 18:24:38
"||||||||||||-44,6969,$GNRMC,18243509N.,90,7,$ALT,874.56,-270.0182435.000,3429.7282,N,11657.5596,W,2,17,0.61,872.4,M,-31.0,M,,*45\r\u0001\r\n"2022-04-09 18:24:38
"||||||||||||-43,6969,$ACCEL,9.52,-2.59,0.06,$ALT,874.70,-270.0582435.000,3429.7282,N,11657.5596,W,2,17,0.61,872.4,M,-31.0,M,,*45\r\u0001\r\n"2022-04-09 18:24:38
"||||||||||||-43,6969,$GNGGA,182436.000,3429.7282,N,11657.5596,W,2,17,0.61,872.4,M,-31.0,M,,*46\r,W,2,17,0.61,872.4,M,-31.0,M,,*45\r\u0001\r\n"2022-04-09 18:24:39
"||||||||||||-43,6969,$ACCEL,9.53,-2.60,0.06,$ALT,874.72,-270.06,2,17,0.61,872.4,M,-31.0,M,,*46\r,W,2,17,0.61,872.4,M,-31.0,M,,*45\r\u0001\r\n"2022-04-09 18:24:39
"||||||||||||-43,6969,$GNRMC,182436.,.,.,99,$GNGGA,182437.000,3429.7281,N,11657.5595,W,2,17,0.60,872.4,M,-31.0,M,,*46\r31.0,M,,*45\r\u0001\r\n"2022-04-09 18:24:40
"||||||||||||-43,6969,$ACCEL,9.52,-2.59,0.07,$ALT,874.72,-270.05\r\n"2022-04-09 18:24:40
"||||||||||||-43,6969,$GNRMC,182437.000,.,5099,$GNGGA,182438.000,3429.7281,N,11657.5595,W,2,16,0.63,872.4,M,-31.0,M,,*4B\r,\u0001\r\n"2022-04-09 18:24:40
"||||||||||||-43,6969,$ACCEL,9.52,-2.59,0.07,$ALT,874.76,-270.05,3429.7281,N,11657.5595,W,2,16,0.63,872.4,M,-31.0,M,,*4B\r,\u0001\r\n"2022-04-09 18:24:41
"||||||||||||-43,6969,$GNRMC,182438.009N7W10,$ALT,874.76,-270.05,3429.7281,N,11657.5595,W,2,16,0.63,872.4,M,-31.0,M,,*4B\r,\u0001\r\n"2022-04-09 18:24:41
"||||||||||||-43,6969,$ACCEL,9.53,-2.59,0.07,$ALT,874.66,-270.03,3429.7281,N,11657.5595,W,2,16,0.63,872.4,M,-31.0,M,,*4B\r,\u0001\r\n"2022-04-09 18:24:42
"||||||||||||-43,6969,$GNGGA,182439.000,3429.7281,N,11657.5595,W,2,16,0.63,872.3,M1*N209,7W10,\r$GNGGA,182440.000,3429.7281,N,11657.5595,W,2,\r\n"2022-04-09 18:24:42
"||||||||||||-44,6969,$ACCEL,9.53,-2.60,0.06,$ALT,874.60,-270.01,2,16,0.63,872.3,M1*N209,7W10,\r$GNGGA,182440.000,3429.7281,N,11657.5595,W,2,\r\n"2022-04-09 18:24:43
"||||||||||||-43,6969,$GNRMC,182440.000,A,34215..4*$GNGGA,182441.000,3429.7281,N,11657.5595,W,2,16,0.63,872.3,M,-31.0,M,,*42\r\r\n"2022-04-09 18:24:43
"||||||||||||-43,6969,$ACCEL,9.52,-2.59,0.06,$ALT,874.54,-270.00.000,3429.7281,N,11657.5595,W,2,16,0.63,872.3,M,-31.0,M,,*42\r\r\n"2022-04-09 18:24:44
"||||||||||||-43,6969,$GNRMC,182441.00038657326$GNGGA,182442.000,3429.7281,N,11657.5595,W,2,16,0.63,872.4,M,-31.0,M,,*49,*42\r\r\n"2022-04-09 18:24:44
"||||||||||||-44,6969,$ACCEL,9.52,-2.59,0.06,$ALT,874.62,-270.02\r\n"2022-04-09 18:24:45
"||||||||||||-44,6969,$GNGGA,182443.000,3429.7281,N,11657.5595,W,2,16,0.63,872.3,M,-31.0,M,,*40\r\r\n"2022-04-09 18:24:45
"||||||||||||-43,6969,$ACCEL,9.52,-2.60,0.06,$ALT,874.64,-270.02B\u0001\r\n"2022-04-09 18:24:46
"||||||||||||-42,6969,$GNRMC,182443.000,A,3429.7281,N,11657.5595,W,0.07,196.36,090422,6$GNGGA,182444.000,3429.7281,N,11657.5595,W,2,17,0.61, \r\n"2022-04-09 18:24:46
"||||||||||||-43,6969,$ACCEL,9.52,-2.60,0.07,$ALT,874.60,-270.01,W,0.07,196.36,090422,6$GNGGA,182444.000,3429.7281,N,11657.5595,W,2,17,0.61, \r\n"2022-04-09 18:24:47
"||||||||||||-43,6969,$GNRMC,182444,2190.4*$GNGGA,182445.000,3429.7281,N,11657.5595,W,2,17,0.61,872.3,M,-31.0,M,,*45\r11657.5595,W,2,17,0.61, \r\n"2022-04-09 18:24:47
"||||||||||||-43,6969,$ACCEL,9.52,-2.59,0.06,$ALT,874.55,-269.999.7281,N,11657.5595,W,2,17,0.61,872.3,M,-31.0,M,,*45\r11657.5595,W,2,17,0.61, \r\n"2022-04-09 18:24:48
"||||||||||||-43,6969,$GNRMC,182445.009,7W10,\r$GNGGA,182446.000,3429.7281,N,11657.5595,W,2,16,0.63,872.3,M,-31.0,M,,*45\r\r\n"2022-04-09 18:24:48
"||||||||||||-43,6969,$ACCEL,9.52,-2.58,0.05,$ALT,874.58,-270.013429.7281,N,11657.5595,W,2,16,0.63,872.3,M,-31.0,M,,*45\r\r\n"2022-04-09 18:24:49
"||||||||||||-43,6969,$GNRMC,182446.$GNGGA,182447.000,3429.7281,N,11657.5595,W,2,16,0.63,872.3,M,-31.0,M,,*44\r\r\n"2022-04-09 18:24:49
"||||||||||||-44,6969,$ACCEL,9.52,-2.58,0.06,$ALT,874.56,-270.00B\u0001\r\n"2022-04-09 18:24:50
"||||||||||||-43,6969,$GNRMC,182447.000,A,3429.7281,N,15,,,,\r$GNGGA,182448.000,3429.7280,N,11657.5595,W,2,16,0.63,872.3,M,-31.0,M,,*4A\r\r\n"2022-04-09 18:24:50
"||||||||||||-43,6969,$ACCEL,9.53,-2.60,0.06,$ALT,874.52,-269.98GGA,182448.000,3429.7280,N,11657.5595,W,2,16,0.63,872.3,M,-31.0,M,,*4A\r\r\n"2022-04-09 18:24:51
"||||||||||||-44,6969,$ACCEL,9.52,-2.60,0.06,$ALT,874.76,-270.06\r\n"2022-04-09 18:24:52
"||||||||||||-44,6969,$GNRMC,182449.00038190326$GNGGA,182450.000,3429.7280,N,11657.5595,W,2,16,0.63,872.3,M,-31.0,M,,*43\r,\u0001\r\n"2022-04-09 18:24:52
"||||||||||||-43,6969,$ACCEL,9.51,-2.58,0.05,$ALT,874.58,-270.00,3429.7280,N,11657.5595,W,2,16,0.63,872.3,M,-31.0,M,,*43\r,\u0001\r\n"2022-04-09 18:24:53
"||||||||||||-44,6969,$GNRMC,182450.00405,,624$GNGGA,182451.000,3429.7280,N,11657.5594,W,2,16,0.63,872.3,M,-31.0,M,,*43\r\r,\u0001\r\n"2022-04-09 18:24:53
"||||||||||||-43,6969,$ACCEL,9.52,-2.59,0.08,$ALT,874.57,-270.01B\u0001\r\n"2022-04-09 18:24:54
"||||||||||||-44,6969,$GNRMC,182451.000,A.,.,99,$GNGGA,182452.000,3429.7280,N,11657.5594,W,2,16,0.63,872.3,M,-31.0,M,,*40\r\r\n"2022-04-09 18:24:54
"||||||||||||-42,6969,$ACCEL,9.53,-2.59,0.06,$ALT,874.46,-269.970,3429.7280,N,11657.5594,W,2,16,0.63,872.3,M,-31.0,M,,*40\r\r\n"2022-04-09 18:24:55
"||||||||||||-42,6969,$GNRMC,182452.385,9628$GNGGA,182453.000,3429.7280,N,11657.5594,W,2,16,0.63,872.3,M,-31.0,M,,*41\r\r\n"2022-04-09 18:24:55
"||||||||||||-42,6969,$ACCEL,9.53,-2.60,0.08,$ALT,874.66,-270.03B\u0001\r\n"2022-04-09 18:24:56
"||||||||||||-43,6969,$GNRMC,182453.000,2,.,99,$GNGGA,182454.000,3429.7280,N,11657.5594,W,2,16,0.63,872.3,M,-31.0,M,,*46\r`\r\n"2022-04-09 18:24:56
"||||||||||||-43,6969,$ACCEL,9.52,-2.60,0.03,$ALT,874.49,-269.97B\u0001\r\n"2022-04-09 18:24:57
"||||||||||||-43,6969,$GNRMC,182454.000407W1,,\r$GNGGA,182455.000,3429.7280,N,11657.5594,W,2,16,0.63,872.3,M,-31.0,M,,*47\r`\r\n"2022-04-09 18:24:57
"||||||||||||-43,6969,$ACCEL,9.53,-2.61,0.05,$ALT,874.63,-270.01B\u0001\r\n"2022-04-09 18:24:58
"||||||||||||-43,6969,$GNRMC,182455.00,7190326$GNGGA,182456.000,3429.7280,N,11657.5594,W,2,16,0.63,872.3,M,-31.0,M,,*44\r\r\n"2022-04-09 18:24:58
"||||||||||||-43,6969,$ACCEL,9.52,-2.59,0.06,$ALT,874.64,-270.023429.7280,N,11657.5594,W,2,16,0.63,872.3,M,-31.0,M,,*44\r\r\n"2022-04-09 18:24:59
"||||||||||||-43,6969,$GNRMC,182456.00,2196626$GNGGA,182457.000,3429.7280,N,11657.5594,W,2,17,0.63,872.3,M,-31.0,M,,*44\r\r\n"2022-04-09 18:24:59
"||||||||||||-42,6969,$ACCEL,9.52,-2.59,0.06,$ALT,874.67,-270.02B\u0001\r\n"2022-04-09 18:25:00
"||||||||||||-42,6969,$GNRMC,182457.000,9N.060,$GNGGA,182458.000,3429.7280,N,11657.5594,W,2,16,0.63,872.3,M,-31.0,M,,*4A\r`\r\n"2022-04-09 18:25:00
"||||||||||||-43,6969,$ACCEL,9.52,-2.59,0.06,$ALT,874.66,-270.01\r\n"2022-04-09 18:25:00
"||||||||||||-42,6969,$GNRMC,182458.0002,7W99,ALT,874.66,-270\r\n"2022-04-09 18:25:01
"||||||||||||-43,6969,$ACCEL,9.53,-2.57,0.08,$ALT,874.64,-270.01B\u0001\r\n"2022-04-09 18:25:01
"||||||||||||-43,6969,$GNRMC,182459.00,2190622$GNGGA,182500.000,3429.7279,N,11657.5594,W,2,17,0.61,872.3,M,-31.0,M,,*43\r\r\n"2022-04-09 18:25:02
"||||||||||||-43,6969,$ACCEL,9.52,-2.59,0.06,$ALT,874.61,-270.003429.7279,N,11657.5594,W,2,17,0.61,872.3,M,-31.0,M,,*43\r\r\n"2022-04-09 18:25:03
"||||||||||||-42,6969,$GNRMC,182500.00037190626$GNGGA,182501.000,3429.7279,N,11657.5594,W,2,17,0.61,872.3,M,-31.0,M,,*42\r`\r\n"2022-04-09 18:25:03
"||||||||||||-43,6969,$ACCEL,9.52,-2.60,0.08,$ALT,874.47,-269.95B\u0001\r\n"2022-04-09 18:25:05
"||||||||||||-42,6969,$GNRMC,182501.00049648,,\r$GNGGA,182502.000,3429.7279,N,11657.5594,W,2,17,0.61,872.3,M,-,\rC2,215..4*$GNGGA,182503.000,3 \r\n"2022-04-09 18:25:05
"||||||||||||-43,6969,$GNRMC,182503.000,A,34715..4*$GNGGA,182504.000,3429.7279,N,11657.5593,W,2,17,0.61,872.3,M,-31.0,M,,*40\r@B\u000f\r\n"2022-04-09 18:25:06
"||||||||||||-43,6969,$ACCEL,9.53,-2.59,0.09,$ALT,874.49,-269.97B\u0001\r\n"2022-04-09 18:25:07
"||||||||||||-44,6969,$GNRMC,182504.000495,,62A$GNGGA,182505.000,3429.7279,N,11657.5593,W,2,17,0.61,872.3,M,-31.0,M,,*41\r`\r\n"2022-04-09 18:25:07
"||||||||||||-44,6969,$ACCEL,9.52,-2.60,0.08,$ALT,874.44,-269.94\r\n"2022-04-09 18:25:08
"||||||||||||-45,6969,$GNRMC,182505.00,215..4*$GNGGA,182506.000,3429.7279,N,11657.5593,W,2,16,0.63,872.3,M,-31.0,M,,*41\r\r\n"2022-04-09 18:25:08
"||||||||||||-45,6969,$ACCEL,9.52,-2.61,0.08,$ALT,874.44,-269.95B\u0001\r\n"2022-04-09 18:25:09
"||||||||||||-44,6969,$GNRMC,182506.000,A,3429.7279,N,11657.5593,W,0$GNGGA,182507.000,3429.7279,N,11657.5593,W,2,16,0.63,872.3,M,-31.0,M,,*4 \r\n"2022-04-09 18:25:09
"||||||||||||-47,6969,$ACCEL,9.51,-2.60,0.09,$ALT,874.49,-269.96,W,0$GNGGA,182507.000,3429.7279,N,11657.5593,W,2,16,0.63,872.3,M,-31.0,M,,*4 \r\n"2022-04-09 18:25:10
"||||||||||||-45,6969,$GNRMC,182507.000,A,3429.7279$GNGGA,182508.000,3429.7279,N,11657.5593,W,2,16,0.63,872.3,M,-31.0,M,,*4F\r\r\n"2022-04-09 18:25:10
"||||||||||||-43,6969,$ACCEL,9.52,-2.60,0.10,$ALT,874.55,-269.98.000,3429.7279,N,11657.5593,W,2,16,0.63,872.3,M,-31.0,M,,*4F\r\r\n"2022-04-09 18:25:11
"||||||||||||-44,6969,$GNRMC,182508.000,A,3429.$GNGGA,182509.000,3429.7278,N,11657.5593,W,2,17,0.61,872.3,M,-31.0,M,,*4C\r`\r\n"2022-04-09 18:25:11
"||||||||||||-44,6969,$ACCEL,9.52,-2.61,0.08,$ALT,874.53,-269.97,3429.7278,N,11657.5593,W,2,17,0.61,872.3,M,-31.0,M,,*4C\r`\r\n"2022-04-09 18:25:12
"||||||||||||-44,6969,$GNRMC,182509.000,A,3429$GNGGA,182510.000,3429.7278,N,11657.5592,W,2,17,0.61,872.3,M,-31.0,M,,*45\r\r\n"2022-04-09 18:25:12
"||||||||||||-45,6969,$ACCEL,9.52,-2.60,0.08,$ALT,874.51,-269.973429.7278,N,11657.5592,W,2,17,0.61,872.3,M,-31.0,M,,*45\r\r\n"2022-04-09 18:25:13
"||||||||||||-44,6969,$GNRMC,182510.000,A,3429.72785,,,,0$GNGGA,182511.000,3429.7278,N,11657.5592,W,2,17,0.61,872.3,M,-31.0,M,,*44\r\r\n"2022-04-09 18:25:13
"||||||||||||-45,6969,$ACCEL,9.52,-2.60,0.08,$ALT,874.57,-269.98\r\n"2022-04-09 18:25:14
"||||||||||||-44,6969,$GNRMC,18251,715..4*$GNGGA,182512.000,3429.7278,N,11657.5592,W,2,16,0.63,872.3,M,-31.0,M,,*44\r\r\n"2022-04-09 18:25:14
"||||||||||||-44,6969,$ACCEL,9.54,-2.60,0.08,$ALT,874.56,-269.98.7278,N,11657.5592,W,2,16,0.63,872.3,M,-31.0,M,,*44\r\r\n"2022-04-09 18:25:15
"||||||||||||-44,6969,$GNRMC,182512.00.,5069,$GNGGA,182513.000,3429.7278,N,11657.5592,W,2,17,0.61,872.3,M,-31.0,M,,*46\r\r\n"2022-04-09 18:25:15
"||||||||||||-43,6969,$ACCEL,9.52,-2.60,0.08,$ALT,874.52,-269.96\r\n"2022-04-09 18:25:16
"||||||||||||-44,6969,$GNRMC,182513.000,.,.,99,$GNGGA,182514.000,3429.7278,N,11657.5592,W,2,17,0.61,872.3,M,-31.0,M,,*41\r,\u0001\r\n"2022-04-09 18:25:16
"||||||||||||-43,6969,$ACCEL,9.52,-2.59,0.08,$ALT,874.55,-269.97\r\n"2022-04-09 18:25:17
"||||||||||||-43,6969,$GNRMC,182514.0004,7W10,\r$GNGGA,182515.000,3429.7277,N,11657.5591,W,2,17,0.61,872.3,M,-31.0,M,,*4C\r,\u0001\r\n"2022-04-09 18:25:17
"||||||||||||-43,6969,$ACCEL,9.52,-2.59,0.10,$ALT,874.40,-269.93,3429.7277,N,11657.5591,W,2,17,0.61,872.3,M,-31.0,M,,*4C\r,\u0001\r\n"2022-04-09 18:25:18
"||||||||||||-42,6969,$GNRMC,182515,.,.,60D$GNGGA,182516.000,3429.7277,N,11657.5591,W,2,17,0.61,872.3,M,-31.0,M,,*4F\r*4C\r,\u0001\r\n"2022-04-09 18:25:18
"||||||||||||-43,6969,$ACCEL,9.52,-2.59,0.08,$ALT,874.25,-269.889.7277,N,11657.5591,W,2,17,0.61,872.3,M,-31.0,M,,*4F\r*4C\r,\u0001\r\n"2022-04-09 18:25:19
"||||||||||||-42,6969,$GNRMC,182516.000,A.,5..4*$GNGGA,182517.000,3429.7277,N,11657.5591,W,2,17,0.61,872.3,M,-31.0,M,,*4E\r\u0001\r\n"2022-04-09 18:25:19
"||||||||||||-43,6969,$ACCEL,9.53,-2.60,0.08,$ALT,874.24,-269.870,3429.7277,N,11657.5591,W,2,17,0.61,872.3,M,-31.0,M,,*4E\r\u0001\r\n"2022-04-09 18:25:20
"||||||||||||-43,6969,$GNRMC,182517.000,476W,,,\r$GNGGA,182518.000,3429.7277,N,11657.5591,W,2,17,0.61,872.3,M,-31.0,M,,*41\r\u0001\r\n"2022-04-09 18:25:20
"||||||||||||-42,6969,$ACCEL,9.53,-2.59,0.08,$ALT,874.27,-269.88B\u0001\r\n"2022-04-09 18:25:21
"||||||||||||-43,6969,$GNRMC,182518.00A7150326$GNGGA,182519.000,3429.7277,N,11657.5591,W,2,17,0.61,872.2,M,-31.0,M,,*41\r\r\n"2022-04-09 18:25:21
"||||||||||||-42,6969,$ACCEL,9.51,-2.60,0.08,$ALT,874.35,-269.913429.7277,N,11657.5591,W,2,17,0.61,872.2,M,-31.0,M,,*41\r\r\n"2022-04-09 18:25:22
"||||||||||||-41,6969,$GNRMC,182519.0003761,,25$GNGGA,182520.000,3429.7277,N,11657.5590,W,2,17,0.61,872.2,M,-31.0,M,,*4A\r`\r\n"2022-04-09 18:25:22
"||||||||||||-42,6969,$ACCEL,9.51,-2.60,0.08,$ALT,874.24,-269.87,3429.7277,N,11657.5590,W,2,17,0.61,872.2,M,-31.0,M,,*4A\r`\r\n"2022-04-09 18:25:22
"||||||||||||-41,6969,$GNRMC,182520.000475,10,ALT,874.24,-269.87,3429.7277,N,11657.5590,W,2,17,0.61,872.2,M,-31.0,M,,*4A\r`\r\n"2022-04-09 18:25:22
"||||||||||||-43,6969,$ACCEL,9.52,-2.60,0.09,$ALT,874.21,-269.86B\u0001\r\n"2022-04-09 18:25:23
"||||||||||||-43,6969,$ACCEL,9.52,-2.59,0.09,$ALT,874.22,-269.86B\u0001\r\n"2022-04-09 18:25:24
"||||||||||||-42,6969,$GNRMC,182521.0047608,,\r$GNGGA,182522.000,3429.7277,N,11657.5590,W,2,17,0.61,872.1,M,-31.0,M,,*4B\r\r\n"2022-04-09 18:25:24
"||||||||||||-42,6969,$ACCEL,9.52,-2.59,0.09,$ALT,873.92,-269.763429.7277,N,11657.5590,W,2,17,0.61,872.1,M,-31.0,M,,*4B\r\r\n"2022-04-09 18:25:25
"||||||||||||-42,6969,$GNRMC,182522.000,4760,,,\r$GNGGA,182523.000,3429.7277,N,11657.5590,W,2,16,0.64,872.1,M,-31.0,M,,*4E\r\r\n"2022-04-09 18:25:25
"||||||||||||-42,6969,$ACCEL,9.52,-2.59,0.08,$ALT,874.12,-269.83B\u0001\r\n"2022-04-09 18:25:26
"||||||||||||-41,6969,$GNRMC,182523.0,2190.26$GNGGA,182524.000,3429.7277,N,11657.5590,W,2,17,0.61,872.0,M,-30CR5,.,5,99,$GNGGA,182525.000,34 \r\n"2022-04-09 18:25:27
"||||||||||||-42,6969,$GNRMC,182525.000,A,342215..4*$GNGGA,182526.000,3429.7277,N,11657.5590,W,2,16,0.63,872.0,M,-31.0,M,,*4D\r\r\n"2022-04-09 18:25:28
"||||||||||||-42,6969,$ACCEL,9.52,-2.60,0.08,$ALT,874.13,-269.816.000,3429.7277,N,11657.5590,W,2,16,0.63,872.0,M,-31.0,M,,*4D\r\r\n"2022-04-09 18:25:28
"||||||||||||-42,6969,$GNRMC,182526.09N.,10,,$ALT,874.13,-269\r\n"2022-04-09 18:25:28
"||||||||||||-44,6969,$ACCEL,9.51,-2.60,0.07,$ALT,874.04,-269.79B\u0001\r\n"2022-04-09 18:25:29
"||||||||||||-42,6969,$GNRMC,182528.000,A,3429.7276,N,11657.5589,W,0.$GNGGA,182529.000,3429.7276,N,11657.5589,W,2,15,0.66,871.9,M,-31.0,M,,* \r\n"2022-04-09 18:25:31
"||||||||||||-42,6969,$ACCEL,9.51,-2.60,0.09,$ALT,873.97,-269.77B\u0001\r\n"2022-04-09 18:25:33
"||||||||||||-42,6969,$GNRMC,182529.000,A,3429.7276,$GNGGA,182530.000,3429.7276,N,11657.5589,W,2,17,0.61,871.8,M,-31.0,M,,*4\rC0,215..4*$GNGG \r\n"2022-04-09 18:25:33
"||||||||||||-42,6969,$ACCEL,9.51,-2.59,0.07,$ALT,874.08,-269.82\r\n"2022-04-09 18:25:34
"||||||||||||-42,6969,$GNRMC,182532.000,A,34.,5,99,$GNGGA,182533.000,3429.7276,N,11657.5588,W,2,17,0.61,871.7,M,-31.0,M,,*46\r\r\n"2022-04-09 18:25:34
"||||||||||||-41,6969,$ACCEL,9.52,-2.60,0.08,$ALT,873.79,-269.73.000,3429.7276,N,11657.5588,W,2,17,0.61,871.7,M,-31.0,M,,*46\r\r\n"2022-04-09 18:25:35
"||||||||||||-41,6969,$GNRMC,18253A715060D$GNGGA,182534.000,3429.7276,N,11657.5588,W,2,16,0.63,871.7,M,-31.0,M,,*42\r0,M,,*46\r\r\n"2022-04-09 18:25:35
"||||||||||||-42,6969,$ACCEL,9.51,-2.60,0.08,$ALT,874.15,-269.84.7276,N,11657.5588,W,2,16,0.63,871.7,M,-31.0,M,,*42\r0,M,,*46\r\r\n"2022-04-09 18:25:36
"||||||||||||-42,6969,$GNRMC,182534.000,A,3429.7276,N,11657.5588,W,0.09,196.36,090422,,$GNGGA,182535.000,3429.7276,N,11657.5588,W,2,16,0.63,\r\n"2022-04-09 18:25:37
"||||||||||||-43,6969,$ACCEL,9.53,-2.60,0.08,$ALT,874.12,-269.83,W,0.09,196.36,090422,,$GNGGA,182535.000,3429.7276,N,11657.5588,W,2,16,0.63,\r\n"2022-04-09 18:25:37
"||||||||||||-42,6969,$GNRMC,1825.37181625$GNGGA,182536.000,3429.7276,N,11657.5587,W,2,17,0.61,871.6,M,-31.0,M,,*4D\r\r\n"2022-04-09 18:25:38
"||||||||||||-42,6969,$ACCEL,9.52,-2.61,0.09,$ALT,874.14,-269.83.7276,N,11657.5587,W,2,17,0.61,871.6,M,-31.0,M,,*4D\r\r\n"2022-04-09 18:25:38
"||||||||||||-43,6969,$GNRMC,182536.000,A67,62E$GNGGA,182537.000,3429.7275,N,11657.5587,W,2,16,0.63,871.6,M,-31.0,M,,*4C\r`\r\n"2022-04-09 18:25:39
"||||||||||||-43,6969,$ACCEL,9.52,-2.61,0.09,$ALT,874.22,-269.86,3429.7275,N,11657.5587,W,2,16,0.63,871.6,M,-31.0,M,,*4C\r`\r\n"2022-04-09 18:25:39
"||||||||||||-43,6969,$GNRMC,182537.000,A257W10,T,874.22,-269\r\n"2022-04-09 18:25:39
"||||||||||||-42,6969,$ACCEL,9.51,-2.60,0.09,$ALT,874.10,-269.83B\u0001\r\n"2022-04-09 18:25:40
"||||||||||||-42,6969,$GNRMC,182538.000,A,3429.7275,N,11657.5587,W,0.07,19$GNGGA,182539.000,3429.7275,N,11657.5587,W,2,17,0.61,871.5,M,-31.0\r\n"2022-04-09 18:25:41
"||||||||||||-43,6969,$ACCEL,9.53,-2.61,0.08,$ALT,874.02,-269.80B\u0001\r\n"2022-04-09 18:25:42
"||||||||||||-43,6969,$GNRMC,182539.000,A,$GNGGA,182540.000,3429.7275,N,11657.5587,W,2,16,0.63,871.5,M,-31.0,M,,*4F\r\r\n"2022-04-09 18:25:42
"||||||||||||-42,6969,$ACCEL,9.53,-2.60,0.07,$ALT,874.15,-269.84B\u0001\r\n"2022-04-09 18:25:43
"||||||||||||-43,6969,$GNRMC,182540.000,A,3429.$GNGGA,182541.000,3429.7275,N,11657.5586,W,2,16,0.63,871.5,M,-31.0,M,,*4F\r`\r\n"2022-04-09 18:25:43
"||||||||||||-42,6969,$ACCEL,9.52,-2.60,0.09,$ALT,874.08,-269.81B\u0001\r\n"2022-04-09 18:25:44
"||||||||||||-42,6969,$GM4A715060D$GNGGA,182542.000,3429.7275,N,11657.5586,W,2,16,0.63,871.6,M,-31.0,M,,*4F\r \u0001\r\n"2022-04-09 18:25:44
"||||||||||||-41,6969,$ACCEL,9.52,-2.60,0.08,$ALT,874.17,-269.84B\u0001\r\n"2022-04-09 18:25:45
"||||||||||||-42,6969,$GNRMC,182542.000,A,34255,9621$GNGGA,182543.000,3429.7275,N,11657.5586,W,2,16,0.63,871.6,M,-31.0,M,,*4E\rB\u000f\r\n"2022-04-09 18:25:45
"||||||||||||-43,6969,$ACCEL,9.52,-2.60,0.08,$ALT,874.09,-269.813.000,3429.7275,N,11657.5586,W,2,16,0.63,871.6,M,-31.0,M,,*4E\rB\u000f\r\n"2022-04-09 18:25:45
"||||||||||||-43,6969,$GNRMC,182543,.N.,99,8,$ALT,874.09,-269\r\n"2022-04-09 18:25:45
"||||||||||||-43,6969,$ACCEL,9.52,-2.60,0.09,$ALT,873.72,-269.69B\u0001\r\n"2022-04-09 18:25:46
"||||||||||||-42,6969,$GNGGA,182544.000,3429.7275,N,11657.5586,W,2,16,0.63,871.6,M,-31.0,M,,*49\r\r\n"2022-04-09 18:25:46
"||||||||||||-43,6969,$ACCEL,9.53,-2.59,0.09,$ALT,874.00,-269.78,2,16,0.63,871.6,M,-31.0,M,,*49\r\r\n"2022-04-09 18:25:47
"||||||||||||-43,6969,$GNRMC,182544.000A.,5060,$GNGGA,182545.000,3429.7275,N,11657.5586,W,2,16,0.63,871.7,M,-31.0,M,,*49\r`\r\n"2022-04-09 18:25:47
"||||||||||||-42,6969,$ACCEL,9.52,-2.60,0.09,$ALT,874.07,-269.79,3429.7275,N,11657.5586,W,2,16,0.63,871.7,M,-31.0,M,,*49\r`\r\n"2022-04-09 18:25:48
"||||||||||||-44,6969,$GNRMC,182545.00,.,.,99,$GNGGA,182546.000,3429.7275,N,11657.5586,W,2,16,0.63,871.6,M,-31.0,M,,*4B\r\r`\r\n"2022-04-09 18:25:48
"||||||||||||-43,6969,$ACCEL,9.52,-2.61,0.09,$ALT,874.30,-269.883429.7275,N,11657.5586,W,2,16,0.63,871.6,M,-31.0,M,,*4B\r\r`\r\n"2022-04-09 18:25:49
"||||||||||||-42,6969,$GNRMC,182546.000,A,37665626$GNGGA,182547.000,3429.7275,N,11657.5586,W,2,16,0.63,871.6,0AM4,.,5060,$GNGGA,182548.000,3 \r\n"2022-04-09 18:25:50
"||||||||||||-43,6969,$ACCEL,9.52,-2.60,0.07,$ALT,874.37,-269.89000,3429.7275,N,11657.5586,W,2,16,0.63,871.6,0AM4,.,5060,$GNGGA,182548.000,3 \r\n"2022-04-09 18:25:50
"||||||||||||-43,6969,$GNRMC,182548.000,A,3429715..4D$GNGGA,182549.000,3429.7275,N,11657.5586,W,2,16,0.63,871.6,M,-31.0,M,,*44\r\r\n"2022-04-09 18:25:51
"||||||||||||-42,6969,$ACCEL,9.52,-2.61,0.08,$ALT,874.55,-269.94B\u0001\r\n"2022-04-09 18:25:51
"||||||||||||-43,6969,$GNRMC,182549.00255,,,,\r$GNGGA,182550.000,3429.7275,N,11657.5586,W,2,16,0.64,871.6,M,-31.0,M,,*4B\r\r\n"2022-04-09 18:25:52
"||||||||||||-42,6969,$ACCEL,9.51,-2.61,0.09,$ALT,874.58,-269.943429.7275,N,11657.5586,W,2,16,0.64,871.6,M,-31.0,M,,*4B\r\r\n"2022-04-09 18:25:52
"||||||||||||-42,6969,$GNRMC,182550.0037660326$GNGGA,182551.000,3429.7275,N,11657.5586,W,2,16,0.63,871.6,M,-31.0,M,,*4D\r\r\n"2022-04-09 18:25:53
"||||||||||||-41,6969,$ACCEL,9.52,-2.61,0.08,$ALT,874.53,-269.933429.7275,N,11657.5586,W,2,16,0.63,871.6,M,-31.0,M,,*4D\r\r\n"2022-04-09 18:25:54
"||||||||||||-43,6969,$GNRMC,182551.000,A,3429.7275,N,11657.5586,W,$GNGGA,182552.000,3429.7275,N,11657.5586,W,2,16,0.63,871.7,M,-31.0,M,,*4F \r\n"2022-04-09 18:25:54
"||||||||||||-43,6969,$ACCEL,9.52,-2.59,0.07,$ALT,874.48,-269.92B\u0001\r\n"2022-04-09 18:25:55
"||||||||||||-43,6969,$GNRMC,182552.000,A,3429.7275,N$GNGGA,182553.000,3429.7275,N,11657.5586,W,2,16,0.63,871.7,M,-31.0,M,,*4E\r\r\n"2022-04-09 18:25:55
"||||||||||||-43,6969,$ACCEL,9.52,-2.60,0.07,$ALT,874.05,-269.78\r\n"2022-04-09 18:25:56
"||||||||||||-43,6969,$GNRMC,182553.000,A,3429$GNGGA,182554.000,3429.7275,N,11657.5586,W,2,16,0.63,871.7,M,-31.0,M,,*49\r\r\n"2022-04-09 18:25:56
"||||||||||||-45,6969,$ACCEL,9.51,-2.60,0.08,$ALT,874.38,-269.883429.7275,N,11657.5586,W,2,16,0.63,871.7,M,-31.0,M,,*49\r\r\n"2022-04-09 18:25:57
"||||||||||||-42,6969,$GNRMC,182554.000,A,3429$GNGGA,182555.000,3429.7275,N,11657.5586,W,2,16,0.63,871.7,M,-31.0,M,,*48\r\r\n"2022-04-09 18:25:57
"||||||||||||-43,6969,$ACCEL,9.51,-2.60,0.08,$ALT,874.55,-269.923429.7275,N,11657.5586,W,2,16,0.63,871.7,M,-31.0,M,,*48\r\r\n"2022-04-09 18:25:57
"||||||||||||-43,6969,$GNRMC,182555.000,A,3429.72N.,99,5,-269.923429.7275,N,11657.5586,W,2,16,0.63,871.7,M,-31.0,M,,*48\r\r\n"2022-04-09 18:25:57
"||||||||||||-42,6969,$ACCEL,9.52,-2.60,0.08,$ALT,874.56,-269.953429.7275,N,11657.5586,W,2,16,0.63,871.7,M,-31.0,M,,*48\r\r\n"2022-04-09 18:25:58
"||||||||||||-43,6969,$GNGGA,182556.000,3429.7275,N,11657.5586,W,2,15,0.66,871.7,M,-31.0,M,,*4D\r63,871.7,M,-31.0,M,,*48\r\r\n"2022-04-09 18:25:58
"||||||||||||-40,6969,$ACCEL,9.51,-2.61,0.07,$ALT,874.61,-269.94,2,15,0.66,871.7,M,-31.0,M,,*4D\r63,871.7,M,-31.0,M,,*48\r\r\n"2022-04-09 18:25:59
"||||||||||||-40,6969,$GNRMC,1825.37180326$GNGGA,182557.000,3429.7275,N,11657.5586,W,2,16,0.63,871.7,M,-31.0,M,,*4A\r\r\n"2022-04-09 18:25:59
"||||||||||||-40,6969,$ACCEL,9.51,-2.61,0.08,$ALT,874.65,-269.97B\u0001\r\n"2022-04-09 18:26:00
"||||||||||||-40,6969,$GNRMC,182557.0,218..4*$GNGGA,182558.000,3429.7275,N,11657.5586,W,2,16,0.63,871.7,M,-31.0,M,,*45\r\r\n"2022-04-09 18:26:00
"||||||||||||-42,6969,$ACCEL,9.50,-2.69,0.28,$ALT,874.70,-269.98429.7275,N,11657.5586,W,2,16,0.63,871.7,M,-31.0,M,,*45\r\r\n"2022-04-09 18:26:01
"||||||||||||-41,6969,$GNRMC,182558.000A7,5060D$GNGGA,182559.000,3429.7275,N,11657.5586,W,2,16,0.63,871.7,.*N209N.W10,\r\r\n"2022-04-09 18:26:01
"||||||||||||-41,6969,$ACCEL,9.52,-2.61,0.09,$ALT,874.75,-270.00B\u0001\r\n"2022-04-09 18:26:02
"||||||||||||-41,6969,$ACCEL,9.52,-2.61,0.10,$ALT,874.71,-269.98\r\n"2022-04-09 18:26:03
"||||||||||||-42,6969,$GNRMC,182600.000,A,342180.4*$GNGGA,182601.000,3429.7275,N,11657.5586,W,2,16,0.63,871.7,M,-31.0,M,,*4A\r@B\u000f\r\n"2022-04-09 18:26:03
"||||||||||||-42,6969,$ACCEL,9.52,-2.60,0.09,$ALT,874.51,-269.91.000,3429.7275,N,11657.5586,W,2,16,0.63,871.7,M,-31.0,M,,*4A\r@B\u000f\r\n"2022-04-09 18:26:04
"||||||||||||-42,6969,$GNRMC,182601.000,,715..4D$GNGGA,182602.000,3429.7275,N,11657.5586,W,2,16,0.64,871.7,M,-31.0,M,,*4E\r\u0001\r\n"2022-04-09 18:26:04
"||||||||||||-41,6969,$ACCEL,9.53,-2.59,0.09,$ALT,874.34,-269.860,3429.7275,N,11657.5586,W,2,16,0.64,871.7,M,-31.0,M,,*4E\r\u0001\r\n"2022-04-09 18:26:05
"||||||||||||-42,6969,$GNRMC,182602.0004556162E$GNGGA,182603.000,3429.7275,N,11657.5586,W,2,16,0.63,871.7,M,-31.0,M,,*48\r\r\u0001\r\n"2022-04-09 18:26:05
"||||||||||||-41,6969,$ACCEL,9.51,-2.61,0.08,$ALT,874.55,-269.92,3429.7275,N,11657.5586,W,2,16,0.63,871.7,M,-31.0,M,,*48\r\r\u0001\r\n"2022-04-09 18:26:06
"||||||||||||-42,6969,$GNRMC,182603.000,218032*$GNGGA,182604.000,3429.7275,N,11657.5586,W,2,16,0.63,871.7,M,-31.0,M,,*4F\r\r\u0001\r\n"2022-04-09 18:26:06
"||||||||||||-41,6969,$ACCEL,9.52,-2.60,0.10,$ALT,874.52,-269.91B\u0001\r\n"2022-04-09 18:26:07
"||||||||||||-42,6969,$GNRMC,182604.000,A,349N7W10,$GNGGA,182605.000,3429.7275,N,11657.5587,W,2,16,0.63,871.7,M,-31.0,M,,*4F\r\r\n"2022-04-09 18:26:07
"||||||||||||-42,6969,$ACCEL,9.52,-2.60,0.10,$ALT,874.69,-269.97B\u0001\r\n"2022-04-09 18:26:08
"||||||||||||-42,6969,$GNRMC,182605.00,.,5069,$GNGGA,182606.000,3429.7275,N,11657.5587,W,2,16,0.63,871.8,M,-31.0,M,,*43\r\r\n"2022-04-09 18:26:08
"||||||||||||-42,6969,$ACCEL,9.52,-2.60,0.08,$ALT,874.67,-269.96\r\n"2022-04-09 18:26:09
"||||||||||||-42,6969,$GNRMC,182606.00037670326$GNGGA,182607.000,3429.7275,N,11657.5587,W,2,16,0.64,871.8,M,-31.0,M,,*45\r,\u0001\r\n"2022-04-09 18:26:09
"||||||||||||-41,6969,$ACCEL,9.52,-2.60,0.08,$ALT,874.54,-269.92,3429.7275,N,11657.5587,W,2,16,0.64,871.8,M,-31.0,M,,*45\r,\u0001\r\n"2022-04-09 18:26:10
"||||||||||||-41,6969,$GNRMC,182607.00,715..4*$GNGGA,182608.000,3429.7275,N,11657.5587,W,2,16,0.63,871.8,M,-31.0,M,,*4D\r\r\n"2022-04-09 18:26:10
"||||||||||||-41,6969,$ACCEL,9.52,-2.60,0.08,$ALT,874.67,-269.953429.7275,N,11657.5587,W,2,16,0.63,871.8,M,-31.0,M,,*4D\r\r\n"2022-04-09 18:26:10
"||||||||||||-42,6969,$GNRMC,182608.0009N7W10,ALT,874.67,-269.953429.7275,N,11657.5587,W,2,16,0.63,871.8,M,-31.0,M,,*4D\r\r\n"2022-04-09 18:26:10
"||||||||||||-41,6969,$ACCEL,9.52,-2.60,0.08,$ALT,874.66,-269.96B\u0001\r\n"2022-04-09 18:26:11
"||||||||||||-42,6969,$ACCEL,9.53,-2.61,0.08,$ALT,874.68,-269.96B\u0001\r\n"2022-04-09 18:26:12
"||||||||||||-42,6969,$GNRMC,182609.02,7W10,\r$GNGGA,182610.000,3429.7275,N,11657.5587,W,2,16,0.63,871.8,M,-31.0,M,,*44\r\r\n"2022-04-09 18:26:12
"||||||||||||-42,6969,$ACCEL,9.52,-2.60,0.10,$ALT,874.53,-269.92429.7275,N,11657.5587,W,2,16,0.63,871.8,M,-31.0,M,,*44\r\r\n"2022-04-09 18:26:13
"||||||||||||-41,6969,$GNRMC,182610.00,2180.4*$GNGGA,182611.000,3429.7275,N,11657.5587,W,2,16,0.63,871.8,M,-31.0,M,,*45\r\r\n"2022-04-09 18:26:13
"||||||||||||-41,6969,$ACCEL,9.52,-2.60,0.10,$ALT,874.43,-269.87B\u0001\r\n"2022-04-09 18:26:13
"||||||||||||-40,6969,$GNRMC,182611.00,9N.,99,ALT,874.43,-269.87B\u0001\r\n"2022-04-09 18:26:13
"||||||||||||-40,6969,$ACCEL,9.51,-2.60,0.11,$ALT,874.47,-269.90B\u0001\r\n"2022-04-09 18:26:14
"||||||||||||-39,6969,$GNGGA,182612.000,3429.7275,N,11657.5587,W,2,16,0.63,871.8,M,.4R209N.,90,\r\n"2022-04-09 18:26:14
"||||||||||||-40,6969,$ACCEL,9.51,-2.60,0.11,$ALT,874.40,-269.87,2,16,0.63,871.8,M,.4R209N.,90,\r\n"2022-04-09 18:26:15
"||||||||||||-40,6969,$ACCEL,9.52,-2.62,0.09,$ALT,874.54,-269.91\r\n"2022-04-09 18:26:16
"||||||||||||-40,6969,$GNRMC,182613.000,A,347672326$GNGGA,182614.000,3429.7275,N,11657.5587,W,2,16,0.63,871.8,M,-31.0,M,,*40\r@B\u000f\r\n"2022-04-09 18:26:16
"||||||||||||-39,6969,$ACCEL,9.53,-2.61,0.07,$ALT,874.42,-269.87B\u0001\r\n"2022-04-09 18:26:17
"||||||||||||-39,6969,$GNRMC,182614.0004557262B$GNGGA,182615.000,3429.7275,N,11657.5587,W,2,16,0.63,871.8,M,-31.0,M,,*60,$GNGGA,182616.000,3 \r\n"2022-04-09 18:26:17
"||||||||||||-40,6969,$ACCEL,9.51,-2.61,0.09,$ALT,874.43,-269.87,3429.7275,N,11657.5587,W,2,16,0.63,871.8,M,-31.0,M,,*60,$GNGGA,182616.000,3 \r\n"2022-04-09 18:26:18
"||||||||||||-40,6969,$GNRMC,182616.000,A,3429N.,99,4.43,-269\r\n"2022-04-09 18:26:18
"||||||||||||-40,6969,$ACCEL,9.51,-2.61,0.09,$ALT,874.48,-269.89\r\n"2022-04-09 18:26:18
"||||||||||||-40,6969,$GNGGA,182617.000,3429.7275,N,11657.5587,W,2,16,0.64,871.8,M,-31.0,M,,*44\r\r\n"2022-04-09 18:26:18
"||||||||||||-40,6969,$ACCEL,9.53,-2.61,0.08,$ALT,874.42,-269.88,2,16,0.64,871.8,M,-31.0,M,,*44\r\r\n"2022-04-09 18:26:19
"||||||||||||-39,6969,$GNRMC,182617.000,A,34715..4D$GNGGA,182618.000,3429.7275,N,11657.5587,W,2,16,0.63,871.8,M,-31.0,M,,*4C\r\r\n"2022-04-09 18:26:20
"||||||||||||-39,6969,$ACCEL,9.52,-2.61,0.09,$ALT,874.73,-269.96.000,3429.7275,N,11657.5587,W,2,16,0.63,871.8,M,-31.0,M,,*4C\r\r\n"2022-04-09 18:26:20
"||||||||||||-40,6969,$GNRMC,182618.00A715..0D$GNGGA,182619.000,3429.7275,N,11657.5587,W,2,16,0.63,871.8,M,-31.0,M,,*4D\r\r\n"2022-04-09 18:26:21
"||||||||||||-40,6969,$ACCEL,9.52,-2.61,0.09,$ALT,875.08,-270.07B\u0001\r\n"2022-04-09 18:26:21
"||||||||||||-40,6969,$GNRMC,182619.000,A,3429.7275,N,11657.55$GNGGA,182620.000,3429.7275,N,11657.5587,W,2,15,0.68,871.8,M,-31.0,M,,*4F\r\r\n"2022-04-09 18:26:22
"||||||||||||-41,6969,$ACCEL,9.52,-2.59,0.09,$ALT,876.03,-270.37B\u0001\r\n"2022-04-09 18:26:22
"||||||||||||-40,6969,$GNRMC,182602,7,,,,\r$GNGGA,182621.000,3429.7275,N,11657.5587,W,2,15,0.68,871.9,M,-31.0,M,,*4F\r\r\n"2022-04-09 18:26:23
"||||||||||||-40,6969,$ACCEL,9.52,-2.57,0.07,$ALT,875.83,-270.31.7275,N,11657.5587,W,2,15,0.68,871.9,M,-31.0,M,,*4F\r\r\n"2022-04-09 18:26:23
"||||||||||||-40,6969,$GNRMC,182621.000,A,34218..4*$GNGGA,182622.000,3429.7275,N,11657.5587,W,2,16,0.64,871.9,M,-31.0,M,,*43\r@B\u000f\r\n"2022-04-09 18:26:24
"||||||||||||-41,6969,$ACCEL,9.52,-2.55,0.07,$ALT,875.59,-270.34.000,3429.7275,N,11657.5587,W,2,16,0.64,871.9,M,-31.0,M,,*43\r@B\u000f\r\n"2022-04-09 18:26:24
"||||||||||||-41,6969,$GNRMC,182622.00,.,.,99,$GNGGA,182623.000,3429.7275,N,11657.5587,W,2,17,0.61,871.9,M,-31.0,M,,*46\r\r\n"2022-04-09 18:26:25
"||||||||||||-48,6969,$ACCEL,9.52,-2.60,0.10,$ALT,875.09,-270.093429.7275,N,11657.5587,W,2,17,0.61,871.9,M,-31.0,M,,*46\r\r\n"2022-04-09 18:26:25
"||||||||||||-48,6969,$GNRMC,182623.000455,162C$GNGGA,182624.000,3429.7275,N,11657.5587,W,2,17,0.61,871.9,M,-31.0,M,,*41\r`\r\n"2022-04-09 18:26:26
"||||||||||||-47,6969,$ACCEL,9.51,-2.62,0.03,$ALT,874.86,-270.01,3429.7275,N,11657.5587,W,2,17,0.61,871.9,M,-31.0,M,,*41\r`\r\n"2022-04-09 18:26:26
"||||||||||||-47,6969,$GNRMC,182624.09N.,10,,$ALT,874.86,-270.01,3429.7275,N,11657.5587,W,2,17,0.61,871.9,M,-31.0,M,,*41\r`\r\n"2022-04-09 18:26:26
"||||||||||||-49,6969,$ACCEL,9.51,-2.62,0.03,$ALT,874.88,-270.02\r\n"2022-04-09 18:26:27
"||||||||||||-47,6969,$GNRMC,182625.0002,7W10,\r$GNGGA,182626.000,3429.7275,N,11657.5587,W,2,17,0.61,871.9,M,-31.0,M,,*43\r,\u0001\r\n"2022-04-09 18:26:28
"||||||||||||-45,6969,$ACCEL,9.43,-2.88,-0.41,$ALT,875.17,-270.083429.7275,N,11657.5587,W,2,17,0.61,871.9,M,-31.0,M,,*43\r,\u0001\r\n"2022-04-09 18:26:28
"||||||||||||-45,6969,$GNRMC,182626.09N7W10,1,$ALT,875.17,-270.083429.7275,N,11657.5587,W,2,17,0.61,871.9,M,-31.0,M,,*43\r,\u0001\r\n"2022-04-09 18:26:28
"||||||||||||-44,6969,$ACCEL,9.43,-2.88,-0.41,$ALT,875.21,-270.123429.7275,N,11657.5587,W,2,17,0.61,871.9,M,-31.0,M,,*43\r,\u0001\r\n"2022-04-09 18:26:29
"||||||||||||-43,6969,$GNRMC,182627.004567362A$GNGGA,182628.000,3429.7275,N,11657.5587,W,2,17,0.61,871.9,M,.4R6,9N.,99,\r\n"2022-04-09 18:26:30
"||||||||||||-43,6969,$ACCEL,9.43,-2.87,-0.43,$ALT,874.41,-269.87429.7275,N,11657.5587,W,2,17,0.61,871.9,M,.4R6,9N.,99,\r\n"2022-04-09 18:26:30
"||||||||||||-43,6969,$GNGGA,182629.000,3429.7275,N,11657.5588,W,2,17,0.61,871.9,M,-31.0,M,,*43\r61,871.9,M,.4R6,9N.,99,\r\n"2022-04-09 18:26:31
"||||||||||||-42,6969,$ACCEL,9.42,-2.87,-0.41,$ALT,874.67,-269.95\u0001\r\n"2022-04-09 18:26:32
"||||||||||||-42,6969,$GNRMC,182629.000,A,32,7W10,\r$GNGGA,182630.000,3429.7275,N,11657.5588,W,2,17,0.61,871.9,M,-31.0,M,,*4326$GNGGA,182631. \r\n"2022-04-09 18:26:32
"||||||||||||-43,6969,$ACCEL,9.42,-2.87,-0.41,$ALT,874.71,-269.94\u0005R\r\n"2022-04-09 18:26:34
"||||||||||||-43,6969,$GNRMC,182631.000,A,349N.,90,\r\n"2022-04-09 18:26:34
"||||||||||||-43,6969,$ACCEL,9.43,-2.88,-0.42,$ALT,874.75,-269.97\u0005R\r\n"2022-04-09 18:26:34
"||||||||||||-43,6969,$GNGGA,182632.000,3429.7275,N,11657.5588,W,2,17,0.61,871.9,M,-31.0,M,,*49\r\r\n"2022-04-09 18:26:34
"||||||||||||-43,6969,$ACCEL,9.43,-2.87,-0.42,$ALT,874.58,-269.922,17,0.61,871.9,M,-31.0,M,,*49\r\r\n"2022-04-09 18:26:35
