"Feather LoRa RX Test!\r\n"2022-06-04 17:47:11
"LoRa radio init OK!\r\n"2022-06-04 17:47:11
"Set Freq to: 915.00\r\n"2022-06-04 17:47:11
"||||||||||||-101,6969,$ACCEL,4.52,-0.35,-8.88,$ALT,659.24,-203.77\u0001\r\n"2022-06-04 17:47:11
"||||||||||||-102,6969,$GNRMC,174707.000,A,352$GNGGA,174708.000,3520.8634,N,11748.5476,W,2,15,0.71,630.2,M,-29.4,M,,*4F\r\r\n"2022-06-04 17:47:11
"||||||||||||-101,6969,$ACCEL,4.54,-0.35,-8.88,$ALT,659.53,-203.8720.8634,N,11748.5476,W,2,15,0.71,630.2,M,-29.4,M,,*4F\r\r\n"2022-06-04 17:47:12
"||||||||||||-100,6969,$GNRMC,174708.000,A,3520.86,8W24,$GNGGA,174709.000,3520.8634,N,11748.5476,W,2,15,0.71,630.3,M,-29.4,M,,*4F\r\r\n"2022-06-04 17:47:12
"||||||||||||-100,6969,$ACCEL,4.51,-0.36,-8.91,$ALT,659.42,-203.83709.000,3520.8634,N,11748.5476,W,2,15,0.71,630.3,M,-29.4,M,,*4F\r\r\n"2022-06-04 17:47:13
"||||||||||||-100,6969,$GNRMC,17470.,6170826$GNGGA,174710.000,3520.8635,N,11748.5476,W,2,15,0.71,630.2,M,-29.4,M,,*47\r29.4,M,,*4F\r\r\n"2022-06-04 17:47:13
"||||||||||||-106,6969,$ACCEL,4.54,-0.34,-8.90,$ALT,659.32,-203.81.8635,N,11748.5476,W,2,15,0.71,630.2,M,-29.4,M,,*47\r29.4,M,,*4F\r\r\n"2022-06-04 17:47:14
"||||||||||||-108,6969,$GNRMC,174710.0033762,,\r$GNGGA,174711.000,3520.8634,N,11748.5476,W,2,15,0.71,630.2,M,-29.4,M,,*47\r4,M,,*4F\r\r\n"2022-06-04 17:47:14
"||||||||||||-102,6969,$ACCEL,4.50,-0.34,-8.90,$ALT,659.22,-203.79\u0001\r\n"2022-06-04 17:47:15
"||||||||||||-101,6969,$GNRMC,174711.0000N.,24,$GNGGA,174712.000,3520.8635,N,11748.5476,W,2,15,0.71,630.2,M,-29.4,M,,*45\r\r\n"2022-06-04 17:47:15
"||||||||||||-103,6969,$ACCEL,4.55,-0.36,-8.86,$ALT,659.12,-203.75\u0001\r\n"2022-06-04 17:47:16
"||||||||||||-104,6969,$GNRMC,174712.000A.,50.6*$GNGGA,174713.000,3520.8635,N,11748.5476,W,2,15,0.71,630.2,M,-29.4,M,,*44\r`\r\n"2022-06-04 17:47:16
"||||||||||||-99,6969,$ACCEL,4.52,-0.34,-8.89,$ALT,658.99,-203.703520.8635,N,11748.5476,W,2,15,0.71,630.2,M,-29.4,M,,*44\r`\r\n"2022-06-04 17:47:17
"||||||||||||-100,6969,$GNRMC,17471.33760825$GNGGA,174714.000,3520.8635,N,11748.5476,W,2,15,0.71,630.2,M,-29.4,M,,*43\r\r\n"2022-06-04 17:47:17
"||||||||||||-97,6969,$ACCEL,4.55,-0.36,-8.91,$ALT,658.92,-203.69\u0005R\r\n"2022-06-04 17:47:18
"||||||||||||-98,6969,$GNRMC,174714.00,617.825$GNGGA,174715.000,3520.8635,N,11748.5476,W,2,15,0.71,630.2,M,-29.4,M,,*42\r\r\n"2022-06-04 17:47:18
"||||||||||||-98,6969,$ACCEL,4.56,-0.34,-8.90,$ALT,659.01,-203.72\u0001\r\n"2022-06-04 17:47:19
"||||||||||||-99,6969,$GNRMC,174715.00554,4,,\r$GNGGA,174716.000,3520.8635,N,11748.5476,W,2,15,0.71,630.2,M,-29.4,M,,*41\r\r\n"2022-06-04 17:47:19
"||||||||||||-98,6969,$ACCEL,4.52,-0.36,-8.89,$ALT,659.18,-203.77\u0001\r\n"2022-06-04 17:47:20
"||||||||||||-101,6969,$GNRMC,174716.0,614.825$GNGGA,174717.000,3520.8635,N,11748.5476,W,2,15,0.71,630.2,M,-29.4,M,,*40\r\r\n"2022-06-04 17:47:20
"||||||||||||-100,6969,$ACCEL,4.52,-0.34,-8.88,$ALT,659.29,-203.8120.8635,N,11748.5476,W,2,15,0.71,630.2,M,-29.4,M,,*40\r\r\n"2022-06-04 17:47:21
"||||||||||||-101,6969,$GNRMC,174717A8140.6*$GNGGA,174718.000,3520.8635,N,11748.5476,W,2,15,0.71,630.2,M,-29.4,M,,*4F\r0\r\r\n"2022-06-04 17:47:21
"||||||||||||-101,6969,$ACCEL,4.54,-0.34,-8.86,$ALT,659.31,-203.82.8635,N,11748.5476,W,2,15,0.71,630.2,M,-29.4,M,,*4F\r0\r\r\n"2022-06-04 17:47:22
"||||||||||||-100,6969,$GNRMC,174718.000,.,5,30D$GNGGA,174719.000,3520.8635,N,11748.5475,W,2,15,0.71,630.2,M,-29.4,M,,*4D\r`\r\n"2022-06-04 17:47:22
"||||||||||||-101,6969,$ACCEL,4.55,-0.36,-8.88,$ALT,659.44,-203.86\u0005R\r\n"2022-06-04 17:47:23
"||||||||||||-101,6969,$GNRMC,174719.0000N.,24,$GNGGA,174720.000,3520.8635,N,11748.5476,W,2,15,0.71,630.2,M,-29.4,M,,*44\r\r\n"2022-06-04 17:47:23
"||||||||||||-98,6969,$ACCEL,4.53,-0.35,-8.89,$ALT,659.60,-203.91\u0001\r\n"2022-06-04 17:47:25
"||||||||||||-100,6969,$GNRMC,174720.0,814.825$GNGGA,174721.000,3520.8635,N,11748.5475,W,2,15,0.71,630.2,M,-29.4,M,,*46\r\r\n"2022-06-04 17:47:25
"||||||||||||-101,6969,$ACCEL,4.53,-0.35,-8.89,$ALT,659.72,-203.94\u0001\r\n"2022-06-04 17:47:25
"||||||||||||-102,6969,$GNRMC,174721.0002,8W24,$ALT,659.72,-203.94\u0001\r\n"2022-06-04 17:47:25
"||||||||||||-103,6969,$ACCEL,4.53,-0.34,-8.87,$ALT,659.50,-203.88\u0001\r\n"2022-06-04 17:47:26
"||||||||||||-107,6969,$ACCEL,4.53,-0.34,-8.87,$ALT,659.56,-203.89\u0001\r\n"2022-06-04 17:47:26
"||||||||||||-106,6969,$GNRMC,17472202,4,,0,87,$ALT,659.56,-203.89\u0001\r\n"2022-06-04 17:47:26
"||||||||||||-107,6969,$ACCEL,4.54,-0.34,-8.86,$ALT,659.09,-203.75\u0001\r\n"2022-06-04 17:47:27
"||||||||||||-105,6969,$ACCEL,4.52,-0.34,-8.89,$ALT,659.13,-203.77\u0005R\r\n"2022-06-04 17:47:28
"||||||||||||-104,6969,$GNRMC,174723.,.N.,30D$GNGGA,174724.000,3520.8635,N,11748.5475,W,2,15,0.71,630.2,M,-29.4,M,,*43\r\r\n"2022-06-04 17:47:28
"||||||||||||-107,6969,$ACCEL,4.54,-0.35,-8.87,$ALT,659.42,-203.86\u0005R\r\n"2022-06-04 17:47:30
"||||||||||||-107,6969,$GNRMC,174724.0033750820$GNGGA,174725.000,3520.8635,N,11748.5475,W,2,15,0.71,630.2,M,-2,\rC2A814.82*$GNGGA,174726.000,3 \r\n"2022-06-04 17:47:30
"||||||||||||-106,6969,$ACCEL,4.54,-0.35,-8.87,$ALT,659.25,-203.81\u0005R\r\n"2022-06-04 17:47:30
"||||||||||||-106,6969,$GN$GNGGA,174727.000,3520.8635,N,11748.5475,W,2,15,0.71,630.2,M,-29.4,M,,*40\r\r\n"2022-06-04 17:47:31
"||||||||||||-105,6969,$ACCEL,4.54,-0.34,-8.88,$ALT,659.22,-203.81\u0005R\r\n"2022-06-04 17:47:31
"||||||||||||-104,6969,$GNRMC,174727.000,A,38,50.6*$GNGGA,174728.000,3520.8635,N,11748.5475,W,2,15,0.71,630.2,M,-29.4,M,,*4F\r @B\u000f\r\n"2022-06-04 17:47:32
"||||||||||||-103,6969,$ACCEL,4.53,-0.34,-8.88,$ALT,658.95,-203.7200,3520.8635,N,11748.5475,W,2,15,0.71,630.2,M,-29.4,M,,*4F\r @B\u000f\r\n"2022-06-04 17:47:32
"||||||||||||-104,6969,$GNRMC,174728.00,614.825$GNGGA,174729.000,3520.8635,N,11748.5475,W,2,15,0.71,630.2,M,-29.4,M,,*4E\r\r\n"2022-06-04 17:47:33
"||||||||||||-102,6969,$ACCEL,4.52,-0.34,-8.90,$ALT,659.32,-203.84520.8635,N,11748.5475,W,2,15,0.71,630.2,M,-29.4,M,,*4E\r\r\n"2022-06-04 17:47:34
"||||||||||||-101,6969,$GNRMC,174729.000,A,3520.8635,N,11748.5475,W,0.00,23.88,0406225$GNGGA,174730.000,3520.8635,N,11748.5475,W,2,15,0.71,63 \r\n"2022-06-04 17:47:34
"||||||||||||-101,6969,$ACCEL,4.53,-0.34,-8.90,$ALT,659.04,-203.75\u0005R\r\n"2022-06-04 17:47:35
"||||||||||||-100,6969,$GNRMC,17$GNGGA,174731.000,3520.8635,N,11748.5475,W,2,15,0.71,630.2,M,-29.4,M,,*47\rP\r\n"2022-06-04 17:47:35
"||||||||||||-113,6969,$ACCEL,4.54,-0.34,-8.89,$ALT,659.16,-203.79\u0001\r\n"2022-06-04 17:47:36
"||||||||||||-115,6969,$GNRMC,174731.000,A,3520.863$GNGGA,174732.000,3520.8635,N,11748.5475,W,2,15,0.71,630.2,M,-29.4,M,,*44\r @B\u000f\r\n"2022-06-04 17:47:36
"||||||||||||-116,6969,$ACCEL,4.53,-0.35,-8.86,$ALT,659.19,-203.8100,3520.8635,N,11748.5475,W,2,15,0.71,630.2,M,-29.4,M,,*44\r @B\u000f\r\n"2022-06-04 17:47:37
"||||||||||||-112,6969,$GNRMC,174732.000,A,3520$GNGGA,174733.000,3520.8635,N,11748.5475,W,2,15,0.71,630.2,M,-29.4,M,,*45\r\r\n"2022-06-04 17:47:37
"||||||||||||-104,6969,$ACCEL,4.55,-0.34,-8.85,$ALT,659.19,-203.80520.8635,N,11748.5475,W,2,15,0.71,630.2,M,-29.4,M,,*45\r\r\n"2022-06-04 17:47:38
"||||||||||||-102,6969,$GNRMC,174733.000,A,3520.863,W24,$GNGGA,174734.000,3520.8635,N,11748.5475,W,2,15,0.71,630.2,M,-29.4,M,,*42\r,\u0001\r\n"2022-06-04 17:47:38
"||||||||||||-102,6969,$ACCEL,4.55,-0.34,-8.85,$ALT,659.43,-203.88734.000,3520.8635,N,11748.5475,W,2,15,0.71,630.2,M,-29.4,M,,*42\r,\u0001\r\n"2022-06-04 17:47:38
"||||||||||||-102,6969,$GNRMC,174730254,,0,.85,$ALT,659.43,-203.88734.000,3520.8635,N,11748.5475,W,2,15,0.71,630.2,M,-29.4,M,,*42\r,\u0001\r\n"2022-06-04 17:47:38
"||||||||||||-99,6969,$ACCEL,4.53,-0.34,-8.86,$ALT,659.42,-203.88\u0001\r\n"2022-06-04 17:47:39
"||||||||||||-107,6969,$GNRMC,174735.000,,617082$GNGGA,174736.000,3520.8635,N,11748.5475,W,2,15,0.71,630.2,M,-29.4,M,,*40\r`\r\n"2022-06-04 17:47:40
"||||||||||||-97,6969,$ACCEL,4.56,-0.34,-8.87,$ALT,659.40,-203.883520.8635,N,11748.5475,W,2,15,0.71,630.2,M,-29.4,M,,*40\r`\r\n"2022-06-04 17:47:41
"||||||||||||-103,6969,$GNRMC,174736.00,6170825$GNGGA,174737.000,3520.8635,N,11748.5475,W,2,15,0.71,630.2,M,-29.4,M,,*41\r\r\n"2022-06-04 17:47:41
"||||||||||||-116,6969,$ACCEL,4.54,-0.35,-8.90,$ALT,659.50,-203.91520.8635,N,11748.5475,W,2,15,0.71,630.2,M,-29.4,M,,*41\r\r\n"2022-06-04 17:47:42
"||||||||||||-112,6969,$GNRMC,174737.0A814.86*$GNGGA,174738.000,3520.8635,N,11748.5475,W,2,15,0.71,630.2,2,$10554,1,,\r$GNGGA,174739.000,3520.\r\n"2022-06-04 17:47:42
"||||||||||||-107,6969,$ACCEL,4.55,-0.35,-8.89,$ALT,659.77,-204.0020.8635,N,11748.5475,W,2,15,0.71,630.2,2,$10554,1,,\r$GNGGA,174739.000,3520.\r\n"2022-06-04 17:47:43
"||||||||||||-106,6969,$GNRMC,174739.000,A,353751,,E$GNGGA,174740.000,3520.8635,N,11748.5475,W,2,15,0.71,630.2,M,-29.4,M,,*41\r74739.000,3520.\r\n"2022-06-04 17:47:44
"||||||||||||-104,6969,$ACCEL,4.54,-0.34,-8.89,$ALT,659.24,-203.83000,3520.8635,N,11748.5475,W,2,15,0.71,630.2,M,-29.4,M,,*41\r74739.000,3520.\r\n"2022-06-04 17:47:44
"||||||||||||-105,6969,$GNRMC,174740.0A814.86*$GNGGA,174741.000,3520.8635,N,11748.5475,W,2,15,0.71,630.2,M,-29.4,M,,*40\r,,*41\r74739.000,3520.\r\n"2022-06-04 17:47:45
"||||||||||||-113,6969,$ACCEL,4.55,-0.34,-8.88,$ALT,659.47,-203.91\u0005R\r\n"2022-06-04 17:47:45
"||||||||||||-106,6969,$GNRMC,174741.0A8,50.6*$GNGGA,174742.000,3520.8635,N,11748.5475,W,2,15,0.71,630.2,M,-29.4,M,,*43\r\r\n"2022-06-04 17:47:45
"||||||||||||-102,6969,$ACCEL,4.53,-0.34,-8.86,$ALT,659.10,-203.8020.8635,N,11748.5475,W,2,15,0.71,630.2,M,-29.4,M,,*43\r\r\n"2022-06-04 17:47:46
"||||||||||||-104,6969,$GNRMC,174742.000,A,3520.8635,N,11748.5475,W,0.02$GNGGA,174743.000,3520.8635,N,11748.5475,W,2,15,0.71,630.1,M,-29.4,M,\r\n"2022-06-04 17:47:47
"||||||||||||-106,6969,$ACCEL,4.54,-0.35,-8.87,$ALT,659.32,-203.87W,0.02$GNGGA,174743.000,3520.8635,N,11748.5475,W,2,15,0.71,630.1,M,-29.4,M,\r\n"2022-06-04 17:47:48
"||||||||||||-108,6969,$GNRMC,174743.000,A,3520.8635$GNGGA,174744.000,3520.8635,N,11748.5475,W,2,15,0.71,630.1,M,-29.4,M,,*46\r30.1,M,-29.4,M,\r\n"2022-06-04 17:47:48
"||||||||||||-106,6969,$ACCEL,4.54,-0.35,-8.87,$ALT,659.40,-203.89000,3520.8635,N,11748.5475,W,2,15,0.71,630.1,M,-29.4,M,,*46\r30.1,M,-29.4,M,\r\n"2022-06-04 17:47:49
"||||||||||||-106,6969,$GNRMC,174744.000,A,3.,$GNGGA,174745.000,3520.8635,N,11748.5475,W,2,15,0.71,630.1,M,-29.4,M,,*47\r\r\n"2022-06-04 17:47:49
"||||||||||||-104,6969,$ACCEL,4.52,-0.34,-8.88,$ALT,658.95,-203.7520.8635,N,11748.5475,W,2,15,0.71,630.1,M,-29.4,M,,*47\r\r\n"2022-06-04 17:47:50
"||||||||||||-105,6969,$GNRMC,174745.000,A,352$GNGGA,174746.000,3520.8635,N,11748.5475,W,2,15,0.71,630.1,M,-29.4,M,,*44\r\r\n"2022-06-04 17:47:50
"||||||||||||-103,6969,$ACCEL,4.52,-0.35,-8.89,$ALT,659.10,-203.8020.8635,N,11748.5475,W,2,15,0.71,630.1,M,-29.4,M,,*44\r\r\n"2022-06-04 17:47:51
"||||||||||||-104,6969,$GNRMC,174746.000,A,352.,5,30D$GNGGA,174747.000,3520.8635,N,11748.5475,W,2,15,0.71,630.1,M,-29.4,M,,*45\rB\u000f\r\n"2022-06-04 17:47:51
"||||||||||||-103,6969,$ACCEL,4.52,-0.35,-8.89,$ALT,659.30,-203.86.000,3520.8635,N,11748.5475,W,2,15,0.71,630.1,M,-29.4,M,,*45\rB\u000f\r\n"2022-06-04 17:47:51
"||||||||||||-101,6969,$GNRMC,1747402,8,,0,.89,$ALT,659.30,-203.86.000,3520.8635,N,11748.5475,W,2,15,0.71,630.1,M,-29.4,M,,*45\rB\u000f\r\n"2022-06-04 17:47:51
"||||||||||||-101,6969,$ACCEL,4.53,-0.35,-8.88,$ALT,659.16,-203.82\u0005R\r\n"2022-06-04 17:47:52
"||||||||||||-101,6969,$GNGGA,174748.000,3520.8636,N,11748.5475,W,2,15,0.71,630.1,M,-29.4,M,,*49\r\r\n"2022-06-04 17:47:52
"||||||||||||-105,6969,$ACCEL,4.51,-0.35,-8.89,$ALT,659.29,-203.87\u0001\r\n"2022-06-04 17:47:53
"||||||||||||-102,6969,$GNRMC,174748.,.,50.6D$GNGGA,174749.000,3520.8636,N,11748.5475,W,2,15,0.71,630.1,M,-29.4,M,,*48\r\r\n"2022-06-04 17:47:53
"||||||||||||-101,6969,$ACCEL,4.55,-0.34,-8.89,$ALT,658.96,-203.76\u0001\r\n"2022-06-04 17:47:54
"||||||||||||-101,6969,$GNRMC,174749.000N.W24,$GNGGA,174750.000,3520.8636,N,11748.5475,W,2,15,0.71,630.1,M,-29.4,M,,*40\r\r\n"2022-06-04 17:47:54
"||||||||||||-104,6969,$ACCEL,4.53,-0.34,-8.88,$ALT,659.43,-203.9120.8636,N,11748.5475,W,2,15,0.71,630.1,M,-29.4,M,,*40\r\r\n"2022-06-04 17:47:55
"||||||||||||-101,6969,$GNRMC,174750.000,614.825$GNGGA,174751.000,3520.8636,N,11748.5475,W,2,15,0.71,630.1,M.4R7,.N.,30D$GNGGA,174752.000,352 \r\n"2022-06-04 17:47:55
"||||||||||||-104,6969,$ACCEL,4.54,-0.34,-8.87,$ALT,659.43,-203.903520.8636,N,11748.5475,W,2,15,0.71,630.1,M.4R7,.N.,30D$GNGGA,174752.000,352 \r\n"2022-06-04 17:47:56
"||||||||||||-106,6969,$GNRMC,174752.000,A,352,8,,0,659.43,-20\r\n"2022-06-04 17:47:56
"||||||||||||-101,6969,$ACCEL,4.54,-0.34,-8.87,$ALT,659.25,-203.86\u0005R\r\n"2022-06-04 17:47:56
"||||||||||||-101,6969,$GNRMC,174753.000N.W24,$GNGGA,174754.000,3520.8636,N,11748.5475,W,2,14,0.75,630.1,M,-29.4,M,,*41\r\r\n"2022-06-04 17:47:58
"||||||||||||-103,6969,$ACCEL,4.54,-0.35,-8.90,$ALT,659.07,-203.8020.8636,N,11748.5475,W,2,14,0.75,630.1,M,-29.4,M,,*41\r\r\n"2022-06-04 17:47:58
"||||||||||||-103,6969,$GNRMC,174754.033751,,6$GNGGA,174755.000,3520.8636,N,11748.5475,W,2,15,0.71,630.1,M,-29.4,M,,*45\r\r\n"2022-06-04 17:47:59
"||||||||||||-105,6969,$ACCEL,4.52,-0.35,-8.88,$ALT,659.35,-203.8920.8636,N,11748.5475,W,2,15,0.71,630.1,M,-29.4,M,,*45\r\r\n"2022-06-04 17:47:59
"||||||||||||-109,6969,$ACCEL,4.53,-0.34,-8.87,$ALT,659.39,-203.90\u0001\r\n"2022-06-04 17:48:01
"||||||||||||-107,6969,$GNRMC,174757.000,A,33750825$GNGGA,174758.000,3520.8636,N,11748.5475,W,2,15,0.71,630.1,M,-29.4,M,,*48\r @B\u000f\r\n"2022-06-04 17:48:02
"||||||||||||-106,6969,$ACCEL,4.53,-0.34,-8.87,$ALT,659.45,-203.9200,3520.8636,N,11748.5475,W,2,15,0.71,630.1,M,-29.4,M,,*48\r @B\u000f\r\n"2022-06-04 17:48:02
"||||||||||||-105,6969,$GNRMC,174758.0,6170825$GNGGA,174759.000,3520.8636,N,11748.5475,W,2,15,0.71,630.1,M,-29.4,M,,*49\r,*48\r @B\u000f\r\n"2022-06-04 17:48:03
"||||||||||||-106,6969,$ACCEL,4.53,-0.36,-8.88,$ALT,659.22,-203.86\u0001\r\n"2022-06-04 17:48:03
"||||||||||||-106,6969,$GNRMC,174759.003317082B$GNGGA,174800.000,3520.8636,N,11748.5475,W,2,15,0.71,630.1,M,-29.4,M,,*4A\r\r\n"2022-06-04 17:48:04
"||||||||||||-106,6969,$ACCEL,4.52,-0.34,-8.87,$ALT,659.18,-203.85\u0001\r\n"2022-06-04 17:48:04
"||||||||||||-106,6969,$GNRMC,1740,814.825$GNGGA,174801.000,3520.8636,N,11748.5475,W,2,15,0.71,630.1,M,-29.4,M,,*4B\r\r\n"2022-06-04 17:48:05
"||||||||||||-107,6969,$ACCEL,4.53,-0.35,-8.87,$ALT,659.36,-203.90636,N,11748.5475,W,2,15,0.71,630.1,M,-29.4,M,,*4B\r\r\n"2022-06-04 17:48:05
"||||||||||||-107,6969,$GNRMC,174801.000,A0N.,30,$GNGGA,174802.000,3520.8636,N,11748.5475,W,2,15,0.71,630.0,M,-29.4,M,,*49\r\r\n"2022-06-04 17:48:06
"||||||||||||-105,6969,$ACCEL,4.54,-0.34,-8.87,$ALT,659.04,-203.80\u0005R\r\n"2022-06-04 17:48:06
"||||||||||||-105,6969,$GNRMC,174802.0033750,,B$GNGGA,174803.000,3520.8636,N,11748.5475,W,2,15,0.71,630.0,M,-29.4,M,,*48\r\r\n"2022-06-04 17:48:07
"||||||||||||-105,6969,$ACCEL,4.53,-0.34,-8.89,$ALT,659.13,-203.83520.8636,N,11748.5475,W,2,15,0.71,630.0,M,-29.4,M,,*48\r\r\n"2022-06-04 17:48:07
"||||||||||||-106,6969,$GNRMC,174803.033751,,\r$GNGGA,174804.000,3520.8636,N,11748.5475,W,2,15,0.71,630.0,M,-29.4,M,,*4F\r\r\r\n"2022-06-04 17:48:08
"||||||||||||-106,6969,$ACCEL,4.54,-0.34,-8.87,$ALT,659.32,-203.89\u0005R\r\n"2022-06-04 17:48:08
"||||||||||||-105,6969,$GNRMC,174804.03617082C$GNGGA,174805.000,3520.8636,N,11748.5475,W,2,15,0.71,630.0,M,-29.4,M,,*4E\r\r\n"2022-06-04 17:48:09
"||||||||||||-109,6969,$ACCEL,4.54,-0.34,-8.87,$ALT,659.28,-203.88\u0001\r\n"2022-06-04 17:48:09
"||||||||||||-108,6969,$GNRMC,174805.000264,,0,$ALT,659.28,-203.88\u0001\r\n"2022-06-04 17:48:09
"||||||||||||-108,6969,$ACCEL,4.54,-0.34,-8.87,$ALT,659.26,-203.88\u0001\r\n"2022-06-04 17:48:10
"||||||||||||-111,6969,$ACCEL,4.53,-0.34,-8.88,$ALT,659.09,-203.83\u0005R\r\n"2022-06-04 17:48:10
"||||||||||||-108,6969,$GNRMC,174806.0,6170825$GNGGA,174807.000,3520.8636,N,11748.5475,W,2,15,0.71,630.0,M,-29.4,M,,*4C\r\r\n"2022-06-04 17:48:11
"||||||||||||-109,6969,$ACCEL,4.55,-0.34,-8.88,$ALT,659.19,-203.8620.8636,N,11748.5475,W,2,15,0.71,630.0,M,-29.4,M,,*4C\r\r\n"2022-06-04 17:48:11
"||||||||||||-108,6969,$GNRMC,174807.0A8,50.6*$GNGGA,174808.000,3520.8636,N,11748.5475,W,2,15,0.71,630.0,M,-29.4,M,,*43\r\r\n"2022-06-04 17:48:12
"||||||||||||-111,6969,$ACCEL,4.55,-0.34,-8.88,$ALT,659.21,-203.87\u0001\r\n"2022-06-04 17:48:13
"||||||||||||-109,6969,$GNRMC,174808.00,6170825$GNGGA,174809.000,3520.8636,N,11748.5475,W,2,15,0.71,630.0,M,-42M0A8140.6*$GNGGA,174810.000,35 \r\n"2022-06-04 17:48:13
"||||||||||||-108,6969,$ACCEL,4.51,-0.34,-8.90,$ALT,659.14,-203.85\u0005R\r\n"2022-06-04 17:48:14
"||||||||||||-107,6969,$GNRMC,174810.000,A,32,8W24,$GNGGA,174811.000,3520.8636,N,11748.5475,W,2,15,0.71,630.0,M,-29.4,M,,*4B\r @B\u000f\r\n"2022-06-04 17:48:14
"||||||||||||-106,6969,$ACCEL,4.52,-0.36,-8.88,$ALT,659.23,-203.87\u0005R\r\n"2022-06-04 17:48:15
"||||||||||||-108,6969,$GNRMC,174811.00,.,5030D$GNGGA,174812.000,3520.8636,N,11748.5475,W,2,15,0.71,630.0,M,-29.4,M,,*48\r\r\n"2022-06-04 17:48:15
"||||||||||||-111,6969,$ACCEL,4.53,-0.36,-8.87,$ALT,659.25,-203.88520.8636,N,11748.5475,W,2,15,0.71,630.0,M,-29.4,M,,*48\r\r\n"2022-06-04 17:48:16
"||||||||||||-109,6969,$GNRMC,174812.00,.,.,30D$GNGGA,174813.000,3520.8636,N,11748.5476,W,2,15,0.71,630.0,M,-29.4,M,,*4A\r\r\n"2022-06-04 17:48:16
"||||||||||||-107,6969,$ACCEL,4.51,-0.35,-8.90,$ALT,659.14,-203.85\u0001\r\n"2022-06-04 17:48:17
"||||||||||||-108,6969,$GNRMC,174813.000,A,3520.8636,N,11748.5476,W,0.0$GNGGA,174814.000,3520.8636,N,11748.5476,W,2,15,0.71,630.0,M,-29.4,M,, \r\n"2022-06-04 17:48:17
"||||||||||||-108,6969,$GNRMC,174814.000,A,3520.863$GNGGA,174815.000,3520.8636,N,11748.5476,W,2,15,0.71,630.0,M,-29.4,M,,*4C\r @B\u000f\r\n"2022-06-04 17:48:18
"||||||||||||-112,6969,$ACCEL,4.54,-0.35,-8.88,$ALT,659.05,-203.82\u0001\r\n"2022-06-04 17:48:19
"||||||||||||-114,6969,$GNRMC,174815.000,A,3526$GNGGA,174816.000,3520.8636,N,11748.5476,W,2,15,0.71,630.0,M,-29.4,M,,*4F\r\r\n"2022-06-04 17:48:19
"||||||||||||-109,6969,$ACCEL,4.53,-0.34,-8.87,$ALT,659.23,-203.88520.8636,N,11748.5476,W,2,15,0.71,630.0,M,-29.4,M,,*4F\r\r\n"2022-06-04 17:48:20
"||||||||||||-113,6969,$GNRMC,174816.000,A,350N$GNGGA,174817.000,3520.8636,N,11748.5476,W,2,15,0.71,630.0,M,-29.4,M,,*4E\r\r\n"2022-06-04 17:48:20
"||||||||||||-114,6969,$ACCEL,4.55,-0.35,-8.88,$ALT,659.35,-203.92520.8636,N,11748.5476,W,2,15,0.71,630.0,M,-29.4,M,,*4E\r\r\n"2022-06-04 17:48:21
"||||||||||||-113,6969,$GNRMC,174817.000,A,356761,,\r$GNGGA,174818.000,3520.8636,N,11748.5476,W,2,15,0.71,630.0,M,-29.4,M,,*41\r@B\u000f\r\n"2022-06-04 17:48:21
"||||||||||||-113,6969,$ACCEL,4.53,-0.34,-8.88,$ALT,659.36,-203.93\u0001\r\n"2022-06-04 17:48:22
"||||||||||||-115,6969,$GNRMC,1741A.,50.6*$GNGGA,174819.000,3520.8636,N,11748.5476,W,2,15,0.71,630.0,M,-29.4,M,,*40\r\r\n"2022-06-04 17:48:22
"||||||||||||-127,6969,$ACCEL,4.54,-0.35,-8.88,$ALT,659.29,-203.90636,N,11748.5476,W,2,15,0.71,630.0,M,-29.4,M,,*40\r\r\n"2022-06-04 17:48:23
"||||||||||||-122,6969,$GNRMC,174819.033170823$GNGGA,174820.000,3520.8636,N,11748.5476,W,2,15,0.71,630.0,M,-29.4,M,,*4A\r\r\n"2022-06-04 17:48:23
"||||||||||||-123,6969,$ACCEL,4.54,-0.35,-8.88,$ALT,659.18,-203.8720.8636,N,11748.5476,W,2,15,0.71,630.0,M,-29.4,M,,*4A\r\r\n"2022-06-04 17:48:24
"||||||||||||-108,6969,$ACCEL,4.50,-0.35,-8.89,$ALT,659.19,-203.8820.8636,N,11748.5476,W,2,15,0.71,630.0,M,-29.4,M,,*4A\r\r\n"2022-06-04 17:48:25
"||||||||||||-106,6969,$GNRMC,174821.000N.W24,$GNGGA,174822.000,3520.8636,N,11748.5476,W,2,15,0.71,629.9,M,-29.4,M,,*49\r\r\n"2022-06-04 17:48:25
"||||||||||||-107,6969,$ACCEL,4.50,-0.35,-8.89,$ALT,659.25,-203.9020.8636,N,11748.5476,W,2,15,0.71,629.9,M,-29.4,M,,*49\r\r\n"2022-06-04 17:48:26
"||||||||||||-106,6969,$GNRMC,174822.002,8W20,,$ALT,659.25,-203.9020.8636,N,11748.5476,W,2,15,0.71,629.9,M,-29.4,M,,*49\r\r\n"2022-06-04 17:48:26
"||||||||||||-113,6969,$ACCEL,4.55,-0.35,-8.88,$ALT,659.34,-203.92\u0005R\r\n"2022-06-04 17:48:26
"||||||||||||-115,6969,$GNGGA,174823.000,3520.8636,N,11748.5476,W,2,15,0.71,629.9,M,-29.4,M,,*48\r\r\n"2022-06-04 17:48:27
"||||||||||||-114,6969,$ACCEL,4.53,-0.36,-8.87,$ALT,659.25,-203.902,15,0.71,629.9,M,-29.4,M,,*48\r\r\n"2022-06-04 17:48:27
"||||||||||||-116,6969,$GNRMC,174823.0,0N.,30D$GNGGA,174824.000,3520.8636,N,11748.5476,W,2,15,0.71,629.9,M,-29.4,M,,*4F\r\r\n"2022-06-04 17:48:27
"||||||||||||-115,6969,$ACCEL,4.54,-0.34,-8.86,$ALT,659.36,-203.93\u0001\r\n"2022-06-04 17:48:28
"||||||||||||-116,6969,$GNRMC,174824.00,.N.,30D$GNGGA,174825.000,3520.8636,N,11748.5476,W,2,15,0.71,629.9,M,-29.4,M,,*4E\r\r\n"2022-06-04 17:48:28
"||||||||||||-114,6969,$ACCEL,4.55,-0.35,-8.86,$ALT,659.29,-203.92520.8636,N,11748.5476,W,2,15,0.71,629.9,M,-29.4,M,,*4E\r\r\n"2022-06-04 17:48:30
"||||||||||||-113,6969,$GNRMC,174825.00A8150.6*$GNGGA,174826.000,3520.8636,N,11748.5476,W,2,15,0.71,629.9,M,-2,\rC6,614.825$GNGGA,174827.000,3 \r\n"2022-06-04 17:48:30
"||||||||||||-114,6969,$ACCEL,4.52,-0.34,-8.89,$ALT,659.49,-203.98520.8636,N,11748.5476,W,2,15,0.71,629.9,M,-2,\rC6,614.825$GNGGA,174827.000,3 \r\n"2022-06-04 17:48:31
"||||||||||||-114,6969,$GNRMC,174827.000,A,.,5,30D$GNGGA,174828.000,3520.8636,N,11748.5476,W,2,15,0.71,629.9,M,-29.4,M,,*43\r\r\n"2022-06-04 17:48:31
"||||||||||||-113,6969,$ACCEL,4.55,-0.34,-8.88,$ALT,659.41,-203.96\u0001\r\n"2022-06-04 17:48:32
"||||||||||||-115,6969,$GNRMC,174828.000,0N.,30D$GNGGA,174829.000,3520.8636,N,11748.5476,W,2,15,0.71,629.9,M,-29.4,M,,*42\r`\r\n"2022-06-04 17:48:32
"||||||||||||-125,6969,$ACCEL,4.55,-0.34,-8.88,$ALT,659.35,-203.933520.8636,N,11748.5476,W,2,15,0.71,629.9,M,-29.4,M,,*42\r`\r\n"2022-06-04 17:48:32
"||||||||||||-123,6969,$GNRMC,174829.002,8W20,,$ALT,659.35,-203.933520.8636,N,11748.5476,W,2,15,0.71,629.9,M,-29.4,M,,*42\r`\r\n"2022-06-04 17:48:32
"||||||||||||-116,6969,$ACCEL,4.51,-0.34,-8.89,$ALT,659.37,-203.953520.8636,N,11748.5476,W,2,15,0.71,629.9,M,-29.4,M,,*42\r`\r\n"2022-06-04 17:48:33
"||||||||||||-118,6969,$GNGGA,174830.000,3520.8636,N,11748.5476,W,2,15,0.71,629.9,M,-29.4,M,,*4A\r.71,629.9,M,-29.4,M,,*42\r`\r\n"2022-06-04 17:48:33
"||||||||||||-122,6969,$ACCEL,4.52,-0.36,-8.88,$ALT,659.20,-203.902,15,0.71,629.9,M,-29.4,M,,*4A\r.71,629.9,M,-29.4,M,,*42\r`\r\n"2022-06-04 17:48:34
"||||||||||||-113,6969,$GNRMC,174830.000,A,3520.8636,N,11748.5476,W,0.0$GNGGA,174831.000,3520.8636,N,11748.5476,W,2,15,0.71,629.9,M,-29.4,M,, \r\n"2022-06-04 17:48:34
"||||||||||||-116,6969,$ACCEL,4.52,-0.35,-8.89,$ALT,659.32,-203.94\u0001\r\n"2022-06-04 17:48:35
"||||||||||||-111,6969,$GNRMC,174831.000,A,3520.86$GNGGA,174832.000,3520.8636,N,11748.5476,W,2,15,0.71,629.9,M,-29.4,M,,*48\r\r\n"2022-06-04 17:48:35
"||||||||||||-97,6969,$ACCEL,4.55,-0.35,-8.89,$ALT,659.34,-203.930,3520.8636,N,11748.5476,W,2,15,0.71,629.9,M,-29.4,M,,*48\r\r\n"2022-06-04 17:48:37
"||||||||||||-101,6969,$GNRMC,174832.000,A,35206$GNGGA,174833.000,3520.8636,N,11748.5476,W,2,15,0.71,629.9,M,-29.4,M,G10564,,0,\r$GNGGA,174834 \r\n"2022-06-04 17:48:37
"||||||||||||-106,6969,$ACCEL,4.54,-0.34,-8.87,$ALT,659.24,-203.933520.8636,N,11748.5476,W,2,15,0.71,629.9,M,-29.4,M,G10564,,0,\r$GNGGA,174834 \r\n"2022-06-04 17:48:38
"||||||||||||-105,6969,$GNRMC,174834.000,A,3317082C$GNGGA,174835.000,3520.8636,N,11748.5476,W,2,15,0.71,629.9,M,-29.4,M,,*4F\r @B\u000f\r\n"2022-06-04 17:48:38
"||||||||||||-113,6969,$ACCEL,4.53,-0.34,-8.89,$ALT,659.26,-203.9200,3520.8636,N,11748.5476,W,2,15,0.71,629.9,M,-29.4,M,,*4F\r @B\u000f\r\n"2022-06-04 17:48:39
"||||||||||||-114,6969,$GNRMC,1745,6170825$GNGGA,174836.000,3520.8636,N,11748.5476,W,2,15,0.71,629.9,M,-29.4,M,,*4C\r4,M,,*4F\r @B\u000f\r\n"2022-06-04 17:48:39
"||||||||||||-109,6969,$ACCEL,4.53,-0.35,-8.88,$ALT,659.05,-203.86\u0001\r\n"2022-06-04 17:48:40
"||||||||||||-129,6969,$GNRMC,174836.056761,,\r$GNGGA,174837.000,3520.8636,N,11748.5476,W,2,15,0.71,629.9,M,-29.4,M,,*4D\r\r\n"2022-06-04 17:48:40
"||||||||||||-111,6969,$ACCEL,4.55,-0.34,-8.86,$ALT,659.26,-203.93\u0001\r\n"2022-06-04 17:48:41
"||||||||||||-106,6969,$GNRMC,174837.000,A,3520.8636,N,11748.5476,W,0.01,23.8$GNGGA,174838.000,3520.8636,N,11748.5476,W,2,15,0.71,629.9,M,-29\r\n"2022-06-04 17:48:41
"||||||||||||-113,6969,$ACCEL,4.53,-0.34,-8.90,$ALT,659.28,-203.93W,0.01,23.8$GNGGA,174838.000,3520.8636,N,11748.5476,W,2,15,0.71,629.9,M,-29\r\n"2022-06-04 17:48:42
"||||||||||||-108,6969,$GNRMC,174838.000,A,352.,50.$GNGGA,174839.000,3520.8636,N,11748.5476,W,2,15,0.71,629.9,M,-29.4,M,,*43\r0.71,629.9,M,-29\r\n"2022-06-04 17:48:42
"||||||||||||-109,6969,$ACCEL,4.56,-0.34,-8.86,$ALT,659.23,-203.9200,3520.8636,N,11748.5476,W,2,15,0.71,629.9,M,-29.4,M,,*43\r0.71,629.9,M,-29\r\n"2022-06-04 17:48:43
"||||||||||||-106,6969,$GNRMC,174839.00337$GNGGA,174840.000,3520.8636,N,11748.5476,W,2,15,0.71,629.9,M,-29.4,M,,*4D\r\r\n"2022-06-04 17:48:43
"||||||||||||-107,6969,$ACCEL,4.54,-0.34,-8.88,$ALT,659.16,-203.90636,N,11748.5476,W,2,15,0.71,629.9,M,-29.4,M,,*4D\r\r\n"2022-06-04 17:48:44
"||||||||||||-109,6969,$GNRMC,174840.000,A,352$GNGGA,174841.000,3520.8636,N,11748.5476,W,2,15,0.71,629.9,M,-29.4,M,,*4C\r\r\n"2022-06-04 17:48:44
"||||||||||||-104,6969,$ACCEL,4.54,-0.34,-8.88,$ALT,659.09,-203.8720.8636,N,11748.5476,W,2,15,0.71,629.9,M,-29.4,M,,*4C\r\r\n"2022-06-04 17:48:44
"||||||||||||-105,6969,$GNRMC,174841.000,A,3520,8W24,59.09,-203.8720.8636,N,11748.5476,W,2,15,0.71,629.9,M,-29.4,M,,*4C\r\r\n"2022-06-04 17:48:45
"||||||||||||-101,6969,$ACCEL,4.56,-0.35,-8.87,$ALT,659.08,-203.8720.8636,N,11748.5476,W,2,15,0.71,629.9,M,-29.4,M,,*4C\r\r\n"2022-06-04 17:48:45
"||||||||||||-103,6969,$GNGGA,174842.000,3520.8636,N,11748.5476,W,2,15,0.71,629.9,M,-29.4,M,,*4F\r\r\n"2022-06-04 17:48:45
"||||||||||||-98,6969,$ACCEL,4.53,-0.35,-8.88,$ALT,659.12,-203.882,15,0.71,629.9,M,-29.4,M,,*4F\r\r\n"2022-06-04 17:48:46
"||||||||||||-103,6969,$GNRMC,1744A814.86*$GNGGA,174843.000,3520.8636,N,11748.5476,W,2,15,0.71,629.9,M,-29.4,M,,*4E\r\r\n"2022-06-04 17:48:46
"||||||||||||-111,6969,$ACCEL,4.53,-0.35,-8.88,$ALT,659.17,-203.91636,N,11748.5476,W,2,15,0.71,629.9,M,-29.4,M,,*4E\r\r\n"2022-06-04 17:48:47
"||||||||||||-104,6969,$GNRMC,174843.002,8W24,,$ALT,659.17,-203.91636,N,11748.5476,W,2,15,0.71,629.9,M,-29.4,M,,*4E\r\r\n"2022-06-04 17:48:47
"||||||||||||-101,6969,$ACCEL,4.52,-0.35,-8.86,$ALT,659.07,-203.88\u0001\r\n"2022-06-04 17:48:47
"||||||||||||-101,6969,$GNGGA,174844.000,3520.8636,N,11748.5476,W,2,15,0.71,629.9,M,-29.4,M,,*49\r\r\n"2022-06-04 17:48:47
"||||||||||||-101,6969,$ACCEL,4.51,-0.35,-8.87,$ALT,659.11,-203.902,15,0.71,629.9,M,-29.4,M,,*49\r\r\n"2022-06-04 17:48:48
"||||||||||||-102,6969,$GNRMC,174844.0,.,.,30D$GNGGA,174845.000,3520.8636,N,11748.5476,W,2,15,0.71,629.9,M,,G702,8,,0,\r\n"2022-06-04 17:48:48
"||||||||||||-106,6969,$ACCEL,4.55,-0.34,-8.87,$ALT,659.18,-203.9220.8636,N,11748.5476,W,2,15,0.71,629.9,M,,G702,8,,0,\r\n"2022-06-04 17:48:49
"||||||||||||-112,6969,$GNGGA,174846.000,3520.8636,N,11748.5476,W,2,15,0.71,629.9,M,-29.4,M,,*4B\r1,629.9,M,,G702,8,,0,\r\n"2022-06-04 17:48:49
"||||||||||||-107,6969,$ACCEL,4.54,-0.34,-8.87,$ALT,659.12,-203.91\u0005R\r\n"2022-06-04 17:48:50
"||||||||||||-104,6969,$GNRMC,174846.000,A,38,50.6*$GNGGA,174847.000,3520.8636,N,11748.5476,W,2,15,0.71,629.9,M,-29.4,M,,*4A\r \r\n"2022-06-04 17:48:50
"||||||||||||-103,6969,$ACCEL,4.54,-0.34,-8.87,$ALT,659.16,-203.9100,3520.8636,N,11748.5476,W,2,15,0.71,629.9,M,-29.4,M,,*4A\r \r\n"2022-06-04 17:48:50
"||||||||||||-104,6969,$ACCEL,4.54,-0.34,-8.87,$ALT,659.16,-203.9100,3520.8636,N,11748.5476,W,2,15,0.71,629.9,M,-29.4,M,,*4A\r \r\n"2022-06-04 17:48:50
"||||||||||||-105,6969,$ACCEL,4.53,-0.34,-8.87,$ALT,659.18,-203.9200,3520.8636,N,11748.5476,W,2,15,0.71,629.9,M,-29.4,M,,*4A\r \r\n"2022-06-04 17:48:51
"||||||||||||-111,6969,$ACCEL,4.55,-0.35,-8.88,$ALT,659.14,-203.91\u0001\r\n"2022-06-04 17:48:52
"||||||||||||-111,6969,$GNRMC,174848.000,A,36170825$GNGGA,174849.000,3520.8636,N,11748.5476,W,2,15,0.71,629.9,M,-29.4,M,,*44\r \r\n"2022-06-04 17:48:52
"||||||||||||-105,6969,$ACCEL,4.53,-0.34,-8.89,$ALT,659.24,-203.9400,3520.8636,N,11748.5476,W,2,15,0.71,629.9,M,-29.4,M,,*44\r \r\n"2022-06-04 17:48:53
"||||||||||||-111,6969,$GNRMC,174849.0036170826$GNGGA,174850.000,3520.8636,N,11748.5476,W,2,15,0.71,629.9,M,-29.4,M,,*4C\r*44\r \r\n"2022-06-04 17:48:53
"||||||||||||-106,6969,$ACCEL,4.54,-0.34,-8.90,$ALT,659.23,-203.94520.8636,N,11748.5476,W,2,15,0.71,629.9,M,-29.4,M,,*4C\r*44\r \r\n"2022-06-04 17:48:54
"||||||||||||-102,6969,$GNRMC,174850.000,A,36170825$GNGGA,174851.000,3520.8636,N,11748.5476,W,2,15,0.71,629.9,M,-29.,G70564,,0,\r\n"2022-06-04 17:48:54
"||||||||||||-104,6969,$ACCEL,4.54,-0.34,-8.90,$ALT,659.17,-203.9200,3520.8636,N,11748.5476,W,2,15,0.71,629.9,M,-29.,G70564,,0,\r\n"2022-06-04 17:48:55
"||||||||||||-106,6969,$ACCEL,4.54,-0.36,-8.87,$ALT,659.05,-203.88\u0005R\r\n"2022-06-04 17:48:56
"||||||||||||-103,6969,$GNRMC,174852.000,A,36170825$GNGGA,174853.000,3520.8636,N,11748.5476,W,2,15,0.71,629.9,M,-29.4,M,,*4F\r \r\n"2022-06-04 17:48:56
"||||||||||||-106,6969,$ACCEL,4.55,-0.34,-8.88,$ALT,659.16,-203.92\u0005R\r\n"2022-06-04 17:48:57
"||||||||||||-105,6969,$GNRMC,174853.00N.,30D$GNGGA,174854.000,3520.8637,N,11748.5476,W,2,15,0.71,629.9,M,-29.4,M,,*49\r\r\n"2022-06-04 17:48:57
"||||||||||||-106,6969,$ACCEL,4.54,-0.34,-8.88,$ALT,659.08,-203.910.8637,N,11748.5476,W,2,15,0.71,629.9,M,-29.4,M,,*49\r\r\n"2022-06-04 17:48:58
"||||||||||||-113,6969,$GNRMC,174854.00033762828$GNGGA,174855.000,3520.8636,N,11748.5476,W,2,15,0.71,629.9,M,-29.4,M,,*49\r,\u0001\r\n"2022-06-04 17:48:58
"||||||||||||-101,6969,$ACCEL,4.53,-0.35,-8.87,$ALT,659.33,-203.98\u0001\r\n"2022-06-04 17:48:59
"||||||||||||-106,6969,$GNRMC,174855.,6170825$GNGGA,174856.000,3520.8636,N,11748.5476,W,2,15,0.71,629.9,M,-29.4,M,,*4A\r\r\n"2022-06-04 17:48:59
"||||||||||||-109,6969,$ACCEL,4.53,-0.35,-8.87,$ALT,659.21,-203.94\u0005R\r\n"2022-06-04 17:49:00
"||||||||||||-104,6969,$ACCEL,4.54,-0.34,-8.86,$ALT,659.07,-203.89\u0005R\r\n"2022-06-04 17:49:00
"||||||||||||-102,6969,$GNRMC,174857.02,4,,0,6,$ALT,659.07,-20\r\n"2022-06-04 17:49:00
"||||||||||||-104,6969,$ACCEL,4.54,-0.34,-8.86,$ALT,659.06,-203.90\u0005R\r\n"2022-06-04 17:49:01
"||||||||||||-103,6969,$GNGGA,174858.000,3520.8636,N,11748.5476,W,2,15,0.71,629.9,M,-29.4,M,,*44\r\r\n"2022-06-04 17:49:01
"||||||||||||-106,6969,$ACCEL,4.54,-0.34,-8.87,$ALT,659.11,-203.92\u0005R\r\n"2022-06-04 17:49:02
"||||||||||||-104,6969,$GNRMC,174858.0033761,,\r$GNGGA,174859.000,3520.8636,N,11748.5476,W,2,15,0.71,629.9,M,-29.4,M,,*45\r\r\n"2022-06-04 17:49:02
"||||||||||||-100,6969,$ACCEL,4.54,-0.34,-8.87,$ALT,659.10,-203.92\u0001\r\n"2022-06-04 17:49:03
"||||||||||||-99,6969,$GNRMC,174859.056761,,\r$GNGGA,174900.000,3520.8636,N,11748.5476,W,2,15,0.71,629.9,M,-29.4,M,,*48\r\r\n"2022-06-04 17:49:03
"||||||||||||-111,6969,$ACCEL,4.54,-0.34,-8.89,$ALT,659.09,-203.91\u0001\r\n"2022-06-04 17:49:05
"||||||||||||-116,6969,$GNRMC,174900.0033761,,\r$GNGGA,174901.000,3520.8636,N,11748.5476,W,2,15,0.71,629.9,M,9*N402,8W24,\r\n"2022-06-04 17:49:05
"||||||||||||-106,6969,$ACCEL,4.54,-0.35,-8.87,$ALT,659.09,-203.92520.8636,N,11748.5476,W,2,15,0.71,629.9,M,9*N402,8W24,\r\n"2022-06-04 17:49:06
"||||||||||||-105,6969,$GNGGA,174902.000,3520.8636,N,11748.5476,W,2,15,0.71,629.9,M,-29.4,M,,*4A\r71,629.9,M,9*N402,8W24,\r\n"2022-06-04 17:49:06
"||||||||||||-112,6969,$ACCEL,4.52,-0.34,-8.87,$ALT,659.13,-203.932,15,0.71,629.9,M,-29.4,M,,*4A\r71,629.9,M,9*N402,8W24,\r\n"2022-06-04 17:49:07
"||||||||||||-102,6969,$GNRMC,174902.000,A,0N.,30,$GNGGA,174903.000,3520.8636,N,11748.5476,W,2,15,0.71,629.9,M,-29.4,M,,*4B\r\r\n"2022-06-04 17:49:07
"||||||||||||-100,6969,$ACCEL,4.54,-0.34,-8.89,$ALT,659.15,-203.94\u0001\r\n"2022-06-04 17:49:08
"||||||||||||-102,6969,$GNRMC,174903.00564,0,,\r$GNGGA,174904.000,3520.8636,N,11748.5476,W,2,15,0.71,629.9,M,-29.4,M,,*4C\r\r\n"2022-06-04 17:49:08
"||||||||||||-102,6969,$ACCEL,4.54,-0.34,-8.89,$ALT,659.10,-203.91520.8636,N,11748.5476,W,2,15,0.71,629.9,M,-29.4,M,,*4C\r\r\n"2022-06-04 17:49:08
"||||||||||||-100,6969,$GNRMC,174904.002,8W,0,,$ALT,659.10,-203.91520.8636,N,11748.5476,W,2,15,0.71,629.9,M,-29.4,M,,*4C\r\r\n"2022-06-04 17:49:08
"||||||||||||-102,6969,$ACCEL,4.55,-0.35,-8.86,$ALT,659.04,-203.91\u0001\r\n"2022-06-04 17:49:09
"||||||||||||-108,6969,$ACCEL,4.53,-0.34,-8.87,$ALT,659.12,-203.93\u0005R\r\n"2022-06-04 17:49:10
"||||||||||||-116,6969,$GNRMC,174905.0,0N.,30D$GNGGA,174906.000,3520.8636,N,11748.5476,W,2,15,0.71,629.8,M,-29.4,M,,*4F\r\r\n"2022-06-04 17:49:10
"||||||||||||-107,6969,$ACCEL,4.53,-0.34,-8.87,$ALT,659.05,-203.9120.8636,N,11748.5476,W,2,15,0.71,629.8,M,-29.4,M,,*4F\r\r\n"2022-06-04 17:49:11
